~VERSION
 VERS.        2.00                                                                   :CWLS LOG ASCII STANDARD
 WRAP.        NO                                                                     :NO WRAP PERFORMED
 PROD.        Schlumberger                                                           :LAS Producer
 CREA.        Fri Nov 16 12:50:33 2012                                               :LAS Creation Date and time
~Well
#MNEM.UNIT    VALUE                                                                   :DESCRIPTION
#----.----    ---------------                                                        :-------------------
 STRT.F       5331.500                                                               :START DEPTH
 STOP.F       350.000                                                                :STOP  DEPTH
 STEP.F       -0.500                                                                 :DEPTH STEP
 NULL.        -999.250                                                               :NULL VALUE
 COMP.        ADM                                                                    :COMPANY NAME
 WELL.        Verification Well #2                                                   :WELL NAME
 FLD.         Wildcat                                                                :FIELD NAME
 API.         12115235520000                                                         :API NUMBER
 CNTY.        Macon                                                                  :COUNTY
 STAT.        Illinois                                                               :STATE
 CTRY.        US                                                                     :COUNTRY
 LOC.         Long:-88.8924449, Lat: 39.8922313                                      :WELL SURFACE LOCATION LINE 1
 LOC2.        248' South and 233' East from the NW corner of the                     :WELL SURFACE LOCATION LINE 2
 LOC3.        NW/4, of the NE/4, of the NW/4, of Section 32                          :WELL SURFACE LOCATION LINE 3
 SECT.        32                                                                     :SECTION
 TOWN.        17 North                                                               :TOWNSHIP
 RANG.        3 East                                                                 :RANGE
 LATI.        39.892232 degrees                                                      :Latitude
 LONG.        -88.892445 degrees                                                     :Longitude
 DATE.        2012/10/08                                                             :LOGGING DATE
 SRVC.        Schlumberger                                                           :SERVICE COMPANY
~Parameter
#MNEM.UNIT    VALUE                                                                  :DESCRIPTION
#----.----    ---------------                                                        :-------------------
 APD.F        17.000                                                                 :Elevation of depth reference above permanent datum
 EDF.F        703.500                                                                :Elevation of Derrick Floor
 EGL.F        686.500                                                                :Elevation of Ground Level
 EKB.F        703.500                                                                :Elevation of Kelly Bushing
 EPD.F        686.500                                                                :Elevation of Permnaent Datum
 LMF.         KB                                                                     :Logging Measured From
 PDAT.        Ground level                                                           :Permanent Datum
 TDD.F        5316.000                                                               :Total Depth Driller
 TDL.F        5316.000                                                               :Total Depth Logger
 BS.IN        12.250                                                                 :Bit Size
 R1.                                                                                 :REMARK 1
 R2.                                                                                 :REMARK 2
 R3.                                                                                 :REMARK 3
 R4.                                                                                 :REMARK 4
 R5.                                                                                 :REMARK 5
 R6.                                                                                 :REMARK 6
 R7.                                                                                 :REMARK 7
 R8.                                                                                 :REMARK 8
 R9.                                                                                 :REMARK 9
 R10.                                                                                :REMARK 10
 DCS_CENTER.  Denver DCS                                                             :Schlumberger DCS Center
 LOG_ANALYST. Roberts                                                                :Log Analyst Name
 ENG.         Kevin Ryan                                                             :Field Engineer Name
 GF_BASELINE. GF45                                                                   :GeoFrame Baseline
~Curve
#MNEM.UNIT                                                                           :DESCRIPTION
#----.----                                                                           :--------------------------------
 DEPT.F                                                                              :Depth Index
 GR.GAPI                                                                             : 1 Gamma Ray                                                                                 
 RHOZ.G/C3                                                                           : 2 HRDD Standard Resolution Formation Density                                                
 BS.IN                                                                               : 3 Bit Size                                                                                  
 P1AZ.DEG                                                                            : 4 Pad 1 Azimuth in Horizontal Plane (0 = True North)                                        
 SDEVM.DEG                                                                           : 5 Memorized Sonde Deviation                                                                 
 HAZIM.DEG                                                                           : 6 Memorized Hole Azimuth Relative to True North                                             
 RB.DEG                                                                              : 7 Relative Bearing                                                                          
 DEVI.DEG                                                                            : 8 Hole Deviation                                                                            
 HD1_PPC1.IN                                                                         : 9 PPC1 Hole Diameter 1                                                                      
 HD2_PPC1.IN                                                                         :10 PPC1 Hole Diameter 2                                                                      
 TENS.LBS                                                                            :11 Cable Tension                                                                             
 HDAR.IN                                                                             :12 Hole Diameter from Area                                                                   
 MINXENE_OVERALL.                                                                    :13 Overall estimate of minimum cross energy                                                  
 MAXXENE_OVERALL.                                                                    :14 Overall estimate of maximum cross energy                                                  
 FSH_AZIM_OVERALL_FILT.DEG                                                           :15 Overall estimate of fast shear azimuth filtered                                           
 FSH_AZIM_OVERALL.DEG                                                                :16 Overall estimate of fast shear azimuth                                                    
 FSH_AZIM_ERR.DEG                                                                    :17 Fast shear azimuth error                                                                  
 DTSM_SLOW.US/F                                                                      :18 Shear Slowness of Slow Shear Waves                                                        
 DTSM_FAST.US/F                                                                      :19 Shear Slowness of Fast Shear Waves                                                        
 DTCO.US/F                                                                           :20 Delta-T Compressional                                                                     
 SLOANI.                                                                             :21 Slowness based anisotropy                                                                 
 TIMANI.                                                                             :22 Time based anisotropy                                                                     
 TWE.US                                                                              :23 Time window end                                                                           
 TWB.US                                                                              :24 Time window begin                                                                         
 FLAG.                                                                               :25 Shear Flag                                                                    
 FLAG.                                                                               :26 Bad Hole Flag                                                                    
~Ascii   DEPT            GR          RHOZ            BS          P1AZ         SDEVM         HAZIM            RB          DEVI      HD1_PPC1      HD2_PPC1          TENS          HDAR  MINXENE_OVER  MAXXENE_OVER  FSH_AZIM_OVE  FSH_AZIM_OVE  FSH_AZIM_ERR     DTSM_SLOW     DTSM_FAST          DTCO        SLOANI        TIMANI           TWE           TWB          FLAG          FLAG
# ...
    2350.50000      48.07891       2.68647      12.25000     132.44089       1.75449     232.15327     260.28314       1.74210      12.57698      12.66039    1802.00000      12.61869       1.19923       2.37245    -999.25000      73.53194      10.76106     118.33543     117.57465      65.80609       0.64497       0.52314    5139.39014    2139.39014    -999.25000    -999.25000
    2350.00000      50.40524       2.69542      12.25000     133.02647       1.75606     232.27365     260.74857       1.74376      12.55567      12.68253    1795.70349      12.61910       1.20525       2.36555    -999.25000      74.17924      10.82892     119.53271     118.56644      66.17387       0.81165       0.52838    5135.44775    2135.44775    -999.25000    -999.25000
    2349.50000      50.33338       2.69524      12.25000     133.36638       1.75740     232.38605     260.97617       1.74511      12.56242      12.67218    1730.43262      12.61730       1.21558       2.36411    -999.25000      74.83629      11.04448     118.81539     118.42460      66.14069       0.32945       0.53041    5132.58252    2132.58252    -999.25000    -999.25000
    2349.00000      44.98862       2.67574      12.25000     133.62463       1.75847     232.48325     261.13727       1.74667      12.57480      12.66672    1811.99890      12.62076       1.22909       2.34782    -999.25000      75.74979      11.21689     117.02993     116.93537      65.37916       0.08083       0.53805    5131.53760    2131.53760    -999.25000    -999.25000
    2348.50000      37.64853       2.66720      12.25000     133.74983       1.75928     232.56544     261.18030       1.74742      12.57964      12.65337    1844.28540      12.61650       1.23992       2.32436    -999.25000      76.57836      11.40190     114.80120     114.07168      63.10232       0.63749       0.54517    5131.71631    2131.71631    -999.25000    -999.25000
    2348.00000      32.13858       2.66998      12.25000     133.95872       1.75983     232.63585     261.31885       1.74759      12.58778      12.64847    1764.07690      12.61812       1.24778       2.30580    -999.25000      77.32408      11.67039     111.76818     111.32397      59.50760       0.39823       0.54612    5131.84961    2131.84961    -999.25000    -999.25000
    2347.50000      31.05212       2.67627      12.25000     133.63127       1.76015     232.69308     260.93399       1.74755      12.56050      12.64844    1794.69128      12.60447       1.25624       2.27807    -999.25000      78.45216      11.85474     109.49928     109.40881      56.60130       0.08265       0.54769    5131.14990    2131.14990    -999.25000    -999.25000
    2347.00000      31.16011       2.67892      12.25000     133.40999       1.76027     232.73874     260.66693       1.74706      12.59830      12.63651    1788.66663      12.61740       1.25974       2.25378    -999.25000      79.83109      11.87071     108.42771     108.13261      56.05305       0.27254       0.55119    5129.47266    2129.47266    -999.25000    -999.25000
    2346.50000      31.40086       2.67440      12.25000     133.05617       1.76027     232.77126     260.28040       1.74648      12.59830      12.65774    1783.66663      12.62802       1.26194       2.24555    -999.25000      81.31258      11.76069     108.40379     107.94415      57.09272       0.42491       0.55486    5127.06250    2127.06250    -999.25000    -999.25000
    2346.00000      32.86153       2.66626      12.25000     132.83746       1.76021     232.79594     260.03693       1.74537      12.60012      12.63210    1807.15149      12.61611       1.26263       2.24852    -999.25000      82.85243      11.64207     109.17251     108.55563      58.75349       0.56665       0.55814    5123.74756    2123.74756    -999.25000    -999.25000
    2345.50000      34.60340       2.65935      12.25000     132.40585       1.76020     232.81712     259.58392       1.74448      12.60064      12.63198    1776.33337      12.61631       1.26674       2.25428    -999.25000      84.62135      11.61704     110.48387     109.99521      60.12409       0.44327       0.55973    5119.22705    2119.22705    -999.25000    -999.25000
    2345.00000      39.19840       2.65457      12.25000     132.25116       1.76033     232.82962     259.41666       1.74397      12.60518      12.63627    1818.23645      12.62072       1.27859       2.25404    -999.25000      86.69475      11.49388     112.10072     111.59606      61.19791       0.45119       0.55771    5114.53809    2114.53760    -999.25000    -999.25000
    2344.50000      42.69632       2.66768      12.25000     132.31068       1.76066     232.83955     259.46628       1.74360      12.60880      12.64713    1815.19446      12.62796       1.27778       2.24108    -999.25000      88.34840      11.42010     114.36786     113.51219      62.14305       0.75098       0.55269    5111.39063    2111.39087    -999.25000    -999.25000
    2344.00000      43.24317       2.69163      12.25000     132.21046       1.76127     232.84311     259.36246       1.74430      12.60530      12.66039    1787.00000      12.63285       1.26968       2.21511    -999.25000      -0.47895      11.59910     116.31552     115.14259      62.96988       1.01351       0.54390    5110.59277    2110.59277    -999.25000    -999.25000
    2343.50000      43.05918       2.68995      12.25000     132.23337       1.76218     232.83998     259.38849       1.74510      12.60063      12.66569    1819.42517      12.63316       1.27059       2.17716    -999.25000     -89.07248      11.84970     116.76131     115.65833      63.63795       0.94913       0.52975    5111.70850    2111.70850    -999.25000    -999.25000
    2343.00000      42.03765       2.67719      12.25000     132.30812       1.76340     232.83414     259.46912       1.74757      12.60880      12.69747    1786.49963      12.65314       1.26563       2.12472    -999.25000     -87.46945      12.33102     116.48726     115.94836      64.08452       0.46370       0.51323    5113.44434    2113.44434    -999.25000    -999.25000
    2342.50000      44.77917       2.65511      12.25000     132.36975       1.76488     232.82648     259.53842       1.74950      12.60880      12.80345    1823.66675      12.70612       1.26172       2.06510    -999.25000     -85.86249      12.99862     116.30962     115.74033      64.09673       0.49067       0.49529    5115.05957    2115.05933    -999.25000    -999.25000
    2342.00000      42.48094       2.66218      12.25000     132.15607       1.76659     232.81195     259.33917       1.75178      12.62167      12.80310    1778.33337      12.71238       1.26916       2.00514    -999.25000     -83.77579      13.37730     115.94310     115.49049      63.57238       0.39114       0.47423    5116.49170    2116.49146    -999.25000    -999.25000
    2341.50000      41.76257       2.66833      12.25000     132.03372       1.76846     232.79858     259.23013       1.75448      12.61116      12.77922    1753.33337      12.69519       1.27025       1.94704    -999.25000     -81.04846      13.55518     115.35291     114.84957      62.49854       0.43730       0.44903    5117.22852    2117.22852    -999.25000    -999.25000
    2341.00000      37.04908       2.66346      12.25000     132.29564       1.77042     232.78557     259.50519       1.75675      12.62167      12.75541    1788.33337      12.68854       1.25427       1.89417    -999.25000     -77.94914      13.62666     114.62226     114.01117      61.30542       0.53456       0.42387    5116.94141    2116.94116    -999.25000    -999.25000
    2340.50000      35.94605       2.64769      12.25000     132.47610       1.77242     232.77231     259.69897       1.75875      12.60880      12.74387    1759.33325      12.67634       1.22144       1.86032    -999.25000     -74.46202      13.41479     113.87000     113.17561      60.47866       0.61167       0.40212    5116.04492    2116.04517    -999.25000    -999.25000
    2340.00000      33.50217       2.63413      12.25000     132.85028       1.77441     232.76167     260.08395       1.76097      12.60880      12.72003    1814.00000      12.66442       1.17619       1.85416    -999.25000     -70.68645      13.03695     113.10148     112.44364      60.11485       0.58333       0.38372    5115.00781    2115.00830    -999.25000    -999.25000
