~VERSION
 VERS.        2.00                                                                   :CWLS LOG ASCII STANDARD
 WRAP.        NO                                                                     :NO WRAP PERFORMED
 PROD.        Schlumberger                                                           :LAS Producer
 CREA.        Fri Nov 16 12:50:33 2012                                               :LAS Creation Date and time
~Well
#MNEM.UNIT    VALUE                                                                   :DESCRIPTION
#----.----    ---------------                                                        :-------------------
 STRT.F       5331.500                                                               :START DEPTH
 STOP.F       350.000                                                                :STOP  DEPTH
 STEP.F       -0.500                                                                 :DEPTH STEP
 NULL.        -999.250                                                               :NULL VALUE
 COMP.        ADM                                                                    :COMPANY NAME
 WELL.        Verification Well #2                                                   :WELL NAME
 FLD.         Wildcat                                                                :FIELD NAME
 API.         12115235520000                                                         :API NUMBER
 CNTY.        Macon                                                                  :COUNTY
 STAT.        Illinois                                                               :STATE
 CTRY.        US                                                                     :COUNTRY
 LOC.         Long:-88.8924449, Lat: 39.8922313                                      :WELL SURFACE LOCATION LINE 1
 LOC2.        248' South and 233' East from the NW corner of the                     :WELL SURFACE LOCATION LINE 2
 LOC3.        NW/4, of the NE/4, of the NW/4, of Section 32                          :WELL SURFACE LOCATION LINE 3
 SECT.        32                                                                     :SECTION
 TOWN.        17 North                                                               :TOWNSHIP
 RANG.        3 East                                                                 :RANGE
 LATI.        39.892232 degrees                                                      :Latitude
 LONG.        -88.892445 degrees                                                     :Longitude
 DATE.        2012/10/08                                                             :LOGGING DATE
 SRVC.        Schlumberger                                                           :SERVICE COMPANY
~Parameter
#MNEM.UNIT    VALUE                                                                  :DESCRIPTION
#----.----    ---------------                                                        :-------------------
 APD.F        17.000                                                                 :Elevation of depth reference above permanent datum
 EDF.F        703.500                                                                :Elevation of Derrick Floor
 EGL.F        686.500                                                                :Elevation of Ground Level
 EKB.F        703.500                                                                :Elevation of Kelly Bushing
 EPD.F        686.500                                                                :Elevation of Permnaent Datum
 LMF.         KB                                                                     :Logging Measured From
 PDAT.        Ground level                                                           :Permanent Datum
 TDD.F        5316.000                                                               :Total Depth Driller
 TDL.F        5316.000                                                               :Total Depth Logger
 BS.IN        12.250                                                                 :Bit Size
 R1.                                                                                 :REMARK 1
 R2.                                                                                 :REMARK 2
 R3.                                                                                 :REMARK 3
 R4.                                                                                 :REMARK 4
 R5.                                                                                 :REMARK 5
 R6.                                                                                 :REMARK 6
 R7.                                                                                 :REMARK 7
 R8.                                                                                 :REMARK 8
 R9.                                                                                 :REMARK 9
 R10.                                                                                :REMARK 10
 DCS_CENTER.  Denver DCS                                                             :Schlumberger DCS Center
 LOG_ANALYST. Roberts                                                                :Log Analyst Name
 ENG.         Kevin Ryan                                                             :Field Engineer Name
 GF_BASELINE. GF45                                                                   :GeoFrame Baseline
~Curve
#MNEM.UNIT                                                                           :DESCRIPTION
#----.----                                                                           :--------------------------------
 DEPT.F                                                                              :Depth Index
 GR.GAPI                                                                             : 1 Gamma Ray                                                                                 
 RHOZ.G/C3                                                                           : 2 HRDD Standard Resolution Formation Density                                                
 BS.IN                                                                               : 3 Bit Size                                                                                  
 P1AZ.DEG                                                                            : 4 Pad 1 Azimuth in Horizontal Plane (0 = True North)                                        
 SDEVM.DEG                                                                           : 5 Memorized Sonde Deviation                                                                 
 HAZIM.DEG                                                                           : 6 Memorized Hole Azimuth Relative to True North                                             
 RB.DEG                                                                              : 7 Relative Bearing                                                                          
 DEVI.DEG                                                                            : 8 Hole Deviation                                                                            
 HD1_PPC1.IN                                                                         : 9 PPC1 Hole Diameter 1                                                                      
 HD2_PPC1.IN                                                                         :10 PPC1 Hole Diameter 2                                                                      
 TENS.LBS                                                                            :11 Cable Tension                                                                             
 HDAR.IN                                                                             :12 Hole Diameter from Area                                                                   
 MINXENE_OVERALL.                                                                    :13 Overall estimate of minimum cross energy                                                  
 MAXXENE_OVERALL.                                                                    :14 Overall estimate of maximum cross energy                                                  
 FSH_AZIM_OVERALL_FILT.DEG                                                           :15 Overall estimate of fast shear azimuth filtered                                           
 FSH_AZIM_OVERALL.DEG                                                                :16 Overall estimate of fast shear azimuth                                                    
 FSH_AZIM_ERR.DEG                                                                    :17 Fast shear azimuth error                                                                  
 DTSM_SLOW.US/F                                                                      :18 Shear Slowness of Slow Shear Waves                                                        
 DTSM_FAST.US/F                                                                      :19 Shear Slowness of Fast Shear Waves                                                        
 DTCO.US/F                                                                           :20 Delta-T Compressional                                                                     
 SLOANI.                                                                             :21 Slowness based anisotropy                                                                 
 TIMANI.                                                                             :22 Time based anisotropy                                                                     
 TWE.US                                                                              :23 Time window end                                                                           
 TWB.US                                                                              :24 Time window begin                                                                         
 FLAG.                                                                               :25 Shear Flag                                                                    
 FLAG.                                                                               :26 Bad Hole Flag                                                                    
~Ascii   DEPT            GR          RHOZ            BS          P1AZ         SDEVM         HAZIM            RB          DEVI      HD1_PPC1      HD2_PPC1          TENS          HDAR  MINXENE_OVER  MAXXENE_OVER  FSH_AZIM_OVE  FSH_AZIM_OVE  FSH_AZIM_ERR     DTSM_SLOW     DTSM_FAST          DTCO        SLOANI        TIMANI           TWE           TWB          FLAG          FLAG
# ...
    2020.50000      64.74388       2.62779      12.25000      38.79003       1.17290     248.84836     149.94688       1.15669      12.68528      12.60013    1799.66675      12.64270       1.22844       1.88817    -999.25000      45.70886      18.57702     151.70164     151.19943      79.43974       0.33160       0.07063    5579.46973    2579.46973    -999.25000    -999.25000
    2020.00000      62.93891       2.63736      12.25000      39.15918       1.17075     248.88884     150.27550       1.15449      12.69394      12.60068    1748.75000      12.64731       1.20758       1.94242    -999.25000      46.43943      17.89660     148.82767     148.24075      77.15395       0.39514       0.09454    5566.35254    2566.35254    -999.25000    -999.25000
    2019.50000      61.89075       2.64938      12.25000      39.40612       1.16886     248.93500     150.47624       1.15201      12.67479      12.60010    1735.66675      12.63744       1.19900       2.02345    -999.25000      46.47962      17.56024     146.53142     145.82245      74.79594       0.48501       0.09694    5551.54688    2551.54712    -999.25000    -999.25000
    2019.00000      65.34382       2.65526      12.25000      39.51886       1.16729     248.98758     150.53638       1.15026      12.68316      12.57677    1740.00000      12.62996       1.19121       2.07536    -999.25000      46.28304      17.52912     144.90225     144.34535      73.72162       0.38507       0.08467    5534.58594    2534.58594    -999.25000    -999.25000
    2018.50000      62.78325       2.65624      12.25000      39.60385       1.16607     249.04558     150.56335       1.14914      12.66188      12.60068    1730.66663      12.63128       1.17067       2.09197    -999.25000      46.86226      17.31635     143.78754     143.46671      74.12045       0.22338       0.09488    5515.36475    2515.36475    -999.25000    -999.25000
    2018.00000      59.15481       2.65296      12.25000      39.54146       1.16523     249.11224     150.43430       1.14826      12.65109      12.57674    1777.33337      12.61391       1.16707       2.11515    -999.25000      47.37263      17.32463     143.12358     142.95935      75.68438       0.11481       0.10237    5494.89990    2494.89990    -999.25000    -999.25000
    2017.50000      56.26520       2.65389      12.25000      39.65295       1.16478     249.18694     150.47110       1.14790      12.64060      12.58874    1774.33337      12.61467       1.16625       2.13599    -999.25000      48.75032      17.03192     142.83217     142.34160      76.67533       0.34405       0.13269    5474.51074    2474.51050    -999.25000    -999.25000
    2017.00000      58.90503       2.66372      12.25000      39.73333       1.16471     249.27005     150.46837       1.14833      12.61930      12.58871    1722.66675      12.60401       1.15948       2.15862    -999.25000      49.90597      16.57666     142.87418     141.64743      76.48753       0.86232       0.19173    5455.79883    2455.79883    -999.25000    -999.25000
    2016.50000      64.49358       2.65282      12.25000      39.78380       1.16501     249.36198     150.42690       1.14905      12.61930      12.58871    1760.00000      12.60401       1.14319       2.17775    -999.25000      50.55868      15.89808     143.03159     141.70468      75.45322       0.93202       0.25959    5440.73340    2440.73364    -999.25000    -999.25000
    2016.00000      65.97610       2.63874      12.25000      39.84151       1.16564     249.46030     150.38631       1.15031      12.60005      12.58815    1728.50000      12.59410       1.12326       2.21625    -999.25000      51.31918      15.01478     143.02975     142.31534      74.98287       0.50074       0.31008    5430.46826    2430.46826    -999.25000    -999.25000
    2015.50000      65.25890       2.62286      12.25000      39.75861       1.16656     249.56609     150.19765       1.15129      12.62167      12.58815    1773.00012      12.60491       1.12432       2.25824    -999.25000      51.48972      14.75981     142.90678     142.37122      75.14545       0.37547       0.32085    5425.15479    2425.15479    -999.25000    -999.25000
    2015.00000      62.67680       2.62535      12.25000      39.58193       1.16768     249.67706     149.91003       1.15231      12.60880      12.58871    1735.33337      12.59876       1.12508       2.30319    -999.25000      51.75653      14.28625     142.84731     141.88304      75.65848       0.67732       0.33397    5423.49805    2423.49780    -999.25000    -999.25000
    2014.50000      64.95977       2.62195      12.25000      39.35501       1.16896     249.79424     149.56598       1.15393      12.58954      12.61208    1652.33350      12.60081       1.11827       2.37906    -999.25000      52.13585      13.44728     142.61270     141.45811      75.75404       0.81289       0.36442    5423.39258    2423.39282    -999.25000    -999.25000
    2014.00000      63.38809       2.62140      12.25000      39.11627       1.17030     249.91292     149.20862       1.15696      12.58720      12.58871    1736.00000      12.58796       1.09968       2.45487    -999.25000      52.58691      12.00651     142.08403     141.05043      75.51510       0.73011       0.42000    5423.67090    2423.67041    -999.25000    -999.25000
    2013.50000      63.91428       2.63482      12.25000      38.93169       1.17164     250.03870     148.89830       1.15856      12.58720      12.58874    1746.75012      12.58797       1.06077       2.51029    -999.25000      53.20147      10.49668     141.26877     140.59152      75.35641       0.48055       0.46989    5423.83643    2423.83594    -999.25000    -999.25000
    2013.00000      57.00608       2.65075      12.25000      38.69882       1.17292     250.16995     148.53423       1.16017      12.57902      12.60013    1761.00000      12.58958       1.02509       2.58215    -999.25000      53.54723       9.85965     140.30084     139.99030      75.30149       0.22159       0.49698    5423.34912    2423.34912    -999.25000    -999.25000
    2012.50000      55.64663       2.65734      12.25000      38.39258       1.17408     250.30479     148.09319       1.16154      12.58720      12.58871    1711.33337      12.58796       1.01304       2.66882    -999.25000      53.65963       9.22752     139.29692     138.94875      75.14539       0.25026       0.53477    5421.28125    2421.28125    -999.25000    -999.25000
    2012.00000      49.68935       2.65758      12.25000      38.06879       1.17509     250.45128     147.62297       1.16261      12.57669      12.60068    1712.33337      12.58869       1.00548       2.74869    -999.25000      53.95424       8.62770     138.13452     137.68996      74.53407       0.32235       0.56235    5417.32129    2417.32129    -999.25000    -999.25000
    2011.50000      48.97138       2.65377      12.25000      37.75385       1.17593     250.60132     147.15802       1.16368      12.57902      12.60010    1766.66663      12.58956       0.99289       2.82760    -999.25000      54.30641       8.66547     136.76129     136.61058      73.23897       0.11026       0.56656    5412.04102    2412.04126    -999.25000    -999.25000
    2011.00000      45.53738       2.64027      12.25000      37.50157       1.17659     250.76514     146.74197       1.16445      12.59800      12.60068    1699.66675      12.59934       0.98830       2.87476    -999.25000      54.63381       8.82424     135.26923     135.88985      71.77727      -0.45775       0.57360    5405.98340    2405.98340    -999.25000    -999.25000
    2010.50000      48.19334       2.62136      12.25000      37.19422       1.17709     250.93840     146.26140       1.16551      12.59800      12.61262    1745.66675      12.60531       1.01223       2.90663    -999.25000      55.02900       8.84520     133.89459     135.48955      71.31908      -1.18415       0.59090    5399.17822    2399.17822    -999.25000    -999.25000
    2010.00000      49.90068       2.61324      12.25000      36.76558       1.17742     251.11949     145.65172       1.16590      12.60850      12.60068    1747.33337      12.60459       1.05780       2.98254    -999.25000      55.62588       8.75713     133.08427     134.57335      71.86409      -1.11267       0.56828    5390.99316    2390.99365    -999.25000    -999.25000
