~VERSION
 VERS.        2.00                                                                   :CWLS LOG ASCII STANDARD
 WRAP.        NO                                                                     :NO WRAP PERFORMED
 PROD.        Schlumberger                                                           :LAS Producer
 CREA.        Fri Nov 16 12:50:33 2012                                               :LAS Creation Date and time
~Well
#MNEM.UNIT    VALUE                                                                   :DESCRIPTION
#----.----    ---------------                                                        :-------------------
 STRT.F       5331.500                                                               :START DEPTH
 STOP.F       350.000                                                                :STOP  DEPTH
 STEP.F       -0.500                                                                 :DEPTH STEP
 NULL.        -999.250                                                               :NULL VALUE
 COMP.        ADM                                                                    :COMPANY NAME
 WELL.        Verification Well #2                                                   :WELL NAME
 FLD.         Wildcat                                                                :FIELD NAME
 API.         12115235520000                                                         :API NUMBER
 CNTY.        Macon                                                                  :COUNTY
 STAT.        Illinois                                                               :STATE
 CTRY.        US                                                                     :COUNTRY
 LOC.         Long:-88.8924449, Lat: 39.8922313                                      :WELL SURFACE LOCATION LINE 1
 LOC2.        248' South and 233' East from the NW corner of the                     :WELL SURFACE LOCATION LINE 2
 LOC3.        NW/4, of the NE/4, of the NW/4, of Section 32                          :WELL SURFACE LOCATION LINE 3
 SECT.        32                                                                     :SECTION
 TOWN.        17 North                                                               :TOWNSHIP
 RANG.        3 East                                                                 :RANGE
 LATI.        39.892232 degrees                                                      :Latitude
 LONG.        -88.892445 degrees                                                     :Longitude
 DATE.        2012/10/08                                                             :LOGGING DATE
 SRVC.        Schlumberger                                                           :SERVICE COMPANY
~Parameter
#MNEM.UNIT    VALUE                                                                  :DESCRIPTION
#----.----    ---------------                                                        :-------------------
 APD.F        17.000                                                                 :Elevation of depth reference above permanent datum
 EDF.F        703.500                                                                :Elevation of Derrick Floor
 EGL.F        686.500                                                                :Elevation of Ground Level
 EKB.F        703.500                                                                :Elevation of Kelly Bushing
 EPD.F        686.500                                                                :Elevation of Permnaent Datum
 LMF.         KB                                                                     :Logging Measured From
 PDAT.        Ground level                                                           :Permanent Datum
 TDD.F        5316.000                                                               :Total Depth Driller
 TDL.F        5316.000                                                               :Total Depth Logger
 BS.IN        12.250                                                                 :Bit Size
 R1.                                                                                 :REMARK 1
 R2.                                                                                 :REMARK 2
 R3.                                                                                 :REMARK 3
 R4.                                                                                 :REMARK 4
 R5.                                                                                 :REMARK 5
 R6.                                                                                 :REMARK 6
 R7.                                                                                 :REMARK 7
 R8.                                                                                 :REMARK 8
 R9.                                                                                 :REMARK 9
 R10.                                                                                :REMARK 10
 DCS_CENTER.  Denver DCS                                                             :Schlumberger DCS Center
 LOG_ANALYST. Roberts                                                                :Log Analyst Name
 ENG.         Kevin Ryan                                                             :Field Engineer Name
 GF_BASELINE. GF45                                                                   :GeoFrame Baseline
~Curve
#MNEM.UNIT                                                                           :DESCRIPTION
#----.----                                                                           :--------------------------------
 DEPT.F                                                                              :Depth Index
 GR.GAPI                                                                             : 1 Gamma Ray                                                                                 
 RHOZ.G/C3                                                                           : 2 HRDD Standard Resolution Formation Density                                                
 BS.IN                                                                               : 3 Bit Size                                                                                  
 P1AZ.DEG                                                                            : 4 Pad 1 Azimuth in Horizontal Plane (0 = True North)                                        
 SDEVM.DEG                                                                           : 5 Memorized Sonde Deviation                                                                 
 HAZIM.DEG                                                                           : 6 Memorized Hole Azimuth Relative to True North                                             
 RB.DEG                                                                              : 7 Relative Bearing                                                                          
 DEVI.DEG                                                                            : 8 Hole Deviation                                                                            
 HD1_PPC1.IN                                                                         : 9 PPC1 Hole Diameter 1                                                                      
 HD2_PPC1.IN                                                                         :10 PPC1 Hole Diameter 2                                                                      
 TENS.LBS                                                                            :11 Cable Tension                                                                             
 HDAR.IN                                                                             :12 Hole Diameter from Area                                                                   
 MINXENE_OVERALL.                                                                    :13 Overall estimate of minimum cross energy                                                  
 MAXXENE_OVERALL.                                                                    :14 Overall estimate of maximum cross energy                                                  
 FSH_AZIM_OVERALL_FILT.DEG                                                           :15 Overall estimate of fast shear azimuth filtered                                           
 FSH_AZIM_OVERALL.DEG                                                                :16 Overall estimate of fast shear azimuth                                                    
 FSH_AZIM_ERR.DEG                                                                    :17 Fast shear azimuth error                                                                  
 DTSM_SLOW.US/F                                                                      :18 Shear Slowness of Slow Shear Waves                                                        
 DTSM_FAST.US/F                                                                      :19 Shear Slowness of Fast Shear Waves                                                        
 DTCO.US/F                                                                           :20 Delta-T Compressional                                                                     
 SLOANI.                                                                             :21 Slowness based anisotropy                                                                 
 TIMANI.                                                                             :22 Time based anisotropy                                                                     
 TWE.US                                                                              :23 Time window end                                                                           
 TWB.US                                                                              :24 Time window begin                                                                         
 FLAG.                                                                               :25 Shear Flag                                                                    
 FLAG.                                                                               :26 Bad Hole Flag                                                                    
~Ascii   DEPT            GR          RHOZ            BS          P1AZ         SDEVM         HAZIM            RB          DEVI      HD1_PPC1      HD2_PPC1          TENS          HDAR  MINXENE_OVER  MAXXENE_OVER  FSH_AZIM_OVE  FSH_AZIM_OVE  FSH_AZIM_ERR     DTSM_SLOW     DTSM_FAST          DTCO        SLOANI        TIMANI           TWE           TWB          FLAG          FLAG
# ...
    1019.50000      86.57626       2.53993      12.25000      62.47522       0.43785     249.94907     172.52637       0.41630      12.61900      12.87486    1456.00000      12.74693       0.44924       3.58854    -999.25000      67.32545       5.12838     166.42241     162.88548      86.17378       2.14810       0.72216    5963.12109    2963.12109    -999.25000    -999.25000
    1019.00000      86.40157       2.55355      12.25000      62.39902       0.43862     250.12579     172.27345       0.41667      12.62711      12.88651    1398.15857      12.75681       0.46705       3.70044    -999.25000      67.10615       5.42973     166.20212     162.56169      84.47462       2.21462       0.69855    5978.13379    2978.13379    -999.25000    -999.25000
    1018.50000      89.48620       2.57308      12.25000      62.34148       0.43930     250.28856     172.05316       0.41716      12.65894      12.88666    1431.34680      12.77280       0.47397       3.80004    -999.25000      66.95106       5.70567     167.06221     163.36163      84.41919       2.23990       0.69826    5991.21484    2991.21484    -999.25000    -999.25000
    1018.00000      94.35176       2.58518      12.25000      62.19622       0.43991     250.43588     171.76057       0.41798      12.65181      12.88658    1394.61536      12.76920       0.47835       3.87538    -999.25000      66.78895       5.77587     168.41870     164.63127      86.00018       2.27439       0.70202    6000.84863    3000.84814    -999.25000    -999.25000
    1017.50000      91.65874       2.57026      12.25000      61.95227       0.44047     250.56796     171.38457       0.41877      12.64492      12.87995    1428.25183      12.76243       0.48166       4.01155    -999.25000      66.59986       5.72820     170.03622     166.15700      87.79317       2.30774       0.71037    6008.61035    3008.61011    -999.25000    -999.25000
    1017.00000      85.49426       2.54769      12.25000      61.90290       0.44098     250.68431     171.21884       0.41918      12.63280      12.88334    1473.95850      12.75807       0.49982       4.24570    -999.25000      66.25125       5.57479     171.38504     167.57663      88.61509       2.24710       0.72366    6015.52197    3015.52197    -999.25000    -999.25000
    1016.50000      83.77534       2.52820      12.25000      61.90637       0.44145     250.78716     171.11948       0.41926      12.63879      12.87655    1450.52808      12.75767       0.52494       4.41518    -999.25000      65.77779       5.50331     172.02887     168.63350      88.78320       1.99339       0.74633    6021.87158    3021.87158    -999.25000    -999.25000
    1016.00000      86.61097       2.53124      12.25000      62.03011       0.44188     250.87827     171.15210       0.41988      12.62980      12.86296    1465.50012      12.74638       0.54281       4.32581    -999.25000      65.39104       5.67509     171.99937     169.32599      88.97147       1.56647       0.75731    6029.36182    3029.36182    -999.25000    -999.25000
    1015.50000      85.05661       2.54799      12.25000      62.03803       0.44227     250.95811     171.08018       0.42036      12.62980      12.82728    1413.66675      12.72854       0.55661       4.28571    -999.25000      64.78505       6.06295     171.92047     169.55156      89.39415       1.38747       0.73409    6039.19824    3039.19824    -999.25000    -999.25000
    1015.00000      85.23047       2.55503      12.25000      61.98264       0.44263     251.03127     170.95164       0.42065      12.62980      12.83918    1387.66663      12.73449       0.58190       4.32119    -999.25000      64.17766       6.31240     171.81651     169.54259      89.57349       1.33228       0.72016    6050.58838    3050.58862    -999.25000    -999.25000
    1014.50000      86.90258       2.55164      12.25000      61.94619       0.44295     251.10007     170.84641       0.42076      12.64029      12.79157    1391.66675      12.71593       0.66167       4.36182    -999.25000      63.72417       6.21591     172.47815     170.04240      89.39208       1.42225       0.72603    6061.62598    3061.62646    -999.25000    -999.25000
    1014.00000      94.45225       2.55510      12.25000      61.89654       0.44323     251.16820     170.72861       0.42100      12.62980      12.80348    1441.66675      12.71664       0.76925       4.36271    -999.25000      63.43763       6.31922     174.76555     172.29819      89.27593       1.42185       0.74117    6070.90381    3070.90381    -999.25000    -999.25000
    1013.50000      97.09293       2.57680      12.25000      61.83830       0.44348     251.23703     170.60155       0.42174      12.62980      12.80348    1434.33325      12.71664       0.86533       4.33834    -999.25000      63.24422       6.64552     178.94896     176.37799      89.69255       1.44710       0.75777    6078.45508    3078.45483    -999.25000    -999.25000
    1013.00000     102.19501       2.60211      12.25000      61.70608       0.44370     251.30829     170.39807       0.42195      12.62980      12.83918    1402.66663      12.73449       0.94229       4.27559    -999.25000      62.82623       6.92852     183.99355     180.92703      91.22945       1.68065       0.75537    6086.40625    3086.40576    -999.25000    -999.25000
    1012.50000     101.39815       2.60548      12.25000      61.59839       0.44388     251.38403     170.21465       0.42249      12.62980      12.83918    1385.50000      12.73449       0.99124       4.22581    -999.25000      62.19598       7.41542     188.89388     186.00882      92.93925       1.53910       0.74407    6095.84277    3095.84229    -999.25000    -999.25000
    1012.00000     104.79805       2.59222      12.25000      61.55998       0.44403     251.46530     170.09496       0.42299      12.62980      12.86296    1354.33325      12.74638       1.03822       4.10982    -999.25000      61.70448       7.94679     191.17003     189.06006      93.98875       1.10984       0.72458    6105.52051    3105.52051    -999.25000    -999.25000
    1011.50000     102.48763       2.58585      12.25000      61.59889       0.44413     251.55400     170.04518       0.42379      12.62980      12.85239    1407.01746      12.74109       1.10097       3.94098    -999.25000      61.50547       8.25624     192.31168     190.85635      94.38585       0.75963       0.69968    6114.97607    3114.97607    -999.25000    -999.25000
    1011.00000     100.58414       2.58345      12.25000      61.38433       0.44420     251.65311     169.73152       0.42307      12.62324      12.88785    1419.66174      12.75554       1.18757       3.92774    -999.25000      61.48129       8.61133     192.71169     191.71222      94.42459       0.51998       0.66289    6124.34277    3124.34229    -999.25000    -999.25000
    1010.50000     101.00022       2.58924      12.25000      61.15929       0.44424     251.76228     169.39731       0.42325      12.62857      12.89043    1443.33337      12.75950       1.31587       4.00242    -999.25000      61.50414       9.11424     192.65778     191.83139      94.27901       0.42986       0.62621    6133.62354    3133.62329    -999.25000    -999.25000
    1010.00000     104.47923       2.58708      12.25000      60.82489       0.44425     251.88646     168.93875       0.42403      12.63102      12.89322    1383.05554      12.76212       1.44475       4.03585    -999.25000      61.45525       9.48690     192.33246     191.30685      93.94450       0.53467       0.62342    6143.09131    3143.09131    -999.25000    -999.25000
    1009.50000     107.40357       2.57540      12.25000      60.71198       0.44427     252.02237     168.68994       0.42408      12.63943      12.89861    1405.61304      12.76902       1.55567       4.10102    -999.25000      61.17332      10.02152     191.95554     190.53148      93.55428       0.74463       0.62138    6152.64258    3152.64258    -999.25000    -999.25000
    1009.00000     106.20728       2.57110      12.25000      60.86810       0.44431     252.16907     168.69937       0.42462      12.64749      12.89861    1456.00000      12.77305       1.64850       4.25086    -999.25000      60.76878      10.59616     191.43457     189.54527      93.24405       0.99181       0.60593    6161.43164    3161.43164    -999.25000    -999.25000
