~VERSION
 VERS.        2.00                                                                   :CWLS LOG ASCII STANDARD
 WRAP.        NO                                                                     :NO WRAP PERFORMED
 PROD.        Schlumberger                                                           :LAS Producer
 CREA.        Fri Nov 16 12:50:33 2012                                               :LAS Creation Date and time
~Well
#MNEM.UNIT    VALUE                                                                   :DESCRIPTION
#----.----    ---------------                                                        :-------------------
 STRT.F       5331.500                                                               :START DEPTH
 STOP.F       350.000                                                                :STOP  DEPTH
 STEP.F       -0.500                                                                 :DEPTH STEP
 NULL.        -999.250                                                               :NULL VALUE
 COMP.        ADM                                                                    :COMPANY NAME
 WELL.        Verification Well #2                                                   :WELL NAME
 FLD.         Wildcat                                                                :FIELD NAME
 API.         12115235520000                                                         :API NUMBER
 CNTY.        Macon                                                                  :COUNTY
 STAT.        Illinois                                                               :STATE
 CTRY.        US                                                                     :COUNTRY
 LOC.         Long:-88.8924449, Lat: 39.8922313                                      :WELL SURFACE LOCATION LINE 1
 LOC2.        248' South and 233' East from the NW corner of the                     :WELL SURFACE LOCATION LINE 2
 LOC3.        NW/4, of the NE/4, of the NW/4, of Section 32                          :WELL SURFACE LOCATION LINE 3
 SECT.        32                                                                     :SECTION
 TOWN.        17 North                                                               :TOWNSHIP
 RANG.        3 East                                                                 :RANGE
 LATI.        39.892232 degrees                                                      :Latitude
 LONG.        -88.892445 degrees                                                     :Longitude
 DATE.        2012/10/08                                                             :LOGGING DATE
 SRVC.        Schlumberger                                                           :SERVICE COMPANY
~Parameter
#MNEM.UNIT    VALUE                                                                  :DESCRIPTION
#----.----    ---------------                                                        :-------------------
 APD.F        17.000                                                                 :Elevation of depth reference above permanent datum
 EDF.F        703.500                                                                :Elevation of Derrick Floor
 EGL.F        686.500                                                                :Elevation of Ground Level
 EKB.F        703.500                                                                :Elevation of Kelly Bushing
 EPD.F        686.500                                                                :Elevation of Permnaent Datum
 LMF.         KB                                                                     :Logging Measured From
 PDAT.        Ground level                                                           :Permanent Datum
 TDD.F        5316.000                                                               :Total Depth Driller
 TDL.F        5316.000                                                               :Total Depth Logger
 BS.IN        12.250                                                                 :Bit Size
 R1.                                                                                 :REMARK 1
 R2.                                                                                 :REMARK 2
 R3.                                                                                 :REMARK 3
 R4.                                                                                 :REMARK 4
 R5.                                                                                 :REMARK 5
 R6.                                                                                 :REMARK 6
 R7.                                                                                 :REMARK 7
 R8.                                                                                 :REMARK 8
 R9.                                                                                 :REMARK 9
 R10.                                                                                :REMARK 10
 DCS_CENTER.  Denver DCS                                                             :Schlumberger DCS Center
 LOG_ANALYST. Roberts                                                                :Log Analyst Name
 ENG.         Kevin Ryan                                                             :Field Engineer Name
 GF_BASELINE. GF45                                                                   :GeoFrame Baseline
~Curve
#MNEM.UNIT                                                                           :DESCRIPTION
#----.----                                                                           :--------------------------------
 DEPT.F                                                                              :Depth Index
 GR.GAPI                                                                             : 1 Gamma Ray                                                                                 
 RHOZ.G/C3                                                                           : 2 HRDD Standard Resolution Formation Density                                                
 BS.IN                                                                               : 3 Bit Size                                                                                  
 P1AZ.DEG                                                                            : 4 Pad 1 Azimuth in Horizontal Plane (0 = True North)                                        
 SDEVM.DEG                                                                           : 5 Memorized Sonde Deviation                                                                 
 HAZIM.DEG                                                                           : 6 Memorized Hole Azimuth Relative to True North                                             
 RB.DEG                                                                              : 7 Relative Bearing                                                                          
 DEVI.DEG                                                                            : 8 Hole Deviation                                                                            
 HD1_PPC1.IN                                                                         : 9 PPC1 Hole Diameter 1                                                                      
 HD2_PPC1.IN                                                                         :10 PPC1 Hole Diameter 2                                                                      
 TENS.LBS                                                                            :11 Cable Tension                                                                             
 HDAR.IN                                                                             :12 Hole Diameter from Area                                                                   
 MINXENE_OVERALL.                                                                    :13 Overall estimate of minimum cross energy                                                  
 MAXXENE_OVERALL.                                                                    :14 Overall estimate of maximum cross energy                                                  
 FSH_AZIM_OVERALL_FILT.DEG                                                           :15 Overall estimate of fast shear azimuth filtered                                           
 FSH_AZIM_OVERALL.DEG                                                                :16 Overall estimate of fast shear azimuth                                                    
 FSH_AZIM_ERR.DEG                                                                    :17 Fast shear azimuth error                                                                  
 DTSM_SLOW.US/F                                                                      :18 Shear Slowness of Slow Shear Waves                                                        
 DTSM_FAST.US/F                                                                      :19 Shear Slowness of Fast Shear Waves                                                        
 DTCO.US/F                                                                           :20 Delta-T Compressional                                                                     
 SLOANI.                                                                             :21 Slowness based anisotropy                                                                 
 TIMANI.                                                                             :22 Time based anisotropy                                                                     
 TWE.US                                                                              :23 Time window end                                                                           
 TWB.US                                                                              :24 Time window begin                                                                         
 FLAG.                                                                               :25 Shear Flag                                                                    
 FLAG.                                                                               :26 Bad Hole Flag                                                                    
~Ascii   DEPT            GR          RHOZ            BS          P1AZ         SDEVM         HAZIM            RB          DEVI      HD1_PPC1      HD2_PPC1          TENS          HDAR  MINXENE_OVER  MAXXENE_OVER  FSH_AZIM_OVE  FSH_AZIM_OVE  FSH_AZIM_ERR     DTSM_SLOW     DTSM_FAST          DTCO        SLOANI        TIMANI           TWE           TWB          FLAG          FLAG
# ...
    3010.50000      36.57499       2.65956      12.25000     246.26109       2.54534     245.04822       1.21168       2.57257      12.51527      12.58819    1992.75000      12.55173       0.99566       8.82505      69.20464      69.20464       1.86791      99.30298      96.70930      52.80837       2.64645       2.03626    4943.18848    1943.18848    -999.25000    -999.25000
    3010.00000      28.66632       2.67300      12.25000     247.35052       2.54190     245.10277       2.24555       2.56986      12.52580      12.60015    2056.33325      12.56297       0.99025       8.98698      69.23766      69.23766       1.78983      99.62547      96.87848      52.16767       2.79587       2.04697    4945.18359    1945.18359    -999.25000    -999.25000
    3009.50000      23.31082       2.67330      12.25000     247.40344       2.53843     245.14813       2.25310       2.56468      12.52580      12.60015    1809.66675      12.56297       0.98778       9.17227      69.28940      69.28940       1.73649     100.28117      97.10895      51.99059       3.21416       2.05033    4946.84131    1946.84131    -999.25000    -999.25000
    3009.00000      18.71898       2.67708      12.25000     247.48250       2.53492     245.19006       2.29019       2.56124      12.50473      12.58817    1913.50000      12.54645       0.98637       9.36413      69.34628      69.34628       1.70833     101.01466      98.04915      52.53959       2.97945       2.05437    4948.27783    1948.27783    -999.25000    -999.25000
    3008.50000      16.93898       2.67088      12.25000     247.55794       2.53138     245.23459       2.32108       2.55807      12.51527      12.58819    1924.00012      12.55173       0.98321       9.52078      69.38412      69.38412       1.71724     102.01641      98.96086      53.55248       3.04069       2.05505    4949.99170    1949.99194    -999.25000    -999.25000
    3008.00000      15.63563       2.66175      12.25000     247.67595       2.52783     245.26561       2.40800       2.55469      12.52580      12.60015    1859.66675      12.56297       0.97951       9.64178      69.41127      69.41127       1.76927     103.16048     100.01809      54.13705       3.09323       2.04679    4952.16699    1952.16748    -999.25000    -999.25000
    3007.50000      17.36173       2.63940      12.25000     247.75298       2.52428     245.29227       2.45834       2.55094      12.51527      12.57621    1923.00012      12.54574       0.97523       9.71642      69.42174      69.42174       1.83690     103.86384     100.41215      54.33003       3.37944       2.02706    4954.45410    1954.45459    -999.25000    -999.25000
    3007.00000      18.21787       2.62968      12.25000     247.84132       2.52076     245.31325       2.52564       2.54731      12.51527      12.60015    1794.00012      12.55771       0.97200       9.76349      69.44071      69.44071       1.93216     104.40477     100.66681      54.43842       3.64552       2.00236    4956.54297    1956.54272    -999.25000    -999.25000
    3006.50000      18.00834       2.63172      12.25000     247.97874       2.51731     245.32951       2.64668       2.54408      12.50473      12.58817    1943.74988      12.54645       0.97188       9.79515      69.49146      69.49146       2.04042     104.64582     100.85247      54.73842       3.69186       1.98211    4958.59082    1958.59033    -999.25000    -999.25000
    3006.00000      17.82933       2.63116      12.25000     248.09990       2.51396     245.33971       2.75754       2.54011      12.51410      12.59882    1945.16663      12.55646       0.97484       9.77262      69.56279      69.56279       2.13485     104.21076     100.60548      54.80830       3.52051       1.99157    4961.32031    1961.32007    -999.25000    -999.25000
    3005.50000      17.23111       2.62916      12.25000     248.11247       2.51074     245.34229       2.76754       2.53724      12.51527      12.60015    1912.60327      12.55771       0.97833       9.69120      69.65765      69.65765       2.24278     103.78808     100.74228      54.65028       2.97833       1.96326    4965.27490    1965.27490    -999.25000    -999.25000
    3005.00000      17.36399       2.62146      12.25000     248.22321       2.50767     245.34369       2.87677       2.53334      12.51375      12.60051    1899.33325      12.55713       0.97785       9.51726      69.79791      69.79791       2.34117     102.85620     100.14117      54.22427       2.67494       1.90403    4970.51367    1970.51379    -999.25000    -999.25000
    3004.50000      16.49645       2.63741      12.25000     248.40480       2.50479     245.33830       3.06357       2.53080      12.51426      12.60039    1889.20776      12.55733       0.97726       9.27742      70.05603      70.05603       2.34487     101.66955      99.13097      53.69612       2.52846       1.87969    4975.76074    1975.76099    -999.25000    -999.25000
    3004.00000      16.64063       2.65203      12.25000     248.42702       2.50211     245.32442       3.09966       2.52786      12.51439      12.59508    1944.55542      12.55473       0.97965       9.03147      70.42830      70.42830       2.26393     100.84690      98.24931      53.02253       2.60938       1.85816    4979.02783    1979.02783    -999.25000    -999.25000
    3003.50000      18.03102       2.67407      12.25000     248.56821       2.49965     245.30775       3.25736       2.52533      12.51319      12.58874    1864.75000      12.55096       0.98161       8.75841      70.79932      70.79932       2.18939     100.26125      97.67324      52.33633       2.61502       1.84536    4979.66309    1979.66333    -999.25000    -999.25000
    3003.00000      18.71438       2.67991      12.25000     248.77779       2.49744     245.28711       3.48737       2.52266      12.51066      12.59140    1898.87476      12.55103       0.98468       8.50925      71.16444      71.16444       2.13734      99.91855      97.15298      51.93593       2.80667       1.84306    4978.18848    1978.18896    -999.25000    -999.25000
    3002.50000      19.73996       2.69684      12.25000     248.84608       2.49547     245.26048       3.58221       2.52082      12.50509      12.60064    1873.28137      12.55287       0.98692       8.30688      71.54382      71.54382       2.12376      99.51781      96.58820      51.93464       2.98778       1.84539    4975.37695    1975.37695    -999.25000    -999.25000
    3002.00000      19.67116       2.69216      12.25000     248.84216       2.49377     245.22487       3.61388       2.51896      12.52609      12.60015    1862.00000      12.56312       0.98608       8.15190      71.88267      71.88267       2.15303      99.30862      96.15337      52.25085       3.22851       1.85917    4971.40186    1971.40161    -999.25000    -999.25000
    3001.50000      18.58689       2.68022      12.25000     248.89737       2.49230     245.19556       3.69832       2.51763      12.52576      12.59852    1947.40955      12.56214       0.98466       8.08302      72.08434      72.08434       2.16639      99.73238      96.38812      52.61172       3.41041       1.88206    4966.33154    1966.33142    -999.25000    -999.25000
    3001.00000      19.75891       2.66965      12.25000     248.77859       2.49104     245.15881       3.61636       2.51709      12.52682      12.59216    1881.51892      12.55949       0.98569       8.13073    -999.25000      72.11028       2.12699     100.08750      97.62067      53.01929       2.49542       1.90102    4960.68945    1960.68958    -999.25000    -999.25000
    3000.50000      19.25408       2.67023      12.25000     248.74496       2.48991     245.11667       3.62488       2.51673      12.55273      12.59558    1899.33118      12.57416       0.99081       8.28902    -999.25000      71.98688       2.05303     100.70307      98.44398      53.49492       2.26877       1.91877    4955.39941    1955.39954    -999.25000    -999.25000
    3000.00000      18.29644       2.68072      12.25000     248.60928       2.48886     245.07706       3.52891       2.51652      12.57242      12.58843    1886.71130      12.58043       0.99556       8.55009      71.72577      71.72577       1.98667     101.31863      98.43800      53.69779       2.88414       1.92324    4951.23193    1951.23193    -999.25000    -999.25000
