~VERSION
 VERS.        2.00                                                                   :CWLS LOG ASCII STANDARD
 WRAP.        NO                                                                     :NO WRAP PERFORMED
 PROD.        Schlumberger                                                           :LAS Producer
 CREA.        11/5/2012                                         :LAS Creation Date and time
~Well
#MNEM.UNIT    VALUE                                                                   :DESCRIPTION
#----.----    ---------------                                                        :-------------------
 STRT.F       7170.000                                                               :START DEPTH
 STOP.F       5320.000                                                               :STOP  DEPTH
 STEP.F       -0.500                                                                 :DEPTH STEP
 NULL.        -999.250                                                               :NULL VALUE
 COMP.        ADM COMPANY                                       :COMPANY NAME
 WELL.        Verification Well #2                              :WELL NAME
 FLD.         Wildcat                                           :FIELD NAME
 API.         121152355200                                                           :API NUMBER
 CNTY.        Macon                                                                  :COUNTY
 STAT.        Illinois                                                               :STATE
 CTRY.        US                                                                     :COUNTRY
 LOC.         Lat: 39.8922313 Long: -88.8924449                                      :WELL SURFACE LOCATION LINE 1
 LOC2.        248' South and 233' East From NW corner of the                         :WELL SURFACE LOCATION LINE 2
 LOC3.        NW/4, of the NE/4, of the NW/4, of Section 32                          :WELL SURFACE LOCATION LINE 3
 SECT.        32                                                                     :SECTION
 TOWN.        17 North                                                               :TOWNSHIP
 RANG.        3 East                                                                 :RANGE
 LATI.        39.892231 degrees                                                      :Latitude
 LONG.        -88.892444 degrees                                                     :Longitude
 DATE.        2012/10/31                                                             :LOGGING DATE
 SRVC.        Schlumberger                                                           :SERVICE COMPANY
~Parameter
#MNEM.UNIT    VALUE                                                                  :DESCRIPTION
#----.----    ---------------                                                        :-------------------
 APD.F        17.000                                                                 :Elevation of depth reference above permanent datum
 EDF.F        -999.250                                                               :Elevation of Derrick Floor
 EGL.F        686.500                                                                :Elevation of Ground Level
 EKB.F        703.500                                                                :Elevation of Kelly Bushing
 EPD.F        686.500                                                                :Elevation of Permnaent Datum
 LMF.         Kelly Bushing                                                          :Logging Measured From
 PDAT.        Ground Level                                                           :Permanent Datum
 TDD.F        7225.000                                                               :Total Depth Driller
 TDL.F        7223.000                                                               :Total Depth Logger
 BS.IN        8.500                                                                  :Bit Size
 R1.                                                                                 :REMARK 1
 R2.                                                                                 :REMARK 2
 R3.                                                                                 :REMARK 3
 R4.                                                                                 :REMARK 4
 R5.                                                                                 :REMARK 5
 R6.                                                                                 :REMARK 6
 R7.                                                                                 :REMARK 7
 R8.                                                                                 :REMARK 8
 R9.                                                                                 :REMARK 9
 R10.                                                                                :REMARK 10
 DCS_CENTER.  Denver                                                                 :Schlumberger DCS Center
 LOG_ANALYST. Oliver                                                                 :Log Analyst Name
 ENG.         Beth DiBella                                                           :Field Engineer Name
 GF_BASELINE. 45                                                                     :GeoFrame Baseline
~Curve
#MNEM.UNIT                                                                           :DESCRIPTION
#----.----                                                                           :--------------------------------
 DEPT.F                                                                              :Depth Index
 GR.GAPI                                                                             : 1 Gamma Ray                                                                                 
 RHOZ.G/C3                                                                           : 2 HRDD Standard Resolution Formation Density                                                
 BS.IN                                                                               : 3 Bit Size                                                                                  
 P1AZ.DEG                                                                            : 4 Pad 1 Azimuth in Horizontal Plane (0 = True North)                                        
 SDEVM.DEG                                                                           : 5 Memorized Sonde Deviation                                                                 
 HAZIM.DEG                                                                           : 6 Memorized Hole Azimuth Relative to True North                                             
 RB.DEG                                                                              : 7 Relative Bearing                                                                          
 DEVI.DEG                                                                            : 8 Hole Deviation                                                                            
 HD1_PPC1.IN                                                                         : 9 PPC1 Hole Diameter 1                                                                      
 HD2_PPC1.IN                                                                         :10 PPC1 Hole Diameter 2                                                                      
 TENS.LBS                                                                            :11 Cable Tension                                                                             
 HDAR.IN                                                                             :12 Hole Diameter from Area                                                                   
 MINXENE_OVERALL.                                                                    :13 Overall estimate of minimum cross energy                                                  
 MAXXENE_OVERALL.                                                                    :14 Overall estimate of maximum cross energy                                                  
 FSH_AZIM_OVERALL_FILT.DEG                                                           :15 Overall estimate of fast shear azimuth filtered                                           
 FSH_AZIM_OVERALL.DEG                                                                :16 Overall estimate of fast shear azimuth                                                    
 FSH_AZIM_ERR.DEG                                                                    :17 Fast shear azimuth error                                                                  
 DTSM_SLOW.US/F                                                                      :18 Shear Slowness of Slow Shear Waves                                                        
 DTSM_FAST.US/F                                                                      :19 Shear Slowness of Fast Shear Waves                                                        
 DTCO.US/F                                                                           :20 Delta-T Compressional                                                                     
 SLOANI.                                                                             :21 Slowness based anisotropy                                                                 
 TIMANI.                                                                             :22 Time based anisotropy                                                                     
 TWE.US                                                                              :23 Time window end                                                                           
 TWB.US                                                                              :24 Time window begin                                                                         
~Ascii   DEPT            GR          RHOZ            BS          P1AZ         SDEVM         HAZIM            RB          DEVI      HD1_PPC1      HD2_PPC1          TENS          HDAR  MINXENE_OVER  MAXXENE_OVER  FSH_AZIM_OVE  FSH_AZIM_OVE  FSH_AZIM_ERR     DTSM_SLOW     DTSM_FAST          DTCO        SLOANI        TIMANI           TWE           TWB
# ...
    6434.00000      38.47700       2.42274      17.50000     241.53256       1.82059     272.91083     328.63458       1.84889       8.54075       8.47813    2721.00000       8.50944       0.74685       4.37823      61.59860      61.59860       3.50757     122.10101     117.71610      71.71889       3.65688       0.28063    4642.78711    2242.78687
    6433.50000      36.40583       2.44265      17.50000     242.70253       1.82762     272.88275     329.83246       1.85665       8.54075       8.47813    2685.50000       8.50944       0.67978       4.45085      61.38907      61.38907       3.09904     121.76754     116.93022      70.40630       4.05309       0.31433    4644.80859    2244.80908
    6433.00000      35.74975       2.45199      17.50000     243.78625       1.83494     272.86694     330.93179       1.86471       8.54075       8.50341    2835.00024       8.52208       0.64090       4.53791      61.49018      61.49018       2.91480     121.94379     116.77285      70.37404       4.33228       0.35186    4647.73438    2247.73486
    6432.50000      33.00072       2.46099      17.50000     245.09502       1.84240     272.86826     332.23898       1.87282       8.54169       8.50735    2824.00000       8.52452       0.57627       4.52322      61.98222      61.98222       2.49364     122.75098     116.95936      71.35689       4.83218       0.40967    4651.04199    2251.04199
    6432.00000      32.00373       2.44598      17.50000     246.45631       1.84986     272.88422     333.58398       1.88208       8.52913       8.50341    2756.50024       8.51627       0.51249       4.50788      62.26718      62.26718       2.14048     123.65724     117.39411      72.40431       5.19651       0.46797    4654.05273    2254.05273
    6431.50000      31.01739       2.42137      17.50000     248.69662       1.85720     272.93561     335.77231       1.88982       8.54075       8.50362    2705.75000       8.52219       0.49009       4.62505      62.01729      62.01729       2.05032     124.14305     117.84663      72.92662       5.20388       0.51694    4655.47559    2255.47559
    6431.00000      32.87262       2.40305      17.50000     250.20877       1.86430     272.98279     337.23682       1.89706       8.51775       8.50350    2709.50024       8.51062       0.47494       4.73664      61.90903      61.90903       2.01441     124.35477     118.33317      73.07262       4.96242       0.55010    4653.99561    2253.99561
    6430.50000      33.63810       2.40128      17.50000     251.09946       1.87106     273.02908     338.08096       1.90350       8.52913       8.50341    2676.50000       8.51627       0.46684       4.80453      61.95226      61.95226       1.98135     124.57837     118.78260      73.32335       4.76310       0.55620    4650.28418    2250.28442
    6430.00000      33.32058       2.39996      17.50000     251.67593       1.87743     273.11328     338.57312       1.90966       8.54075       8.49077    2700.00000       8.51576       0.45691       4.85376      61.99803      61.99803       1.93374     124.59506     118.79912      73.60801       4.76260       0.55353    4646.18213    2246.18213
    6429.50000      38.74815       2.40062      17.50000     252.35971       1.88340     273.19116     339.17883       1.91503       8.56310       8.47813    2883.50000       8.52061       0.44689       4.95092      62.06425      62.06425       1.88122     124.24962     118.38568      73.58828       4.83354       0.55058    4643.47754    2243.47778
    6429.00000      40.47992       2.40118      17.50000     253.17331       1.88898     273.28235     339.90100       1.91992       8.57426       8.50362    2757.50000       8.53895       0.44103       5.01616      62.18394      62.18394       1.86022     123.63892     117.93492      73.17996       4.72236       0.54602    4643.45508    2243.45483
    6428.50000      40.82408       2.39810      17.50000     254.08733       1.89421     273.38074     340.71637       1.92530       8.57467       8.49239    2855.00000       8.53353       0.43767       5.11549      62.25490      62.25490       1.85882     123.19824     117.48855      72.65662       4.74450       0.56533    4646.17334    2246.17334
    6428.00000      35.67532       2.39686      17.50000     255.29218       1.89914     273.47723     341.82428       1.92944       8.54795       8.47099    2878.33325       8.50947       0.43150       5.31910      62.33883      62.33883       1.84425     122.92912     116.98563      72.34530       4.95467       0.60367    4649.26855    2249.26880
    6427.50000      31.84452       2.41313      17.50000     257.36755       1.90384     273.58228     343.79376       1.93359       8.54743       8.47119    2714.75000       8.50931       0.42706       5.46430      62.49410      62.49410       1.88443     122.72218     116.64694      72.23465       5.07604       0.62854    4649.71484    2249.71533
    6427.00000      28.65493       2.43115      17.50000     258.55008       1.90836     273.67166     344.88644       1.93738       8.55151       8.46934    2705.50000       8.51042       0.43230       5.57967      62.72696      62.72696       1.99392     122.62125     116.59581      72.08879       5.03763       0.63185    4646.12939    2246.12939
    6426.50000      26.46252       2.44676      17.50000     259.87949       1.91278     273.75473     346.13217       1.94100       8.54179       8.45967    2721.33325       8.50073       0.43507       5.66912      62.99427      62.99427       2.06355     122.63611     116.68516      71.80314       4.97319       0.62515    4638.79053    2238.79053
    6426.00000      26.64923       2.44901      17.50000     261.33365       1.91713     273.87231     347.46814       1.94492       8.53300       8.45248    2701.66675       8.49274       0.43277       5.70735      63.35067      63.35067       2.07245     122.84697     116.91515      71.46925       4.94808       0.61821    4629.63184    2229.63208
    6425.50000      29.71298       2.44296      17.50000     263.29095       1.92143     273.97650     349.32031       1.94884       8.54078       8.45308    2663.25000       8.49693       0.43292       5.79677      63.73297      63.73297       2.00895     123.21984     117.35916      71.29781       4.87215       0.61552    4620.87012    2220.86987
    6425.00000      34.45972       2.42505      17.50000     264.67889       1.92571     274.07388     350.61020       1.95356       8.53833       8.45446    2702.41675       8.49639       0.43369       5.88327      63.95069      63.95069       1.88823     123.70277     118.10086      71.47802       4.63344       0.62411    4613.70020    2213.69995
    6424.50000      37.68536       2.40430      17.50000     265.67395       1.92994     274.16681     351.51187       1.95783       8.51794       8.45263    2660.50000       8.48528       0.43543       5.95254      64.08044      64.08044       1.79384     124.25600     119.14962      71.98085       4.19578       0.64788    4608.61426    2208.61426
    6424.00000      37.10042       2.39316      17.50000     265.82657       1.93410     274.26477     351.56653       1.96216       8.54169       8.48188    2784.50000       8.51179       0.43663       5.99600      64.30203      64.30203       1.79990     124.85712     120.37813      72.55168       3.65282       0.67021    4605.26172    2205.26221
    6423.50000      33.97009       2.39463      17.50000     267.13837       1.93815     274.36621     352.77625       1.96627       8.51794       8.46527    2791.00000       8.49161       0.44328       6.01095      64.71408      64.71408       1.95651     125.50386     121.53696      73.04669       3.21153       0.69405    4603.59814    2203.59814
    6423.00000      34.57548       2.39655      17.50000     268.91238       1.94204     274.46115     354.45441       1.97020       8.49513       8.46527    2721.66675       8.48020       0.46269       6.08544      65.16202      65.16202       2.11709     126.21908     122.41144      73.36116       3.06289       0.72023    4604.06055    2204.06055
