~VERSION
 VERS.        2.00                                                                   :CWLS LOG ASCII STANDARD
 WRAP.        NO                                                                     :NO WRAP PERFORMED
 PROD.        Schlumberger                                                           :LAS Producer
 CREA.        11/5/2012                                         :LAS Creation Date and time
~Well
#MNEM.UNIT    VALUE                                                                   :DESCRIPTION
#----.----    ---------------                                                        :-------------------
 STRT.F       7170.000                                                               :START DEPTH
 STOP.F       5320.000                                                               :STOP  DEPTH
 STEP.F       -0.500                                                                 :DEPTH STEP
 NULL.        -999.250                                                               :NULL VALUE
 COMP.        ADM COMPANY                                       :COMPANY NAME
 WELL.        Verification Well #2                              :WELL NAME
 FLD.         Wildcat                                           :FIELD NAME
 API.         121152355200                                                           :API NUMBER
 CNTY.        Macon                                                                  :COUNTY
 STAT.        Illinois                                                               :STATE
 CTRY.        US                                                                     :COUNTRY
 LOC.         Lat: 39.8922313 Long: -88.8924449                                      :WELL SURFACE LOCATION LINE 1
 LOC2.        248' South and 233' East From NW corner of the                         :WELL SURFACE LOCATION LINE 2
 LOC3.        NW/4, of the NE/4, of the NW/4, of Section 32                          :WELL SURFACE LOCATION LINE 3
 SECT.        32                                                                     :SECTION
 TOWN.        17 North                                                               :TOWNSHIP
 RANG.        3 East                                                                 :RANGE
 LATI.        39.892231 degrees                                                      :Latitude
 LONG.        -88.892444 degrees                                                     :Longitude
 DATE.        2012/10/31                                                             :LOGGING DATE
 SRVC.        Schlumberger                                                           :SERVICE COMPANY
~Parameter
#MNEM.UNIT    VALUE                                                                  :DESCRIPTION
#----.----    ---------------                                                        :-------------------
 APD.F        17.000                                                                 :Elevation of depth reference above permanent datum
 EDF.F        -999.250                                                               :Elevation of Derrick Floor
 EGL.F        686.500                                                                :Elevation of Ground Level
 EKB.F        703.500                                                                :Elevation of Kelly Bushing
 EPD.F        686.500                                                                :Elevation of Permnaent Datum
 LMF.         Kelly Bushing                                                          :Logging Measured From
 PDAT.        Ground Level                                                           :Permanent Datum
 TDD.F        7225.000                                                               :Total Depth Driller
 TDL.F        7223.000                                                               :Total Depth Logger
 BS.IN        8.500                                                                  :Bit Size
 R1.                                                                                 :REMARK 1
 R2.                                                                                 :REMARK 2
 R3.                                                                                 :REMARK 3
 R4.                                                                                 :REMARK 4
 R5.                                                                                 :REMARK 5
 R6.                                                                                 :REMARK 6
 R7.                                                                                 :REMARK 7
 R8.                                                                                 :REMARK 8
 R9.                                                                                 :REMARK 9
 R10.                                                                                :REMARK 10
 DCS_CENTER.  Denver                                                                 :Schlumberger DCS Center
 LOG_ANALYST. Oliver                                                                 :Log Analyst Name
 ENG.         Beth DiBella                                                           :Field Engineer Name
 GF_BASELINE. 45                                                                     :GeoFrame Baseline
~Curve
#MNEM.UNIT                                                                           :DESCRIPTION
#----.----                                                                           :--------------------------------
 DEPT.F                                                                              :Depth Index
 GR.GAPI                                                                             : 1 Gamma Ray                                                                                 
 RHOZ.G/C3                                                                           : 2 HRDD Standard Resolution Formation Density                                                
 BS.IN                                                                               : 3 Bit Size                                                                                  
 P1AZ.DEG                                                                            : 4 Pad 1 Azimuth in Horizontal Plane (0 = True North)                                        
 SDEVM.DEG                                                                           : 5 Memorized Sonde Deviation                                                                 
 HAZIM.DEG                                                                           : 6 Memorized Hole Azimuth Relative to True North                                             
 RB.DEG                                                                              : 7 Relative Bearing                                                                          
 DEVI.DEG                                                                            : 8 Hole Deviation                                                                            
 HD1_PPC1.IN                                                                         : 9 PPC1 Hole Diameter 1                                                                      
 HD2_PPC1.IN                                                                         :10 PPC1 Hole Diameter 2                                                                      
 TENS.LBS                                                                            :11 Cable Tension                                                                             
 HDAR.IN                                                                             :12 Hole Diameter from Area                                                                   
 MINXENE_OVERALL.                                                                    :13 Overall estimate of minimum cross energy                                                  
 MAXXENE_OVERALL.                                                                    :14 Overall estimate of maximum cross energy                                                  
 FSH_AZIM_OVERALL_FILT.DEG                                                           :15 Overall estimate of fast shear azimuth filtered                                           
 FSH_AZIM_OVERALL.DEG                                                                :16 Overall estimate of fast shear azimuth                                                    
 FSH_AZIM_ERR.DEG                                                                    :17 Fast shear azimuth error                                                                  
 DTSM_SLOW.US/F                                                                      :18 Shear Slowness of Slow Shear Waves                                                        
 DTSM_FAST.US/F                                                                      :19 Shear Slowness of Fast Shear Waves                                                        
 DTCO.US/F                                                                           :20 Delta-T Compressional                                                                     
 SLOANI.                                                                             :21 Slowness based anisotropy                                                                 
 TIMANI.                                                                             :22 Time based anisotropy                                                                     
 TWE.US                                                                              :23 Time window end                                                                           
 TWB.US                                                                              :24 Time window begin                                                                         
~Ascii   DEPT            GR          RHOZ            BS          P1AZ         SDEVM         HAZIM            RB          DEVI      HD1_PPC1      HD2_PPC1          TENS          HDAR  MINXENE_OVER  MAXXENE_OVER  FSH_AZIM_OVE  FSH_AZIM_OVE  FSH_AZIM_ERR     DTSM_SLOW     DTSM_FAST          DTCO        SLOANI        TIMANI           TWE           TWB
# ...
    5698.00000      23.80340       2.47879      17.50000      13.92852       0.96442     284.43924      89.48920       0.94558       8.51814       8.45537    2512.00000       8.48676       0.64619       6.07775      68.02792      68.02792       3.30563     106.26218     102.14966      64.38381       3.94654       1.19834    4378.88037    1978.88037
    5697.50000      24.32756       2.46773      17.50000      14.13616       0.96085     284.51804      89.61807       0.94188       8.52287       8.47902    2522.75000       8.50095       0.63915       5.45002      67.79501      67.79501       3.53012     105.64315     101.68237      64.75158       3.82083       0.99675    4386.23438    1986.23462
    5697.00000      25.98712       2.46349      17.50000      14.53353       0.95815     284.55862      89.97491       0.93904       8.54293       8.47927    2510.25000       8.51110       0.63495       4.86041      67.40269      67.40269       3.99158     105.39682     101.68811      65.02753       3.58182       0.82755    4394.05762    1994.05737
    5696.50000      28.67285       2.47479      17.50000      14.79542       0.95634     284.56897      90.22649       0.93813       8.55286       8.45663    2455.25000       8.50474       0.61376       4.33809      67.03780      67.03780       4.47388     105.02377     101.78789      65.12491       3.12930       0.67694    4400.26660    2000.26624
    5696.00000      36.50206       2.48996      17.50000      14.77328       0.95537     284.54059      90.23273       0.93820       8.58595       8.45627    2505.54663       8.52111       0.58333       4.11029      66.41628      66.41628       4.63615     104.49169     101.45631      64.83575       2.94771       0.55719    4403.56934    2003.56934
    5695.50000      59.99644       2.52488      17.50000      14.66925       0.95514     284.46570      90.20358       0.93903       8.60253       8.49263    2536.78711       8.54758       0.56236       3.91930      65.37402      65.37402       4.47859     104.08278     101.07395      64.21664       2.93320       0.44760    4404.64893    2004.64893
    5695.00000      83.65493       2.55007      17.50000      15.00501       0.95548     284.35184      90.65327       0.94049       8.63825       8.53439    2567.45679       8.58632       0.54742       3.79304      64.26939      64.26939       4.33953     103.55236     100.65833      63.32317       2.83435       0.35843    4404.90918    2004.90930
    5694.50000     111.01014       2.59630      17.50000      15.88021       0.95622     284.21417      91.66628       0.94252       8.62574       8.54397    2524.54663       8.58485       0.52500       3.79250      63.39816      63.39816       4.33677     103.11999     100.25594      62.47117       2.81650       0.30482    4405.53369    2005.53369
    5694.00000     136.59503       2.60712      17.50000      16.48549       0.95714     284.05136      92.43447       0.94419       8.63678       8.54300    2525.55078       8.58989       0.50509       3.69736      62.88733      62.88733       4.26598     103.05432      99.97256      62.24482       3.03582       0.26106    4407.61426    2007.61401
    5693.50000     142.97861       2.60001      17.50000      16.68359       0.95805     283.86777      92.81621       0.94562       8.62352       8.50910    2577.32007       8.56631       0.49386       3.53775      62.51395      62.51395       4.18095     102.96272     100.07315      62.44983       2.84637       0.22176    4411.38184    2011.38208
    5693.00000     107.85629       2.56525      17.50000      17.29601       0.95874     283.65466      93.64185       0.94669       8.54169       8.46926    2555.75000       8.50547       0.48695       3.48295      62.12217      62.12217       4.12464     103.23579     100.25147      62.21383       2.93318       0.20206    4416.15918    2016.15894
    5692.50000      80.32587       2.55514      17.50000      17.68322       0.95907     283.42654      94.25726       0.94722       8.54075       8.47813    2600.25000       8.50944       0.48132       3.43687      61.86666      61.86666       4.02530     103.86266     100.78791      61.13569       3.00487       0.20441    4421.75977    2021.75952
    5692.00000      91.32542       2.56602      17.50000      17.98187       0.95889     283.18518      94.79735       0.94703       8.55236       8.49099    2629.00000       8.52168       0.47380       3.42141      61.92654      61.92654       4.04341     105.00974     101.57999      59.98818       3.32035       0.22473    4428.03125    2028.03101
    5691.50000     138.35387       2.57303      17.50000      17.79726       0.95810     282.96298      94.83494       0.94612       8.64347       8.52931    2580.75000       8.58639       0.46515       3.44158      62.36946      62.36946       4.20025     106.07146     102.46207      60.09118       3.46169       0.24063    4434.52441    2034.52417
    5691.00000     185.59259       2.57363      17.50000      18.05976       0.95663     282.74536      95.31512       0.94404       8.67819       8.53303    2638.75000       8.60561       0.45749       3.43313      62.94917      62.94917       4.32949     107.03614     103.72176      61.48367       3.14520       0.26083    4440.72363    2040.72388
    5690.50000     211.76317       2.57023      17.50000      18.20488       0.95446     282.53394      95.67173       0.94142       8.70012       8.51647    2585.00000       8.60830       0.45052       3.42636      63.53552      63.53552       4.38636     108.05538     105.34042      62.89579       2.54454       0.28565    4446.04297    2046.04272
    5690.00000     211.33133       2.57149      17.50000      19.01577       0.95160     282.33246      96.68423       0.93792       8.71248       8.54586    2540.00000       8.62917       0.44126       3.42048    -999.25000      64.14652       4.37818     109.24259     106.99483      63.45217       2.07898       0.30750    4450.16650    2050.16650
    5689.50000     202.47789       2.57129      17.50000      19.48439       0.94807     282.15509      97.33030       0.93359       8.71170       8.54195    2516.75000       8.62683       0.43165       3.41424    -999.25000      64.80929       4.34547     110.55056     108.49062      63.22892       1.88087       0.33890    4453.10889    2053.10889
    5689.00000     183.70625       2.56502      17.50000      19.71477       0.94397     281.99518      97.72063       0.92782       8.71204       8.53303    2511.50000       8.62253       0.42369       3.45054    -999.25000      65.74806       4.36156     111.78278     109.74937      62.60458       1.83576       0.40331    4455.62842    2055.62842
    5688.50000     170.24974       2.55643      17.50000      20.58956       0.93936     281.84570      98.74503       0.92209       8.70012       8.51647    2524.00000       8.60830       0.41470       3.59065    -999.25000      66.83977       4.35292     112.70704     110.65514      62.23725       1.83729       0.50674    4459.28271    2059.28247
    5688.00000     150.64275       2.54280      17.50000      20.95917       0.93437     281.73587      99.22449       0.91612       8.65546       8.52041    2487.75000       8.58793       0.40453       3.79839    -999.25000      67.61417       4.19628     113.20011     111.03581      62.97988       1.93038       0.59822    4464.58154    2064.58154
    5687.50000     125.27395       2.52296      17.50000      21.70956       0.92912     281.62857     100.08228       0.91007       8.56402       8.53303    2419.66675       8.54852       0.38801       4.06461    -999.25000      67.98927       3.89361     113.31370     111.02575      65.04311       2.03972       0.67643    4470.50781    2070.50781
    5687.00000      97.17400       2.49148      17.50000      22.29047       0.92372     281.53845     100.75337       0.90403       8.51794       8.49099    2502.00024       8.50447       0.36389       4.40030    -999.25000      68.20303       3.49078     112.89400     110.46448      67.71588       2.17545       0.76083    4475.32324    2075.32349
