~VERSION
 VERS.        2.00                                                                   :CWLS LOG ASCII STANDARD
 WRAP.        NO                                                                     :NO WRAP PERFORMED
 PROD.        Schlumberger                                                           :LAS Producer
 CREA.        11/5/2012                                         :LAS Creation Date and time
~Well
#MNEM.UNIT    VALUE                                                                   :DESCRIPTION
#----.----    ---------------                                                        :-------------------
 STRT.F       7170.000                                                               :START DEPTH
 STOP.F       5320.000                                                               :STOP  DEPTH
 STEP.F       -0.500                                                                 :DEPTH STEP
 NULL.        -999.250                                                               :NULL VALUE
 COMP.        ADM COMPANY                                       :COMPANY NAME
 WELL.        Verification Well #2                              :WELL NAME
 FLD.         Wildcat                                           :FIELD NAME
 API.         121152355200                                                           :API NUMBER
 CNTY.        Macon                                                                  :COUNTY
 STAT.        Illinois                                                               :STATE
 CTRY.        US                                                                     :COUNTRY
 LOC.         Lat: 39.8922313 Long: -88.8924449                                      :WELL SURFACE LOCATION LINE 1
 LOC2.        248' South and 233' East From NW corner of the                         :WELL SURFACE LOCATION LINE 2
 LOC3.        NW/4, of the NE/4, of the NW/4, of Section 32                          :WELL SURFACE LOCATION LINE 3
 SECT.        32                                                                     :SECTION
 TOWN.        17 North                                                               :TOWNSHIP
 RANG.        3 East                                                                 :RANGE
 LATI.        39.892231 degrees                                                      :Latitude
 LONG.        -88.892444 degrees                                                     :Longitude
 DATE.        2012/10/31                                                             :LOGGING DATE
 SRVC.        Schlumberger                                                           :SERVICE COMPANY
~Parameter
#MNEM.UNIT    VALUE                                                                  :DESCRIPTION
#----.----    ---------------                                                        :-------------------
 APD.F        17.000                                                                 :Elevation of depth reference above permanent datum
 EDF.F        -999.250                                                               :Elevation of Derrick Floor
 EGL.F        686.500                                                                :Elevation of Ground Level
 EKB.F        703.500                                                                :Elevation of Kelly Bushing
 EPD.F        686.500                                                                :Elevation of Permnaent Datum
 LMF.         Kelly Bushing                                                          :Logging Measured From
 PDAT.        Ground Level                                                           :Permanent Datum
 TDD.F        7225.000                                                               :Total Depth Driller
 TDL.F        7223.000                                                               :Total Depth Logger
 BS.IN        8.500                                                                  :Bit Size
 R1.                                                                                 :REMARK 1
 R2.                                                                                 :REMARK 2
 R3.                                                                                 :REMARK 3
 R4.                                                                                 :REMARK 4
 R5.                                                                                 :REMARK 5
 R6.                                                                                 :REMARK 6
 R7.                                                                                 :REMARK 7
 R8.                                                                                 :REMARK 8
 R9.                                                                                 :REMARK 9
 R10.                                                                                :REMARK 10
 DCS_CENTER.  Denver                                                                 :Schlumberger DCS Center
 LOG_ANALYST. Oliver                                                                 :Log Analyst Name
 ENG.         Beth DiBella                                                           :Field Engineer Name
 GF_BASELINE. 45                                                                     :GeoFrame Baseline
~Curve
#MNEM.UNIT                                                                           :DESCRIPTION
#----.----                                                                           :--------------------------------
 DEPT.F                                                                              :Depth Index
 GR.GAPI                                                                             : 1 Gamma Ray                                                                                 
 RHOZ.G/C3                                                                           : 2 HRDD Standard Resolution Formation Density                                                
 BS.IN                                                                               : 3 Bit Size                                                                                  
 P1AZ.DEG                                                                            : 4 Pad 1 Azimuth in Horizontal Plane (0 = True North)                                        
 SDEVM.DEG                                                                           : 5 Memorized Sonde Deviation                                                                 
 HAZIM.DEG                                                                           : 6 Memorized Hole Azimuth Relative to True North                                             
 RB.DEG                                                                              : 7 Relative Bearing                                                                          
 DEVI.DEG                                                                            : 8 Hole Deviation                                                                            
 HD1_PPC1.IN                                                                         : 9 PPC1 Hole Diameter 1                                                                      
 HD2_PPC1.IN                                                                         :10 PPC1 Hole Diameter 2                                                                      
 TENS.LBS                                                                            :11 Cable Tension                                                                             
 HDAR.IN                                                                             :12 Hole Diameter from Area                                                                   
 MINXENE_OVERALL.                                                                    :13 Overall estimate of minimum cross energy                                                  
 MAXXENE_OVERALL.                                                                    :14 Overall estimate of maximum cross energy                                                  
 FSH_AZIM_OVERALL_FILT.DEG                                                           :15 Overall estimate of fast shear azimuth filtered                                           
 FSH_AZIM_OVERALL.DEG                                                                :16 Overall estimate of fast shear azimuth                                                    
 FSH_AZIM_ERR.DEG                                                                    :17 Fast shear azimuth error                                                                  
 DTSM_SLOW.US/F                                                                      :18 Shear Slowness of Slow Shear Waves                                                        
 DTSM_FAST.US/F                                                                      :19 Shear Slowness of Fast Shear Waves                                                        
 DTCO.US/F                                                                           :20 Delta-T Compressional                                                                     
 SLOANI.                                                                             :21 Slowness based anisotropy                                                                 
 TIMANI.                                                                             :22 Time based anisotropy                                                                     
 TWE.US                                                                              :23 Time window end                                                                           
 TWB.US                                                                              :24 Time window begin                                                                         
~Ascii   DEPT            GR          RHOZ            BS          P1AZ         SDEVM         HAZIM            RB          DEVI      HD1_PPC1      HD2_PPC1          TENS          HDAR  MINXENE_OVER  MAXXENE_OVER  FSH_AZIM_OVE  FSH_AZIM_OVE  FSH_AZIM_ERR     DTSM_SLOW     DTSM_FAST          DTCO        SLOANI        TIMANI           TWE           TWB
    7170.00000      24.45046       3.00034      17.50000     290.21774       0.99953     182.90884     107.31137       0.97256       3.17930       2.96300    2973.75000       3.07115       1.35159       1.67994    -999.25000     -31.88175      14.72657      87.63632      89.46255      47.36043      -2.06239       0.31337    4085.89429    1685.89429
    7169.50000      24.45046       2.97726      17.50000     291.33347       0.99759     183.38963     107.94637       0.97123       3.17930       2.96300    3002.25000       3.07115       1.51591       2.02487    -999.25000     -32.95487      15.38392      87.91621      89.47501      47.02879      -1.75748       0.38045    4084.45117    1684.45105
    7169.00000      24.45046       2.98871      17.50000     288.93219       0.99676     183.87401     105.06036       0.97149       3.17930       2.96300    3012.00000       3.07115       3.77720       5.41934    -999.25000     -43.17833      18.18712      88.84904      89.31802      47.35925      -0.52645       0.39895    4082.74951    1682.74927
    7168.50000      24.45046       2.99681      17.50000     284.70898       0.99697     184.39871     100.31180       0.97251       3.17930       2.96300    3153.50000       3.07115       6.33388       8.77094    -999.25000     -57.63507      20.70758      89.48238      89.23796      48.63969       0.27352       0.41587    4080.52637    1680.52625
    7168.00000      24.45046       3.02338      17.50000     291.05258       0.99804     184.90459     106.15031       0.97545       3.19186       2.99111    3023.50000       3.09148       6.69762       9.04492    -999.25000     -38.46792      21.95352      89.32615      89.26533      49.37239       0.06811       0.48691    4078.09082    1678.09058
    7167.50000      24.45046       3.01374      17.50000     293.71423       0.99969     185.40730     108.30953       0.97954       3.17252       3.00157    3036.00000       3.08705       6.81053       9.12910    -999.25000     -14.21669      23.51690      89.96791      89.28857      49.33150       0.75796       0.57204    4076.03271    1676.03271
    7167.00000      24.45046       2.98458      17.50000     296.72391       1.00160     185.88918     110.83765       0.98383       3.20401       2.97706    3256.75000       3.09054       6.91356       9.20818    -999.25000     -13.28998      24.37042      88.89014      89.38116      49.32597      -0.55088       0.65464    4075.27954    1675.27942
    7166.50000      24.45046       2.94679      17.50000     301.66721       1.00338     186.28571     115.38490       0.98785       3.19861       3.00157    3105.25000       3.10009       6.99086       9.29026    -999.25000     -12.81055      24.86900      88.92383      89.46594      49.55161      -0.60779       0.72226    4076.51855    1676.51831
    7166.00000      24.45046       2.94832      17.50000     308.85892       1.00469     186.54665     122.31625       0.99004       3.17889       2.97706    3062.00000       3.07798       7.05583       9.42677    -999.25000     -12.04132      25.25899      88.62335      89.35550      49.65060      -0.82274       0.79425    4079.32031    1679.32031
    7165.50000      24.53091       2.97016      17.50000     310.36346       1.00528     186.64087     123.72665       0.98998       3.17930       2.99098    3083.00000       3.08514       7.11507       9.64009    -999.25000     -11.16773      25.07290      88.28534      88.92351      49.52776      -0.72024       0.89931    4088.70605    1688.70593
    7165.00000      25.11323       2.98786      17.50000     310.37479       1.00504     186.54025     123.83862       0.98761       3.19186       2.97694    3002.75000       3.08440       7.11223       9.86346    -999.25000     -10.31169      24.24121      88.12989      88.49918      49.03596      -0.41815       1.04246    4109.50244    1709.50220
    7164.50000      24.26779       2.96614      17.50000     310.37561       1.00405     186.23569     124.14403       0.98332       3.17930       2.97706    2998.75000       3.07818       6.95750      10.03677    -999.25000      -9.81120      22.80367      87.99101      88.13509      48.22417      -0.16360       1.17526    4126.27881    1726.27856
    7164.00000      23.33086       2.93951      17.50000     310.34137       1.00248     185.71416     124.63132       0.97851       3.19186       2.96290    3048.25000       3.07738       6.68943      10.18152    -999.25000     -10.15603      21.29294      87.90947      87.97199      47.32267      -0.07110       1.28029    4129.48145    1729.48120
    7163.50000      23.06068       2.92220      17.50000     310.32584       1.00059     185.08957     125.24039       0.97384       3.18606       3.01559    3084.50000       3.10083       6.10692       9.75443    -999.25000     -11.26036      19.68545      87.86187      87.85045      46.54104       0.01300       1.32671    4127.96826    1727.96826
    7163.00000      22.97190       2.94118      17.50000     310.34909       0.99855     184.45660     125.89662       0.97117       3.17930       3.00515    3057.25024       3.09222       4.43175       7.05921    -999.25000     -12.40095      17.62986      87.84821      87.77046      46.19168       0.08854       1.20041    4125.47363    1725.47363
    7162.50000      24.33308       2.95397      17.50000     310.39597       0.99638     183.92865     126.47147       0.96963       3.17930       3.00515    3109.75000       3.09222       2.74168       4.24364    -999.25000      -8.95852      16.72583      87.83454      87.68301      46.05820       0.17267       1.05370    4122.75781    1722.75757
    7162.00000      25.68299       3.00472      17.50000     310.38312       0.99387     183.56046     126.82681       0.97019       3.16674       2.97706    3029.50000       3.07190       2.15663       3.56763    -999.25000      -7.22112      15.90995      87.82088      87.57308      45.87410       0.28257       1.03827    4120.35449    1720.35425
    7161.50000      25.42658       3.02215      17.50000     310.34296       0.99067     183.52245     126.82463       0.97120       3.17930       2.97694    3038.00000       3.07812       2.00999       3.55089    -999.25000     -10.41546      14.52664      87.80722      87.44068      45.82511       0.41831       1.05036    4118.17578    1718.17578
    7161.00000      24.67031       3.03307      17.50000     310.34552       0.98644     183.97957     126.37000       0.97039       3.17930       2.99111    3177.00000       3.08521       1.98101       3.62396    -999.25000     -12.49389      13.82040      87.28270      87.42010      45.96961      -0.15729       1.05157    4116.59717    1716.59717
    7160.50000      22.80258       2.98509      17.50000     310.35529       0.98101     185.00563     125.35360       0.96782       3.16034       2.99480    2992.00000       3.07757       1.94022       3.69567    -999.25000     -14.75530      13.24456      86.85864      87.48219      46.18734      -0.71531       1.04551    4115.43164    1715.43188
    7160.00000      23.64873       2.95412      17.50000     310.36255       0.97455     186.63440     123.73198       0.96091       3.20401       2.97694    3183.50024       3.09048       1.91259       3.81043    -999.25000     -16.82916      13.15334      86.53504      87.62695      46.38230      -1.25390       1.04486    4113.78223    1713.78223
    7159.50000      24.62176       2.94126      17.50000     310.36453       0.96763     188.85051     121.51767       0.95279       3.17930       3.00515    3167.00000       3.09222       1.88881       3.92548    -999.25000     -18.15072      13.44770      86.41235      87.61982      46.49061      -1.38764       1.05037    4111.28516    1711.28516
    7159.00000      25.33800       2.96341      17.50000     311.88779       0.96102     191.53491     120.35638       0.94369       3.19186       2.97694    3090.75000       3.08440       1.85186       3.97488    -999.25000     -19.14257      13.72033      86.36002      87.56918      46.63559      -1.39040       1.05214    4107.98926    1707.98950
