~VERSION
 VERS.        2.00                                                                   :CWLS LOG ASCII STANDARD
 WRAP.        NO                                                                     :NO WRAP PERFORMED
 PROD.        Schlumberger                                                           :LAS Producer
 CREA.        11/5/2012                                         :LAS Creation Date and time
~Well
#MNEM.UNIT    VALUE                                                                   :DESCRIPTION
#----.----    ---------------                                                        :-------------------
 STRT.F       7170.000                                                               :START DEPTH
 STOP.F       5320.000                                                               :STOP  DEPTH
 STEP.F       -0.500                                                                 :DEPTH STEP
 NULL.        -999.250                                                               :NULL VALUE
 COMP.        ADM COMPANY                                       :COMPANY NAME
 WELL.        Verification Well #2                              :WELL NAME
 FLD.         Wildcat                                           :FIELD NAME
 API.         121152355200                                                           :API NUMBER
 CNTY.        Macon                                                                  :COUNTY
 STAT.        Illinois                                                               :STATE
 CTRY.        US                                                                     :COUNTRY
 LOC.         Lat: 39.8922313 Long: -88.8924449                                      :WELL SURFACE LOCATION LINE 1
 LOC2.        248' South and 233' East From NW corner of the                         :WELL SURFACE LOCATION LINE 2
 LOC3.        NW/4, of the NE/4, of the NW/4, of Section 32                          :WELL SURFACE LOCATION LINE 3
 SECT.        32                                                                     :SECTION
 TOWN.        17 North                                                               :TOWNSHIP
 RANG.        3 East                                                                 :RANGE
 LATI.        39.892231 degrees                                                      :Latitude
 LONG.        -88.892444 degrees                                                     :Longitude
 DATE.        2012/10/31                                                             :LOGGING DATE
 SRVC.        Schlumberger                                                           :SERVICE COMPANY
~Parameter
#MNEM.UNIT    VALUE                                                                  :DESCRIPTION
#----.----    ---------------                                                        :-------------------
 APD.F        17.000                                                                 :Elevation of depth reference above permanent datum
 EDF.F        -999.250                                                               :Elevation of Derrick Floor
 EGL.F        686.500                                                                :Elevation of Ground Level
 EKB.F        703.500                                                                :Elevation of Kelly Bushing
 EPD.F        686.500                                                                :Elevation of Permnaent Datum
 LMF.         Kelly Bushing                                                          :Logging Measured From
 PDAT.        Ground Level                                                           :Permanent Datum
 TDD.F        7225.000                                                               :Total Depth Driller
 TDL.F        7223.000                                                               :Total Depth Logger
 BS.IN        8.500                                                                  :Bit Size
 R1.                                                                                 :REMARK 1
 R2.                                                                                 :REMARK 2
 R3.                                                                                 :REMARK 3
 R4.                                                                                 :REMARK 4
 R5.                                                                                 :REMARK 5
 R6.                                                                                 :REMARK 6
 R7.                                                                                 :REMARK 7
 R8.                                                                                 :REMARK 8
 R9.                                                                                 :REMARK 9
 R10.                                                                                :REMARK 10
 DCS_CENTER.  Denver                                                                 :Schlumberger DCS Center
 LOG_ANALYST. Oliver                                                                 :Log Analyst Name
 ENG.         Beth DiBella                                                           :Field Engineer Name
 GF_BASELINE. 45                                                                     :GeoFrame Baseline
~Curve
#MNEM.UNIT                                                                           :DESCRIPTION
#----.----                                                                           :--------------------------------
 DEPT.F                                                                              :Depth Index
 GR.GAPI                                                                             : 1 Gamma Ray                                                                                 
 RHOZ.G/C3                                                                           : 2 HRDD Standard Resolution Formation Density                                                
 BS.IN                                                                               : 3 Bit Size                                                                                  
 P1AZ.DEG                                                                            : 4 Pad 1 Azimuth in Horizontal Plane (0 = True North)                                        
 SDEVM.DEG                                                                           : 5 Memorized Sonde Deviation                                                                 
 HAZIM.DEG                                                                           : 6 Memorized Hole Azimuth Relative to True North                                             
 RB.DEG                                                                              : 7 Relative Bearing                                                                          
 DEVI.DEG                                                                            : 8 Hole Deviation                                                                            
 HD1_PPC1.IN                                                                         : 9 PPC1 Hole Diameter 1                                                                      
 HD2_PPC1.IN                                                                         :10 PPC1 Hole Diameter 2                                                                      
 TENS.LBS                                                                            :11 Cable Tension                                                                             
 HDAR.IN                                                                             :12 Hole Diameter from Area                                                                   
 MINXENE_OVERALL.                                                                    :13 Overall estimate of minimum cross energy                                                  
 MAXXENE_OVERALL.                                                                    :14 Overall estimate of maximum cross energy                                                  
 FSH_AZIM_OVERALL_FILT.DEG                                                           :15 Overall estimate of fast shear azimuth filtered                                           
 FSH_AZIM_OVERALL.DEG                                                                :16 Overall estimate of fast shear azimuth                                                    
 FSH_AZIM_ERR.DEG                                                                    :17 Fast shear azimuth error                                                                  
 DTSM_SLOW.US/F                                                                      :18 Shear Slowness of Slow Shear Waves                                                        
 DTSM_FAST.US/F                                                                      :19 Shear Slowness of Fast Shear Waves                                                        
 DTCO.US/F                                                                           :20 Delta-T Compressional                                                                     
 SLOANI.                                                                             :21 Slowness based anisotropy                                                                 
 TIMANI.                                                                             :22 Time based anisotropy                                                                     
 TWE.US                                                                              :23 Time window end                                                                           
 TWB.US                                                                              :24 Time window begin                                                                         
~Ascii   DEPT            GR          RHOZ            BS          P1AZ         SDEVM         HAZIM            RB          DEVI      HD1_PPC1      HD2_PPC1          TENS          HDAR  MINXENE_OVER  MAXXENE_OVER  FSH_AZIM_OVE  FSH_AZIM_OVE  FSH_AZIM_ERR     DTSM_SLOW     DTSM_FAST          DTCO        SLOANI        TIMANI           TWE           TWB
# ...
    6066.00000      26.92865       2.56707      17.50000     317.63144       1.82966     288.34363      29.27532       1.83940       8.56441       8.45263    2515.48755       8.50852       0.94919       4.50592    -999.25000      66.28164       6.78496      96.10368      94.44540      59.98765       1.74053       1.27679    4274.52197    1874.52197
    6065.50000      26.72353       2.55702      17.50000     317.75272       1.82464     288.41724      29.32307       1.83388       8.52346       8.43636    2593.03589       8.47991       0.94015       4.68652    -999.25000      66.26880       6.26134      95.74205      94.40245      59.71997       1.40903       1.30160    4274.33105    1874.33130
    6065.00000      24.85499       2.53670      17.50000     318.02234       1.82018     288.49240      29.51755       1.82972       8.49513       8.44471    2655.44604       8.46992       0.91396       4.84848    -999.25000      66.04977       6.01458      95.53250      94.55797      60.14292       1.02534       1.32844    4274.55420    1874.55408
    6064.50000      24.84049       2.51796      17.50000     318.34088       1.81636     288.55203      29.77643       1.82620       8.48824       8.44471    2563.39575       8.46648       0.89518       5.02923    -999.25000      65.68708       5.95318      95.48927      94.70342      60.21552       0.82637       1.35822    4275.60205    1875.60181
    6064.00000      23.20650       2.52254      17.50000     318.84271       1.81319     288.60303      30.22720       1.82330       8.48479       8.44316    2548.11328       8.46397       0.88080       5.21421    -999.25000      65.49432       5.77344      95.56010      94.66273      60.08924       0.94350       1.38593    4277.70117    1877.70117
    6063.50000      19.13149       2.51896      17.50000     319.13181       1.81070     288.65009      30.46921       1.82063       8.48483       8.45261    2577.21948       8.46872       0.85884       5.41211    -999.25000      65.51823       5.65301      95.79651      94.58977      60.48161       1.26768       1.41785    4280.07324    1880.07324
    6063.00000      17.48406       2.52984      17.50000     319.38168       1.80886     288.69333      30.67582       1.81895       8.49230       8.45759    2591.86963       8.47494       0.84696       5.63490    -999.25000      65.74374       5.61197      96.12833      94.42293      61.32168       1.78996       1.45521    4281.89746    1881.89771
    6062.50000      19.26364       2.54625      17.50000     319.97379       1.80767     288.74289      31.21826       1.81758       8.47837       8.46030    2620.61865       8.46934       0.84063       5.89695    -999.25000      66.04764       5.47785      96.49278      94.39527      61.33537       2.19763       1.49972    4283.08398    1883.08423
    6062.00000      21.97254       2.56452      17.50000     321.94565       1.80709     288.88437      33.04827       1.81724       8.48135       8.45263    2664.07422       8.46699       0.82427       6.22660      66.42472      66.42472       5.38327      96.82397      94.38144      60.46146       2.55488       1.55653    4283.72217    1883.72229
    6061.50000      25.03874       2.56812      17.50000     322.03415       1.80707     288.79672      33.22434       1.81746       8.48350       8.43976    2615.00000       8.46163       0.79802       6.63066      66.92638      66.92638       5.31745      97.07245      94.45493      60.19556       2.73331       1.62780    4284.22754    1884.22791
    6061.00000      26.45869       2.56272      17.50000     321.91345       1.80754     288.78268      33.11771       1.81827       8.49445       8.42785    2586.73071       8.46115       0.77050       7.11880      67.36916      67.36916       5.15898      97.13029      94.37035      60.78117       2.88244       1.70967    4285.28174    1885.28174
    6060.50000      27.58518       2.57504      17.50000     322.27621       1.80843     288.76590      33.49717       1.81963       8.52551       8.42711    2612.92041       8.47631       0.74882       7.59441      67.67564      67.67564       5.00230      97.16309      94.26578      61.33996       3.02703       1.78516    4287.04883    1887.04895
    6060.00000      27.82313       2.58332      17.50000     322.76285       1.80964     288.76813      33.98147       1.82133       8.53913       8.45854    2605.81934       8.49883       0.73587       7.98650      67.91895      67.91895       4.87764      97.16942      94.03212      61.41251       3.28167       1.84565    4289.54297    1889.54272
    6059.50000      26.48712       2.59172      17.50000     323.15521       1.81109     288.77615      34.36572       1.82338       8.55861       8.49443    2720.40283       8.52652       0.72556       8.34584      68.04112      68.04112       4.67386      97.17639      93.83949      60.88847       3.49385       1.90531    4292.76660    1892.76636
    6059.00000      25.69941       2.59093      17.50000     323.31693       1.81266     288.76205      34.54146       1.82542       8.59614       8.53046    2651.73901       8.56330       0.71187       8.66203      68.08729      68.08729       4.43286      97.20464      93.65597      60.08269       3.71860       1.96345    4296.43262    1896.43286
    6058.50000      25.70978       2.60516      17.50000     323.76300       1.81425     288.75372      34.99580       1.82733       8.59538       8.56073    2653.18457       8.57806       0.69660       8.91672      68.17413      68.17413       4.27293      97.26370      93.53645      59.40467       3.90697       2.00277    4300.38379    1900.38354
    6058.00000      29.20140       2.62300      17.50000     324.23712       1.81577     288.77060      35.45291       1.82910       8.60659       8.54408    2657.95874       8.57534       0.68410       9.06651      68.23772      68.23772       4.17419      97.35197      93.62263      59.05077       3.90560       2.01889    4304.58398    1904.58398
    6057.50000      36.14878       2.63315      17.50000     324.56696       1.81715     288.79495      35.75835       1.83052       8.65030       8.53395    2610.90649       8.59212       0.67292       9.13552      68.15843      68.15843       4.11845      97.48082      93.73017      59.12341       3.92305       2.02517    4309.18262    1909.18225
    6057.00000      43.78618       2.62528      17.50000     324.80072       1.81831     288.82355      35.96344       1.83175       8.66667       8.54778    2560.90137       8.60723       0.65958       9.21989      67.96915      67.96915       4.08871      97.64786      93.96114      59.36629       3.84817       2.03440    4314.02246    1914.02222
    6056.50000      48.77309       2.60007      17.50000     325.11282       1.81921     288.84198      36.25707       1.83257       8.64951       8.53205    2585.35718       8.59078       0.64732       9.34516      67.83084      67.83084       4.01740      97.85368      94.26155      59.45943       3.73955       2.04705    4318.40332    1918.40356
    6056.00000      47.69032       2.58165      17.50000     324.57245       1.81981     288.89032      35.66843       1.83302       8.61443       8.49666    2644.43140       8.55555       0.64165       9.46522      67.78338      67.78338       3.94787      98.09657      94.57455      59.58020       3.65599       2.05461    4322.19922    1922.19897
    6055.50000      40.91397       2.57306      17.50000     325.19693       1.82010     288.93848      36.24467       1.83355       8.55013       8.47577    2646.75854       8.51295       0.64750       9.48438      67.81234      67.81234       3.94881      98.37255      94.84035      59.97247       3.65627       2.04365    4325.98193    1925.98193
    6055.00000      33.03231       2.56296      17.50000     325.10144       1.82008     288.98502      36.10266       1.83334       8.50994       8.43981    2544.54834       8.47488       0.65958       9.27832      67.89020      67.89020       4.00848      98.71727      95.01897      60.34613       3.81787       2.00207    4329.98633    1929.98633
