~VERSION INFORMATION 
VERS  .    2.0                                     :CWLS Log ASCII Standard - VERSION 2.0
WRAP  .    NO                                      :One Line per Depth step
PROD  .    Schlumberger Technology Corp.           :LAS Producer
PROG  .    Horizon LASWriter 3.1.9755.0            :LAS Program name and version
SOURCE.    3A-Log[4]/Up                            :Run&Pass Information
CREA  .    10/30/2012                              :LAS Creation date {MM/DD/YYYY}
#--------------------------------------------------
~WELL INFORMATION 
#MNEM           .UNIT                      DATA            :DESCRIPTION
#----            ------          --------------            -----------------------------
STRT            .ft                  5150.00000            :START DEPTH
STOP            .ft                  7238.00000            :STOP DEPTH
STEP            .ft                         0.5            :STEP
NULL            .                       -999.25            :NULL VALUE
COMP            .                   ADM COMPANY            :COMPANY
WELL            .                Verification Well #2      :WELL NAME
FLD             .                       Wildcat            :FIELD NAME
RIGN            .                                          :Rig Name
RIGTYP          .                                          :Rig Type
SON             .                    C5FX-00022            :Service Order Number
SRVC            .                  Schlumberger            :SERVICE COMPANY
DATE            .                    10/30/2012            :LOG DATE(Composite Date for Composite LAP) (MM/DD/YYYY)
CLAB            .                       County:            :County Label
CNTY            .                         Macon            :COUNTY
SLAB            .                        State:            :State/Province Label
STAT            .                      Illinois            :STATE or PROVINCE
PROV            .                      Illinois            :STATE or PROVINCE
CTRY            .                                          :COUNTRY
CONT_REGION     .                    N. America            :Continent Region
SECT            .                            32            :Section
TOWN            .                      17 North            :Township
RANG            .                        3 East            :Range
API             .                  121152355200            :API NUMBER
UWI             .                                          :UNIQUE WELL ID
LUL             .                        Weston            :Logging Unit Location
LUN             .                          3149            :Logging Unit Number
LOC             .                Lat: 39.8922313 Long: -88.89244449:FIELD LOCATION
FL1             .                248' South and 233' East rom NW corner of the:Field Location Line 1
FL2             .                NW/4, of the NE/4, of the NW/4, of Section 32:Field Location Line 2
LATI            .deg                  39.892231            :LATITUDE
LONG            .deg                 -88.892444            :LONGITUDE
PDAT            .                            GL            :Local Permanent Datum
LMF             .                            KB            :Logging Measured From
APD             .ft                    17.00000            :Elevation of Depth Reference (LMF) Above Permanent Datum
EPD             .ft                   686.49998            :Elevation of Permanent Datum (PDAT) above Mean Sea Level
EKB             .ft                    17.00000            :Elevation of Kelly Bushing Above Permanent Datum
EDF             .ft                     -999.25            :Elevation of Drill Floor Above Permanent Datum
EGL             .ft                     0.00000            :Elevation of Ground Level Above Permanent Datum
ECF             .ft                     -999.25            :Elevation of Casing Flange above Permanent Datum
#--------------------------------------------------
~CURVE INFORMATION
#MNEM           .UNIT                  API CODE            :DESCRIPTION
#----            ------          --------------            -----------------------------
DEPT            .ft                                        :                                                        Depth Index
RLA4            .ohm.m                                     :        (HRLT-B)                (2in)                   Apparent Resistivity from Computed Focusing Mode 4
CALI            .in                                        :        (HDRS-H)                (1in)                   Caliper
GR              .gAPI                                      :        (EDTC-B)                (6in)                   Gamma Ray
MRES            .ohm.m                                     :        (HRLT-B)                (2in)                   Mud Resistivity
RLA2            .ohm.m                                     :        (HRLT-B)                (2in)                   Apparent Resistivity from Computed Focusing Mode 2
RLA5            .ohm.m                                     :        (HRLT-B)                (2in)                   Apparent Resistivity from Computed Focusing Mode 5
TENS            .lbf                                       :        (WLWorkflow)            (1in)                   Cable Tension
RT              .ohm.m                                     :        (HRLT-B)                (2in)                   True Resistivity
RXOZ            .ohm.m                                     :        (HDRS-H)                (2in)                   Invaded Formation Resistivity filtered at 18 inches
SP              .mV                                        :        (SPE-A)                 (6in)                   Spontaneous Potential
RLA3            .ohm.m                                     :        (HRLT-B)                (2in)                   Apparent Resistivity from Computed Focusing Mode 3
RHOZ            .g/cm3                                     :        (HDRS-H)                (2in)                   Standard Resolution Formation Density
PEFZ            .                                          :        (HDRS-H)                (2in)                   Standard Resolution Formation Photoelectric Factor
NPHI            .ft3/ft3                                   :        (HGNS-H)                (6in)                   Thermal Neutron Porosity (original Ratio Method) in Selected Lithology
DPHZ            .ft3/ft3                                   :        (HDRS-H)                (2in)                   Standard Resolution Density Porosity
HDRA            .g/cm3                                     :        (HDRS-H)                (2in)                   Density Standoff Correction
#-------------------------------------------------------------
#            DEPT         RLA4         CALI           GR         MRES         RLA2         RLA5         TENS           RT         RXOZ           SP         RLA3         RHOZ         PEFZ         NPHI         DPHZ         HDRA 
#                     (HRLT-B)     (HDRS-H)     (EDTC-B)     (HRLT-B)     (HRLT-B)     (HRLT-B)  (WLWorkflo)     (HRLT-B)     (HDRS-H)      (SPE-A)     (HRLT-B)     (HDRS-H)     (HDRS-H)     (HGNS-H)     (HDRS-H)     (HDRS-H) 
#                                                                                                                                                                                                                                 
#                        (2in)        (1in)        (6in)        (2in)        (2in)        (2in)        (1in)        (2in)        (2in)        (6in)        (2in)        (2in)        (2in)        (6in)        (2in)        (2in) 
~ASCII
# ...
       6374.00000     16.05697      8.50095     59.49849      0.19856     17.55445     14.67001   2255.49913     10.15644     17.89395   -268.55360     16.82046      2.51315      1.90037      0.12621      0.08294     -0.00607
       6374.50000      7.66781      8.48984     64.05331      0.20332      8.52999      6.98326   2402.00038      4.44789     26.67800   -267.89060      8.08152      2.50945      1.89211      0.13028      0.08518     -0.00560
       6375.00000      6.09400      8.52316     70.32576      0.20690      6.80453      5.55924   2422.99978      3.50120     20.67381   -267.00780      6.41082      2.48657      1.90381      0.14475      0.09905     -0.00648
       6375.50000      5.99388      8.52316     68.15015      0.20728      6.70547      5.47293   2392.99903      3.45291     14.06498   -267.33930      6.30256      2.48168      1.89678      0.15392      0.10201     -0.00414
       6376.00000      6.00935      8.47874     64.49863      0.20649      6.76745      5.48561   2418.49911      3.34942     13.59367   -267.07810      6.32757      2.47651      1.90295      0.15118      0.10515     -0.00346
       6376.50000      8.20712      8.45652     59.82788      0.20344      9.22642      7.53296   2426.00098      4.59295     15.06960   -267.07140      8.69442      2.48240      1.91168      0.13329      0.10158     -0.00308
       6377.00000      8.95845      8.50095     59.42811      0.20328     10.11752      8.24018   2420.49991      5.23155     19.84804   -267.21090      9.47208      2.48897      1.92995      0.12188      0.09759     -0.00420
       6377.50000      7.98343      8.50095     60.62215      0.20530      8.98644      7.36420   2425.00058      4.80453     19.21201   -267.38390      8.43486      2.50102      1.93962      0.12372      0.09029     -0.00453
       6378.00000      9.71843      8.47874     62.70166      0.20367     10.82192      8.98781   2320.99947      5.96099     23.94440   -267.54690     10.30870      2.51287      1.92802      0.13302      0.08311     -0.00496
       6378.50000     15.65482      8.47874     63.24204      0.20058     17.26952     14.46231   2245.00011      9.69465     32.10297   -267.91960     16.58619      2.51643      1.90938      0.12529      0.08095     -0.00610
       6379.00000     15.37491      8.47874     61.40514      0.20118     17.15677     14.22645   2268.99891      9.15381     39.71258   -268.11720     16.31212      2.51782      1.88846      0.11257      0.08011     -0.00518
       6379.50000      9.78931      8.50095     59.50255      0.20510     10.99250      9.10380   2303.99942      5.67430     25.84110   -268.09820     10.34248      2.51841      1.87978      0.11175      0.07975     -0.00291
       6380.00000     10.08747      8.47874     57.81133      0.20530     11.30616      9.39420   2380.00057      5.74610     23.62605   -267.57810     10.65892      2.52262      1.88486      0.11368      0.07720     -0.00081
       6380.50000     16.19012      8.50095     53.16592      0.20237     18.12831     15.03684   2347.99902      9.28160     25.47940   -267.70540     17.00919      2.51946      1.88909      0.10998      0.07912     -0.00304
       6381.00000     14.47675      8.47874     46.67590      0.20352     16.36859     13.45439   2379.00017      8.19120     28.74055   -267.36720     15.27948      2.51072      1.89496      0.09243      0.08441     -0.00661
       6381.50000     11.17822      8.48984     43.19676      0.20565     12.69898     10.40202   2391.00048      6.31203     23.61471   -267.44640     11.79729      2.51423      1.87971      0.09381      0.08228     -0.00597
       6382.00000     12.24716      8.47874     45.64021      0.20544     13.87477     11.36476   2428.99993      6.89210     25.19947   -267.49220     12.94111      2.52110      1.87892      0.10604      0.07812     -0.00361
       6382.50000     17.02564      8.50095     48.12053      0.20421     19.14277     15.71862   2408.00053      9.55099     30.55463   -266.70310     17.96357      2.52778      1.88302      0.11204      0.07407     -0.00202
       6383.00000     17.35691      8.48984     48.26913      0.20482     19.44224     15.98627   2359.99932      9.90715     44.09640   -265.65180     18.34504      2.51778      1.88530      0.11238      0.08013     -0.00510
       6383.50000     14.96798      8.50095     43.65829      0.20647     16.84828     13.76890   2320.99947      8.63957     37.90283   -265.53910     15.89927      2.50422      1.88179      0.10297      0.08835     -0.00819
       6384.00000     16.52943      8.47874     41.55906      0.20662     18.53196     15.17368   2293.50084      9.64069     35.09170   -264.85940     17.60971      2.50452      1.85787      0.09621      0.08817     -0.00882
       6384.50000     26.45182      8.48984     39.84252      0.20440     29.42656     24.18338   2273.00051     15.60975     41.49978   -264.82140     28.03298      2.51405      1.83803      0.08339      0.08240     -0.00751
       6385.00000     27.84979      8.47874     40.48870      0.20426     31.14008     25.29871   2263.00101     16.38092     55.36450   -264.84380     29.48349      2.52378      1.81678      0.07291      0.07650     -0.00804
       6385.50000     16.35197      8.47874     41.74216      0.20625     18.33813     14.86764   2371.99962      9.30326     46.76053   -265.25780     17.27891      2.52710      1.82151      0.07586      0.07448     -0.00707
       6386.00000     13.34143      8.46763     47.73551      0.20637     15.02087     12.10371   2315.99972      7.12897     29.03666   -265.73210     14.00962      2.52198      1.83305      0.08236      0.07759     -0.00745
       6386.50000     17.81731      8.47874     52.86899      0.20494     19.83197     16.11652   2330.99897      9.77907     31.28475   -265.91410     18.67880      2.51052      1.86792      0.09404      0.08454     -0.00569
       6387.00000     10.60913      8.47874     53.97071      0.20804     11.93165      9.60057   2448.00078      5.53163     23.74828   -266.35160     11.23091      2.50380      1.87904      0.09954      0.08860     -0.00612
       6387.50000      8.58309      8.47874     52.14483      0.21024      9.76497      7.78808   2390.00008      4.42964     22.63379   -265.74110      9.18538      2.49880      1.88920      0.10265      0.09164     -0.00621
       6388.00000     15.05413      8.50095     47.84559      0.20692     17.20301     13.64827   2435.00008      8.01395     21.68475   -265.15630     16.19946      2.50927      1.88774      0.09660      0.08529     -0.00692
       6388.50000     17.25487      8.47874     50.09295      0.20602     19.92450     15.57267   2422.50071      8.93074     30.34725   -264.77340     18.63662      2.52976      1.88126      0.08534      0.07287     -0.00484
       6389.00000     17.68159      8.47874     48.72964      0.20629     20.60036     15.91281   2403.00078      8.89445     41.17714   -264.73210     19.12547      2.54622      1.89169      0.07617      0.06290     -0.00321
       6389.50000     15.19862      8.50095     47.28185      0.20619     17.69981     13.70513   2382.99953      7.39604     38.42670   -265.28910     16.39154      2.54791      1.89957      0.07614      0.06187     -0.00255
       6390.00000     13.17199      8.50095     48.01915      0.20643     15.13395     11.88966   2334.49924      6.33006     30.76937   -265.32030     14.14532      2.52985      1.94750      0.07939      0.07282     -0.00581
       6390.50000     11.58156      8.47874     57.24560      0.20621     13.17732     10.45900   2332.99977      5.66054     27.09148   -263.93750     12.39606      2.53692      2.00619      0.08364      0.06853     -0.00540
       6391.00000     11.32224      8.50095     85.57297      0.20561     12.79405     10.21499   2370.00107      5.66813     31.43211   -263.54460     12.01733      2.54934      2.08689      0.09206      0.06101     -0.00559
       6391.50000     14.69898      8.48984    102.08300      0.20398     16.53470     13.27968   2341.00072      7.61640     49.83630   -263.86720     15.51731      2.57368      2.11830      0.10508      0.04626     -0.00311
