~VERSION INFORMATION 
VERS  .    2.0                                     :CWLS Log ASCII Standard - VERSION 2.0
WRAP  .    NO                                      :One Line per Depth step
PROD  .    Schlumberger Technology Corp.           :LAS Producer
PROG  .    Horizon LASWriter 3.1.9755.0            :LAS Program name and version
SOURCE.    3A-Log[4]/Up                            :Run&Pass Information
CREA  .    10/30/2012                              :LAS Creation date {MM/DD/YYYY}
#--------------------------------------------------
~WELL INFORMATION 
#MNEM           .UNIT                      DATA            :DESCRIPTION
#----            ------          --------------            -----------------------------
STRT            .ft                  5150.00000            :START DEPTH
STOP            .ft                  7238.00000            :STOP DEPTH
STEP            .ft                         0.5            :STEP
NULL            .                       -999.25            :NULL VALUE
COMP            .                   ADM COMPANY            :COMPANY
WELL            .                Verification Well #2      :WELL NAME
FLD             .                       Wildcat            :FIELD NAME
RIGN            .                                          :Rig Name
RIGTYP          .                                          :Rig Type
SON             .                    C5FX-00022            :Service Order Number
SRVC            .                  Schlumberger            :SERVICE COMPANY
DATE            .                    10/30/2012            :LOG DATE(Composite Date for Composite LAP) (MM/DD/YYYY)
CLAB            .                       County:            :County Label
CNTY            .                         Macon            :COUNTY
SLAB            .                        State:            :State/Province Label
STAT            .                      Illinois            :STATE or PROVINCE
PROV            .                      Illinois            :STATE or PROVINCE
CTRY            .                                          :COUNTRY
CONT_REGION     .                    N. America            :Continent Region
SECT            .                            32            :Section
TOWN            .                      17 North            :Township
RANG            .                        3 East            :Range
API             .                  121152355200            :API NUMBER
UWI             .                                          :UNIQUE WELL ID
LUL             .                        Weston            :Logging Unit Location
LUN             .                          3149            :Logging Unit Number
LOC             .                Lat: 39.8922313 Long: -88.89244449:FIELD LOCATION
FL1             .                248' South and 233' East rom NW corner of the:Field Location Line 1
FL2             .                NW/4, of the NE/4, of the NW/4, of Section 32:Field Location Line 2
LATI            .deg                  39.892231            :LATITUDE
LONG            .deg                 -88.892444            :LONGITUDE
PDAT            .                            GL            :Local Permanent Datum
LMF             .                            KB            :Logging Measured From
APD             .ft                    17.00000            :Elevation of Depth Reference (LMF) Above Permanent Datum
EPD             .ft                   686.49998            :Elevation of Permanent Datum (PDAT) above Mean Sea Level
EKB             .ft                    17.00000            :Elevation of Kelly Bushing Above Permanent Datum
EDF             .ft                     -999.25            :Elevation of Drill Floor Above Permanent Datum
EGL             .ft                     0.00000            :Elevation of Ground Level Above Permanent Datum
ECF             .ft                     -999.25            :Elevation of Casing Flange above Permanent Datum
#--------------------------------------------------
~CURVE INFORMATION
#MNEM           .UNIT                  API CODE            :DESCRIPTION
#----            ------          --------------            -----------------------------
DEPT            .ft                                        :                                                        Depth Index
RLA4            .ohm.m                                     :        (HRLT-B)                (2in)                   Apparent Resistivity from Computed Focusing Mode 4
CALI            .in                                        :        (HDRS-H)                (1in)                   Caliper
GR              .gAPI                                      :        (EDTC-B)                (6in)                   Gamma Ray
MRES            .ohm.m                                     :        (HRLT-B)                (2in)                   Mud Resistivity
RLA2            .ohm.m                                     :        (HRLT-B)                (2in)                   Apparent Resistivity from Computed Focusing Mode 2
RLA5            .ohm.m                                     :        (HRLT-B)                (2in)                   Apparent Resistivity from Computed Focusing Mode 5
TENS            .lbf                                       :        (WLWorkflow)            (1in)                   Cable Tension
RT              .ohm.m                                     :        (HRLT-B)                (2in)                   True Resistivity
RXOZ            .ohm.m                                     :        (HDRS-H)                (2in)                   Invaded Formation Resistivity filtered at 18 inches
SP              .mV                                        :        (SPE-A)                 (6in)                   Spontaneous Potential
RLA3            .ohm.m                                     :        (HRLT-B)                (2in)                   Apparent Resistivity from Computed Focusing Mode 3
RHOZ            .g/cm3                                     :        (HDRS-H)                (2in)                   Standard Resolution Formation Density
PEFZ            .                                          :        (HDRS-H)                (2in)                   Standard Resolution Formation Photoelectric Factor
NPHI            .ft3/ft3                                   :        (HGNS-H)                (6in)                   Thermal Neutron Porosity (original Ratio Method) in Selected Lithology
DPHZ            .ft3/ft3                                   :        (HDRS-H)                (2in)                   Standard Resolution Density Porosity
HDRA            .g/cm3                                     :        (HDRS-H)                (2in)                   Density Standoff Correction
#-------------------------------------------------------------
#            DEPT         RLA4         CALI           GR         MRES         RLA2         RLA5         TENS           RT         RXOZ           SP         RLA3         RHOZ         PEFZ         NPHI         DPHZ         HDRA 
#                     (HRLT-B)     (HDRS-H)     (EDTC-B)     (HRLT-B)     (HRLT-B)     (HRLT-B)  (WLWorkflo)     (HRLT-B)     (HDRS-H)      (SPE-A)     (HRLT-B)     (HDRS-H)     (HDRS-H)     (HGNS-H)     (HDRS-H)     (HDRS-H) 
#                                                                                                                                                                                                                                 
#                        (2in)        (1in)        (6in)        (2in)        (2in)        (2in)        (1in)        (2in)        (2in)        (6in)        (2in)        (2in)        (2in)        (6in)        (2in)        (2in) 
~ASCII
# ...
       6914.00000      4.83123      8.67865    131.85590      0.20333      5.43721      4.48350   2550.99925      2.82022     11.62567   -265.10160      5.11697      2.46024      2.42020      0.19428      0.11501     -0.00434
       6914.50000      4.93648      8.67865    128.84930      0.20387      5.48775      4.60116   2506.50057      3.04073     11.63984   -264.16410      5.21249      2.44968      2.39409      0.19566      0.12141     -0.00720
       6915.00000      5.24769      8.67865    132.60110      0.20364      5.78353      4.89186   2521.00074      3.31753     11.12574   -264.56250      5.51840      2.45094      2.35595      0.18538      0.12064     -0.00649
       6915.50000      5.56480      8.65644    125.13650      0.20286      6.11348      5.16951   2536.00000      3.53198     11.84302   -264.67970      5.82328      2.45329      2.34926      0.18072      0.11922     -0.00639
       6916.00000      5.36531      8.67865    112.31720      0.20163      5.90239      4.99830   2562.99955      3.45123     12.76192   -265.09380      5.60455      2.45851      2.34199      0.18642      0.11606     -0.00478
       6916.50000      4.13233      8.67865     96.50987      0.20364      4.54952      3.84945   2465.00084      2.67090     11.64301   -265.49110      4.30157      2.44734      2.30270      0.19814      0.12283     -0.00468
       6917.00000      2.91058      8.65644     94.48035      0.20600      3.21138      2.71558   2472.99954      1.85838      8.19022   -266.14840      3.02623      2.42297      2.21715      0.19819      0.13760     -0.00473
       6917.50000      2.51756      8.65644     99.22155      0.20373      2.78093      2.34858   2449.99934      1.57917      7.28508   -266.96430      2.61559      2.39935      2.12628      0.20327      0.15191     -0.00340
       6918.00000      1.95081      8.67865     99.59752      0.20631      2.15241      1.82558   2454.99909      1.22396      5.49684   -268.08590      2.03086      2.37762      2.05906      0.21478      0.16508     -0.00209
       6918.50000      1.58578      8.72307     93.18177      0.20940      1.74739      1.48026   2523.99969      0.99297      4.64141   -268.76560      1.65094      2.35139      2.04502      0.23905      0.18098     -0.00176
       6919.00000      1.72529      8.73418     82.56424      0.20532      1.90592      1.61242   2499.99909      1.11663      3.90122   -268.75000      1.79798      2.31988      2.05456      0.24439      0.20008     -0.00389
       6919.50000      1.79374      8.72307     75.05025      0.20390      1.97989      1.67970   2458.00029      1.19118      3.80882   -268.85940      1.86562      2.30546      2.05693      0.24736      0.20881     -0.00506
       6920.00000      1.65372      8.65644     73.45580      0.20616      1.81890      1.55325   2471.00099      1.12404      3.77002   -268.69640      1.72131      2.29952      2.04997      0.23935      0.21241     -0.00699
       6920.50000      1.80476      8.65644     73.39513      0.20309      1.97405      1.70431   2465.00084      1.25855      3.83338   -268.42190      1.88575      2.30884      2.02430      0.25616      0.20677     -0.00660
       6921.00000      1.61231      8.65644     70.34893      0.20497      1.75244      1.53232   2523.50062      1.15741      3.78574   -268.79690      1.68679      2.31460      1.98889      0.24414      0.20327     -0.00585
       6921.50000      1.32379      8.65644     68.41963      0.21105      1.43708      1.26174   2559.00020      0.95581      3.51944   -269.28570      1.38472      2.31179      1.95866      0.25198      0.20498     -0.00604
       6922.00000      1.37748      8.63422     70.79790      0.20923      1.49888      1.31805   2506.99964      0.99777      3.30588   -268.62500      1.43817      2.30442      1.95480      0.23221      0.20944     -0.00688
       6922.50000      1.60901      8.63422     76.77837      0.20476      1.75661      1.53894   2533.00105      1.15848      3.52034   -267.75890      1.66850      2.29334      1.98467      0.23426      0.21616     -0.00948
       6923.00000      1.69433      8.63422     85.20208      0.20312      1.84709      1.62209   2517.99954      1.21999      3.83698   -267.97660      1.74843      2.29412      2.02867      0.22186      0.21568     -0.00833
       6923.50000      1.59755      8.63422     86.87330      0.20561      1.74723      1.53142   2413.49936      1.13308      3.69183   -267.67190      1.64935      2.29402      2.07966      0.23396      0.21575     -0.00586
       6924.00000      1.42399      8.65644     85.99921      0.20814      1.55407      1.36798   2465.00084      1.00811      3.59937   -267.75890      1.46432      2.29586      2.10810      0.24697      0.21463     -0.00297
       6924.50000      1.48582      8.70086     80.67318      0.20832      1.60109      1.43126   2458.49936      1.07302      3.54528   -267.91410      1.52169      2.30153      2.12681      0.26609      0.21119     -0.00165
       6925.00000      1.65656      8.67865     79.01067      0.20780      1.78361      1.59762   2437.00088      1.18693      3.79495   -268.05360      1.70056      2.31391      2.13808      0.26931      0.20369     -0.00177
       6925.50000      2.12783      8.63422     84.78438      0.20391      2.29150      2.05110   2533.99920      1.53563      4.30947   -267.98440      2.17833      2.32846      2.16458      0.24803      0.19487     -0.00377
       6926.00000      2.81854      8.61201     91.82043      0.20177      3.01897      2.72006   2595.99926      2.10336      5.06592   -268.06250      2.87836      2.35142      2.20467      0.22211      0.18096     -0.00546
       6926.50000      2.74112      8.58980     97.44476      0.20539      2.93203      2.64545   2512.99979      2.05779      5.86429   -267.81250      2.79865      2.37857      2.25165      0.19742      0.16451     -0.00718
       6927.00000      3.15709      8.58980    100.54150      0.20318      3.36885      3.05144   2456.99989      2.38219      6.71293   -267.38280      3.22674      2.40770      2.28872      0.19471      0.14685     -0.00518
       6927.50000      3.23671      8.58980    102.20930      0.20018      3.45958      3.12524   2436.00048      2.42784      7.11546   -267.82140      3.32034      2.42075      2.27451      0.20809      0.13894     -0.00203
       6928.00000      2.37308      8.56759     99.02711      0.20438      2.54772      2.28696   2503.00029      1.74456      5.89990   -267.60940      2.44712      2.40846      2.22439      0.22963      0.14639      0.00107
       6928.50000      1.84425      8.57869     89.34112      0.20629      2.00896      1.77650   2495.99974      1.31347      4.69199   -267.51790      1.91216      2.37531      2.17889      0.24531      0.16648      0.00118
       6929.00000      1.67319      8.56759     84.73162      0.20511      1.85819      1.60633   2478.99969      1.13612      4.10883   -267.78910      1.75135      2.34213      2.14765      0.25579      0.18659      0.00019
       6929.50000      1.48626      8.55648     88.80136      0.20520      1.66504      1.42216   2497.00014      0.96974      3.70014   -267.83930      1.56462      2.30721      2.15726      0.25879      0.20775     -0.00240
       6930.00000      1.45898      8.54537     94.63117      0.20498      1.65393      1.38708   2465.00084      0.90865      3.45622   -267.00780      1.54221      2.27352      2.18609      0.26322      0.22817     -0.00464
       6930.50000      1.45771      8.52316     98.78513      0.20509      1.66413      1.38088   2503.00029      0.89601      3.29974   -266.43750      1.54605      2.24712      2.22840      0.25660      0.24417     -0.00636
       6931.00000      1.46499      8.52316     96.07542      0.20828      1.66712      1.38233   2516.99914      0.89802      3.38736   -266.50890      1.55469      2.24948      2.23122      0.26718      0.24274     -0.00698
       6931.50000      1.64922      8.54537     97.03023      0.20806      1.86286      1.54132   2473.99994      0.98948      3.66092   -266.14060      1.74905      2.27869      2.20807      0.25544      0.22503     -0.00755
