~VERSION INFORMATION 
VERS  .    2.0                                     :CWLS Log ASCII Standard - VERSION 2.0
WRAP  .    NO                                      :One Line per Depth step
PROD  .    Schlumberger Technology Corp.           :LAS Producer
PROG  .    Horizon LASWriter 3.1.9755.0            :LAS Program name and version
SOURCE.    3A-Log[4]/Up                            :Run&Pass Information
CREA  .    10/30/2012                              :LAS Creation date {MM/DD/YYYY}
#--------------------------------------------------
~WELL INFORMATION 
#MNEM           .UNIT                      DATA            :DESCRIPTION
#----            ------          --------------            -----------------------------
STRT            .ft                  5150.00000            :START DEPTH
STOP            .ft                  7238.00000            :STOP DEPTH
STEP            .ft                         0.5            :STEP
NULL            .                       -999.25            :NULL VALUE
COMP            .                   ADM COMPANY            :COMPANY
WELL            .                Verification Well #2      :WELL NAME
FLD             .                       Wildcat            :FIELD NAME
RIGN            .                                          :Rig Name
RIGTYP          .                                          :Rig Type
SON             .                    C5FX-00022            :Service Order Number
SRVC            .                  Schlumberger            :SERVICE COMPANY
DATE            .                    10/30/2012            :LOG DATE(Composite Date for Composite LAP) (MM/DD/YYYY)
CLAB            .                       County:            :County Label
CNTY            .                         Macon            :COUNTY
SLAB            .                        State:            :State/Province Label
STAT            .                      Illinois            :STATE or PROVINCE
PROV            .                      Illinois            :STATE or PROVINCE
CTRY            .                                          :COUNTRY
CONT_REGION     .                    N. America            :Continent Region
SECT            .                            32            :Section
TOWN            .                      17 North            :Township
RANG            .                        3 East            :Range
API             .                  121152355200            :API NUMBER
UWI             .                                          :UNIQUE WELL ID
LUL             .                        Weston            :Logging Unit Location
LUN             .                          3149            :Logging Unit Number
LOC             .                Lat: 39.8922313 Long: -88.89244449:FIELD LOCATION
FL1             .                248' South and 233' East rom NW corner of the:Field Location Line 1
FL2             .                NW/4, of the NE/4, of the NW/4, of Section 32:Field Location Line 2
LATI            .deg                  39.892231            :LATITUDE
LONG            .deg                 -88.892444            :LONGITUDE
PDAT            .                            GL            :Local Permanent Datum
LMF             .                            KB            :Logging Measured From
APD             .ft                    17.00000            :Elevation of Depth Reference (LMF) Above Permanent Datum
EPD             .ft                   686.49998            :Elevation of Permanent Datum (PDAT) above Mean Sea Level
EKB             .ft                    17.00000            :Elevation of Kelly Bushing Above Permanent Datum
EDF             .ft                     -999.25            :Elevation of Drill Floor Above Permanent Datum
EGL             .ft                     0.00000            :Elevation of Ground Level Above Permanent Datum
ECF             .ft                     -999.25            :Elevation of Casing Flange above Permanent Datum
#--------------------------------------------------
~CURVE INFORMATION
#MNEM           .UNIT                  API CODE            :DESCRIPTION
#----            ------          --------------            -----------------------------
DEPT            .ft                                        :                                                        Depth Index
RLA4            .ohm.m                                     :        (HRLT-B)                (2in)                   Apparent Resistivity from Computed Focusing Mode 4
CALI            .in                                        :        (HDRS-H)                (1in)                   Caliper
GR              .gAPI                                      :        (EDTC-B)                (6in)                   Gamma Ray
MRES            .ohm.m                                     :        (HRLT-B)                (2in)                   Mud Resistivity
RLA2            .ohm.m                                     :        (HRLT-B)                (2in)                   Apparent Resistivity from Computed Focusing Mode 2
RLA5            .ohm.m                                     :        (HRLT-B)                (2in)                   Apparent Resistivity from Computed Focusing Mode 5
TENS            .lbf                                       :        (WLWorkflow)            (1in)                   Cable Tension
RT              .ohm.m                                     :        (HRLT-B)                (2in)                   True Resistivity
RXOZ            .ohm.m                                     :        (HDRS-H)                (2in)                   Invaded Formation Resistivity filtered at 18 inches
SP              .mV                                        :        (SPE-A)                 (6in)                   Spontaneous Potential
RLA3            .ohm.m                                     :        (HRLT-B)                (2in)                   Apparent Resistivity from Computed Focusing Mode 3
RHOZ            .g/cm3                                     :        (HDRS-H)                (2in)                   Standard Resolution Formation Density
PEFZ            .                                          :        (HDRS-H)                (2in)                   Standard Resolution Formation Photoelectric Factor
NPHI            .ft3/ft3                                   :        (HGNS-H)                (6in)                   Thermal Neutron Porosity (original Ratio Method) in Selected Lithology
DPHZ            .ft3/ft3                                   :        (HDRS-H)                (2in)                   Standard Resolution Density Porosity
HDRA            .g/cm3                                     :        (HDRS-H)                (2in)                   Density Standoff Correction
#-------------------------------------------------------------
#            DEPT         RLA4         CALI           GR         MRES         RLA2         RLA5         TENS           RT         RXOZ           SP         RLA3         RHOZ         PEFZ         NPHI         DPHZ         HDRA 
#                     (HRLT-B)     (HDRS-H)     (EDTC-B)     (HRLT-B)     (HRLT-B)     (HRLT-B)  (WLWorkflo)     (HRLT-B)     (HDRS-H)      (SPE-A)     (HRLT-B)     (HDRS-H)     (HDRS-H)     (HGNS-H)     (HDRS-H)     (HDRS-H) 
#                                                                                                                                                                                                                                 
#                        (2in)        (1in)        (6in)        (2in)        (2in)        (2in)        (1in)        (2in)        (2in)        (6in)        (2in)        (2in)        (2in)        (6in)        (2in)        (2in) 
~ASCII
# ...
       5690.00000     20.99907      8.67865    209.76800      0.21043     24.07273     19.48944   2094.50019     11.03663     37.16508   -261.15180     22.55460      2.56211      2.77799      0.14235      0.05327      0.00561
       5690.50000     31.91922      8.64533    166.14220      0.20913     36.97379     29.75468   2057.00003     17.93949     46.92393   -261.00000     34.19527      2.57128      2.71770      0.14660      0.04771      0.01933
       5691.00000     29.73100      8.63422    111.40940      0.20843     34.94302     27.86300   2080.00001     15.05698     56.41217   -261.57140     32.01319      2.56768      2.51971      0.13931      0.04989      0.01545
       5691.50000     35.53394      8.58980     68.74511      0.20680     41.77708     33.50219   2093.50001     17.96677     68.61461   -261.55470     38.16331      2.55852      2.21956      0.10601      0.05544      0.00752
       5692.00000     29.40962      8.54537     65.21785      0.20607     33.56342     28.11312   2133.00007     17.09500     40.34202   -261.17860     31.45919      2.53826      2.02293      0.08965      0.06772     -0.00563
       5692.50000     12.70615      8.52316     82.81039      0.20737     14.68159     12.16370   2124.49982      6.83262     30.32841   -260.98210     13.62419      2.52734      2.03010      0.10680      0.07434     -0.00695
       5693.00000     20.97762      8.54537    109.69550      0.20449     23.50343     20.13538   2083.00008     12.92391     29.42820   -261.26560     22.39387      2.53706      2.17212      0.12646      0.06845     -0.00623
       5693.50000     25.74545      8.58980    126.37330      0.20224     28.72761     25.39326   2093.99999     17.43378     45.28733   -260.39290     27.09968      2.56329      2.26447      0.14552      0.05255     -0.00300
       5694.00000     22.91745      8.56759    123.14190      0.20138     25.32568     22.66119   2024.00010     16.30040     57.33795   -259.46430     23.93521      2.57118      2.25508      0.13311      0.04777     -0.00076
       5694.50000     16.97277      8.58980    106.79790      0.19991     18.48598     16.87802   2059.00016     13.06850     42.55295   -259.52340     17.63262      2.55989      2.14929      0.14285      0.05461      0.00086
       5695.00000      6.89470      8.57869     76.72237      0.20331      7.44144      6.84542   2089.00001      5.40333     17.64952   -259.89290      7.10296      2.52231      2.06818      0.15663      0.07739     -0.00076
       5695.50000      4.70627      8.54537     53.13479      0.20525      5.04684      4.61665   2076.49996      3.59199     10.16320   -261.08930      4.82269      2.49714      1.95251      0.17264      0.09264     -0.00046
       5696.00000      4.38257      8.52316     33.67060      0.20358      4.67911      4.22173   2141.00012      3.28318      7.08909   -261.79690      4.47217      2.46382      1.86537      0.17209      0.11284     -0.00358
       5696.50000      4.15198      8.50095     27.10894      0.20371      4.38408      3.92713   2101.00009      3.15423      6.62877   -262.40180      4.21076      2.44865      1.79081      0.16088      0.12203     -0.00451
       5697.00000      3.91407      8.52316     25.64812      0.20526      4.09941      3.65147   2093.00004      3.01711      6.24473   -262.94640      3.95802      2.43702      1.75738      0.16064      0.12908     -0.00605
       5697.50000      3.64625      8.47874     23.50674      0.20730      3.78401      3.33941   2098.00001      2.84285      6.10978   -264.40630      3.66117      2.44037      1.73732      0.16402      0.12705     -0.00475
       5698.00000      3.35897      8.45652     21.49295      0.20981      3.44584      3.04145   2158.00017      2.63081      6.03981   -264.70540      3.37471      2.44890      1.70545      0.16603      0.12188     -0.00349
       5698.50000      3.11863      8.45652     21.49113      0.21256      3.17184      2.80093   2147.00004      2.43553      6.01134   -264.33930      3.16842      2.46226      1.68876      0.16126      0.11378     -0.00178
       5699.00000      3.33330      8.45652     21.07033      0.21264      3.35756      2.98066   2123.99984      2.62293      6.18631   -264.43750      3.40221      2.47158      1.68783      0.15103      0.10813     -0.00126
       5699.50000      3.22337      8.47874     22.13555      0.21463      3.24454      2.87067   2112.00021      2.52947      6.64514   -264.58930      3.27597      2.46988      1.70203      0.14697      0.10916     -0.00230
       5700.00000      2.94045      8.45652     24.19408      0.21763      2.98785      2.61759   2059.00016      2.28554      6.42936   -264.24220      2.98029      2.46654      1.70047      0.15094      0.11119     -0.00307
       5700.50000      3.03802      8.47874     25.16378      0.21748      3.09653      2.70986   2071.99996      2.38149      6.14578   -264.33930      3.06975      2.45676      1.68751      0.14867      0.11711     -0.00572
       5701.00000      3.23104      8.45652     25.78874      0.21624      3.31792      2.90171   2096.50009      2.52851      6.25302   -264.73210      3.27558      2.45447      1.67621      0.14546      0.11850     -0.00738
       5701.50000      3.29313      8.47874     23.95092      0.21643      3.39911      2.98888   2125.99997      2.53395      6.84555   -264.36720      3.34666      2.45867      1.67844      0.14017      0.11596     -0.00672
       5702.00000      2.70592      8.47874     23.52578      0.22421      2.82110      2.51037   2130.99994      2.08663      6.68116   -263.15180      2.74775      2.46273      1.70682      0.14202      0.11350     -0.00388
       5702.50000      3.03357      8.47874     24.79094      0.22486      3.17266      2.87710   2109.00014      2.39292      5.94860   -262.78570      3.06436      2.45468      1.73062      0.15200      0.11838     -0.00388
       5703.00000      4.62960      8.47874     26.24518      0.21672      4.86783      4.44867   2147.00004      3.64274      5.84051   -262.53130      4.68819      2.44460      1.75815      0.15677      0.12448     -0.00612
       5703.50000      5.45223      8.47874     29.55532      0.21634      5.78005      5.29008   2105.00011      4.20972      6.88371   -262.00890      5.54023      2.45338      1.76548      0.14806      0.11917     -0.00654
       5704.00000      5.77946      8.52316     30.30735      0.21809      6.14980      5.67375   2076.99993      4.52113      7.93617   -261.83590      5.88991      2.46823      1.76410      0.12712      0.11017     -0.00647
       5704.50000      6.21539      8.50095     38.93129      0.21899      6.63317      6.14808   2056.00008      4.94756      8.80769   -261.82140      6.32729      2.48790      1.76309      0.10975      0.09824     -0.00548
       5705.00000      7.90983      8.47874     59.94060      0.21663      8.45575      7.89922   2061.00006      6.41306     10.47516   -261.99110      8.07254      2.50934      1.80674      0.09712      0.08525     -0.00599
       5705.50000     14.99351      8.54537     82.65969      0.21303     15.84937     15.15278   2075.00003     12.82695     16.63178   -262.26560     15.37503      2.54211      1.93338      0.11388      0.06539     -0.00499
       5706.00000     20.36947      8.54537     85.68602      0.21177     22.05574     20.11757   2109.00014     15.62773     25.47996   -263.01790     21.10895      2.55721      2.09465      0.14926      0.05624     -0.00649
       5706.50000     24.29323      8.58980     70.44460      0.21087     26.89464     23.73946   2067.00021     17.09014     35.70647   -262.47320     25.39505      2.55275      2.15993      0.16053      0.05894     -0.00774
       5707.00000     18.01222      8.50095     61.90278      0.21053     20.33759     17.49707   2067.00021     11.27893     33.89950   -262.46090     19.04163      2.53008      2.12141      0.13957      0.07268     -0.00581
       5707.50000     18.21935      8.54537     72.14328      0.20916     20.83156     17.64156   2075.00003     11.19417     33.09848   -262.59820     19.42985      2.52223      2.07257      0.11480      0.07744     -0.00520
