~VERSION
 VERS.        2.00                                                                   :CWLS LOG ASCII STANDARD
 WRAP.        NO                                                                     :NO WRAP PERFORMED
 PROD.        Schlumberger                                                           :LAS Producer
 CREA.        11/5/2012                                         :LAS Creation Date and time
~Well
#MNEM.UNIT    VALUE                                                                   :DESCRIPTION
#----.----    ---------------                                                        :-------------------
 STRT.F       7170.000                                                               :START DEPTH
 STOP.F       5320.000                                                               :STOP  DEPTH
 STEP.F       -0.500                                                                 :DEPTH STEP
 NULL.        -999.250                                                               :NULL VALUE
 COMP.        ADM COMPANY                                       :COMPANY NAME
 WELL.        Verification Well #2                              :WELL NAME
 FLD.         Wildcat                                           :FIELD NAME
 API.         121152355200                                                           :API NUMBER
 CNTY.        Macon                                                                  :COUNTY
 STAT.        Illinois                                                               :STATE
 CTRY.        US                                                                     :COUNTRY
 LOC.         Lat: 39.8922313 Long: -88.8924449                                      :WELL SURFACE LOCATION LINE 1
 LOC2.        248' South and 233' East From NW corner of the                         :WELL SURFACE LOCATION LINE 2
 LOC3.        NW/4, of the NE/4, of the NW/4, of Section 32                          :WELL SURFACE LOCATION LINE 3
 SECT.        32                                                                     :SECTION
 TOWN.        17 North                                                               :TOWNSHIP
 RANG.        3 East                                                                 :RANGE
 LATI.        39.892231 degrees                                                      :Latitude
 LONG.        -88.892444 degrees                                                     :Longitude
 DATE.        2012/10/31                                                             :LOGGING DATE
 SRVC.        Schlumberger                                                           :SERVICE COMPANY
~Parameter
#MNEM.UNIT    VALUE                                                                  :DESCRIPTION
#----.----    ---------------                                                        :-------------------
 APD.F        17.000                                                                 :Elevation of depth reference above permanent datum
 EDF.F        -999.250                                                               :Elevation of Derrick Floor
 EGL.F        686.500                                                                :Elevation of Ground Level
 EKB.F        703.500                                                                :Elevation of Kelly Bushing
 EPD.F        686.500                                                                :Elevation of Permnaent Datum
 LMF.         Kelly Bushing                                                          :Logging Measured From
 PDAT.        Ground Level                                                           :Permanent Datum
 TDD.F        7225.000                                                               :Total Depth Driller
 TDL.F        7223.000                                                               :Total Depth Logger
 BS.IN        8.500                                                                  :Bit Size
 R1.                                                                                 :REMARK 1
 R2.                                                                                 :REMARK 2
 R3.                                                                                 :REMARK 3
 R4.                                                                                 :REMARK 4
 R5.                                                                                 :REMARK 5
 R6.                                                                                 :REMARK 6
 R7.                                                                                 :REMARK 7
 R8.                                                                                 :REMARK 8
 R9.                                                                                 :REMARK 9
 R10.                                                                                :REMARK 10
 DCS_CENTER.  Denver                                                                 :Schlumberger DCS Center
 LOG_ANALYST. Oliver                                                                 :Log Analyst Name
 ENG.         Beth DiBella                                                           :Field Engineer Name
 GF_BASELINE. 45                                                                     :GeoFrame Baseline
~Curve
#MNEM.UNIT                                                                           :DESCRIPTION
#----.----                                                                           :--------------------------------
 DEPT.F                                                                              :Depth Index
 GR.GAPI                                                                             : 1 Gamma Ray                                                                                 
 RHOZ.G/C3                                                                           : 2 HRDD Standard Resolution Formation Density                                                
 BS.IN                                                                               : 3 Bit Size                                                                                  
 P1AZ.DEG                                                                            : 4 Pad 1 Azimuth in Horizontal Plane (0 = True North)                                        
 SDEVM.DEG                                                                           : 5 Memorized Sonde Deviation                                                                 
 HAZIM.DEG                                                                           : 6 Memorized Hole Azimuth Relative to True North                                             
 RB.DEG                                                                              : 7 Relative Bearing                                                                          
 DEVI.DEG                                                                            : 8 Hole Deviation                                                                            
 HD1_PPC1.IN                                                                         : 9 PPC1 Hole Diameter 1                                                                      
 HD2_PPC1.IN                                                                         :10 PPC1 Hole Diameter 2                                                                      
 TENS.LBS                                                                            :11 Cable Tension                                                                             
 HDAR.IN                                                                             :12 Hole Diameter from Area                                                                   
 MINXENE_OVERALL.                                                                    :13 Overall estimate of minimum cross energy                                                  
 MAXXENE_OVERALL.                                                                    :14 Overall estimate of maximum cross energy                                                  
 FSH_AZIM_OVERALL_FILT.DEG                                                           :15 Overall estimate of fast shear azimuth filtered                                           
 FSH_AZIM_OVERALL.DEG                                                                :16 Overall estimate of fast shear azimuth                                                    
 FSH_AZIM_ERR.DEG                                                                    :17 Fast shear azimuth error                                                                  
 DTSM_SLOW.US/F                                                                      :18 Shear Slowness of Slow Shear Waves                                                        
 DTSM_FAST.US/F                                                                      :19 Shear Slowness of Fast Shear Waves                                                        
 DTCO.US/F                                                                           :20 Delta-T Compressional                                                                     
 SLOANI.                                                                             :21 Slowness based anisotropy                                                                 
 TIMANI.                                                                             :22 Time based anisotropy                                                                     
 TWE.US                                                                              :23 Time window end                                                                           
 TWB.US                                                                              :24 Time window begin                                                                         
~Ascii   DEPT            GR          RHOZ            BS          P1AZ         SDEVM         HAZIM            RB          DEVI      HD1_PPC1      HD2_PPC1          TENS          HDAR  MINXENE_OVER  MAXXENE_OVER  FSH_AZIM_OVE  FSH_AZIM_OVE  FSH_AZIM_ERR     DTSM_SLOW     DTSM_FAST          DTCO        SLOANI        TIMANI           TWE           TWB
# ...
    6560.50000      39.23527       2.48484      17.50000     262.73364       1.15816     280.49045     342.24658       1.18566       8.50632       8.45263    2889.25000       8.47947       0.64734       3.78508      67.58010      67.58010       5.25315     115.38562     112.50644      68.30688       2.52679       0.08449    4607.43457    2207.43457
    6560.00000      47.41177       2.50866      17.50000     264.16687       1.16017     280.73651     343.43359       1.18721       8.51653       8.46149    2788.00000       8.48901       0.64733       3.68648      67.64751      67.64751       5.30116     116.70021     113.41743      67.50206       2.85313       0.06235    4605.74756    2205.74756
    6559.50000      54.12158       2.52234      17.50000     265.71240       1.16223     280.99365     344.72174       1.18922       8.51750       8.43976    2708.00000       8.47863       0.64246       3.52687      67.47092      67.47092       5.18974     117.69402     113.92587      66.57858       3.25374       0.02350    4605.99805    2205.99829
    6559.00000      60.18646       2.51467      17.50000     266.94873       1.16441     281.22919     345.72238       1.19123       8.54030       8.45263    2640.75000       8.49646       0.64229       3.39242      67.40782      67.40782       5.10077     118.40701     114.53310      66.10429       3.32611       0.00151    4609.36768    2209.36768
    6558.50000      55.93634       2.50760      17.50000     268.14212       1.16675     281.46869     346.67609       1.19315       8.53936       8.46149    2662.75000       8.50042       0.64219       3.31554      67.63280      67.63280       5.05671     119.25288     115.58617      67.14575       3.12274       0.00142    4614.88867    2214.88867
    6558.00000      50.11943       2.47932      17.50000     269.94940       1.16928     281.69449     348.25729       1.19552       8.51750       8.45263    2742.25000       8.48506       0.62552       3.16927      67.82524      67.82524       4.91552     120.05032     116.38117      70.10654       3.10378       0.01099    4620.40918    2220.40967
    6557.50000      47.46403       2.44233      17.50000     271.07562       1.17203     281.89200     349.18582       1.19802       8.52867       8.45263    2668.75000       8.49065       0.59834       2.97625      67.95313      67.95313       4.69644     120.20792     116.41258      73.44157       3.20795       0.04848    4623.93750    2223.93774
    6557.00000      49.20713       2.41702      17.50000     272.18460       1.17500     282.09753     350.08911       1.20091       8.51794       8.46527    2780.25000       8.49161       0.56179       2.87986      68.06721      68.06721       4.19842     119.82564     116.05760      75.23598       3.19483       0.09137    4625.66357    2225.66357
    6556.50000      53.76716       2.43806      17.50000     273.24591       1.17821     282.26785     350.97995       1.20388       8.52913       8.47813    2848.00000       8.50363       0.54027       2.87878      68.31760      68.31760       3.85261     119.17464     116.08874      74.25698       2.62336       0.10998    4628.07471    2228.07471
    6556.00000      57.77715       2.47364      17.50000     274.51050       1.18166     282.42957     352.08258       1.20713       8.53673       8.48235    2759.50024       8.50954       0.54937       2.89171      68.58914      68.58914       3.89204     119.26849     116.68825      70.65373       2.18705       0.10661    4633.16406    2233.16382
    6555.50000      63.31979       2.48821      17.50000     276.39111       1.18534     282.57477     353.81766       1.21103       8.55937       8.49077    2713.00000       8.52507       0.57585       2.86677      68.57927      68.57927       4.24896     120.48055     117.66313      68.94595       2.36615       0.10314    4640.40967    2240.40967
    6555.00000      72.41753       2.47426      17.50000     277.67215       1.18924     282.69989     354.97333       1.21468       8.57380       8.51253    2697.50000       8.54317       0.60126       2.82886      68.43658      68.43658       4.69106     122.45271     119.33878      68.88407       2.57571       0.11446    4646.39941    2246.39941
    6554.50000      79.30294       2.47570      17.50000     279.00720       1.19337     282.82318     356.18484       1.21852       8.59690       8.53912    2690.50000       8.56801       0.61575       2.83551    -999.25000      68.55693       4.88991     124.27819     121.49167      68.74059       2.26759       0.13210    4647.56592    2247.56592
    6554.00000      70.70386       2.50419      17.50000     279.82660       1.19771     282.93536     356.89191       1.22253       8.59727       8.54904    2947.75024       8.57315       0.62853       2.84926    -999.25000      68.84952       5.03746     125.29828     123.08777      69.77772       1.77990       0.14089    4643.96582    2243.96558
    6553.50000      56.75345       2.53475      17.50000     281.11536       1.20224     283.04559     358.07016       1.22675       8.60778       8.51253    2819.50024       8.56015       0.63723       2.84193    -999.25000      69.06398       5.19781     125.54380     123.77298      72.37215       1.42054       0.13981    4638.65137    2238.65137
    6553.00000      54.03200       2.50307      17.50000     282.88135       1.20695     283.15601     359.72537       1.23114       8.62027       8.52911    2797.00000       8.57469       0.65973       2.82337    -999.25000      69.17822       5.48663     125.59475     124.11020      74.36423       1.18904       0.14939    4634.92578    2234.92578
    6552.50000      56.92423       2.44234      17.50000     284.50153       1.21178     283.26605       1.23519       1.23674       8.62027       8.51647    2726.50000       8.56837       0.68675       2.83761    -999.25000      69.23804       5.71429     125.73086     124.33360      75.36877       1.11752       0.16694    4634.23730    2234.23779
    6552.00000      58.46326       2.39041      17.50000     286.20340       1.21668     283.37943       2.82332       1.24148       8.60778       8.51253    2678.75000       8.56015       0.70077       2.87061    -999.25000      69.23447       5.69983     125.77001     124.22152      75.07088       1.23884       0.17035    4635.45605    2235.45654
    6551.50000      57.52832       2.39216      17.50000     287.90134       1.22156     283.48743       4.41292       1.24614       8.63089       8.51253    2728.50000       8.57171       0.71467       2.90579    -999.25000      69.22588       5.67126     125.50601     123.41420      73.90436       1.68071       0.16368    4636.91309    2236.91309
    6551.00000      49.88643       2.40652      17.50000     290.15421       1.22634     283.60495       6.54776       1.25070       8.63143       8.52911    2715.75000       8.58027       0.72596       2.92910    -999.25000      69.22709       5.63822     124.88017     122.52468      72.32059       1.90415       0.15737    4638.87305    2238.87305
    6550.50000      50.54206       2.41863      17.50000     294.52817       1.23090     283.73050      10.79522       1.25491       8.62027       8.51647    2690.75000       8.56837       0.74122       2.91495    -999.25000      68.79524       5.84873     124.56849     122.26119      70.74834       1.86955       0.15911    4642.64844    2242.64844
    6550.00000      52.01477       2.43075      17.50000     296.37711       1.23517     283.82977      12.54453       1.25874       8.62027       8.52911    2796.25000       8.57469       0.74866       2.94701    -999.25000      68.65242       5.77731     124.41389     122.10653      69.98450       1.87194       0.15882    4649.02051    2249.02051
    6549.50000      59.57995       2.45223      17.50000     297.96008       1.23907     283.93713      14.01980       1.26195       8.63143       8.52911    2745.00000       8.58027       0.75416       3.02767    -999.25000      69.24676       5.40642     124.49863     121.79433      70.53494       2.19600       0.14334    4657.47510    2257.47510
