~VERSION
 VERS.        2.00                                                                   :CWLS LOG ASCII STANDARD
 WRAP.        NO                                                                     :NO WRAP PERFORMED
 PROD.        Schlumberger                                                           :LAS Producer
 CREA.        Fri Nov 16 12:50:33 2012                                               :LAS Creation Date and time
~Well
#MNEM.UNIT    VALUE                                                                   :DESCRIPTION
#----.----    ---------------                                                        :-------------------
 STRT.F       5331.500                                                               :START DEPTH
 STOP.F       350.000                                                                :STOP  DEPTH
 STEP.F       -0.500                                                                 :DEPTH STEP
 NULL.        -999.250                                                               :NULL VALUE
 COMP.        ADM                                                                    :COMPANY NAME
 WELL.        Verification Well #2                                                   :WELL NAME
 FLD.         Wildcat                                                                :FIELD NAME
 API.         12115235520000                                                         :API NUMBER
 CNTY.        Macon                                                                  :COUNTY
 STAT.        Illinois                                                               :STATE
 CTRY.        US                                                                     :COUNTRY
 LOC.         Long:-88.8924449, Lat: 39.8922313                                      :WELL SURFACE LOCATION LINE 1
 LOC2.        248' South and 233' East from the NW corner of the                     :WELL SURFACE LOCATION LINE 2
 LOC3.        NW/4, of the NE/4, of the NW/4, of Section 32                          :WELL SURFACE LOCATION LINE 3
 SECT.        32                                                                     :SECTION
 TOWN.        17 North                                                               :TOWNSHIP
 RANG.        3 East                                                                 :RANGE
 LATI.        39.892232 degrees                                                      :Latitude
 LONG.        -88.892445 degrees                                                     :Longitude
 DATE.        2012/10/08                                                             :LOGGING DATE
 SRVC.        Schlumberger                                                           :SERVICE COMPANY
~Parameter
#MNEM.UNIT    VALUE                                                                  :DESCRIPTION
#----.----    ---------------                                                        :-------------------
 APD.F        17.000                                                                 :Elevation of depth reference above permanent datum
 EDF.F        703.500                                                                :Elevation of Derrick Floor
 EGL.F        686.500                                                                :Elevation of Ground Level
 EKB.F        703.500                                                                :Elevation of Kelly Bushing
 EPD.F        686.500                                                                :Elevation of Permnaent Datum
 LMF.         KB                                                                     :Logging Measured From
 PDAT.        Ground level                                                           :Permanent Datum
 TDD.F        5316.000                                                               :Total Depth Driller
 TDL.F        5316.000                                                               :Total Depth Logger
 BS.IN        12.250                                                                 :Bit Size
 R1.                                                                                 :REMARK 1
 R2.                                                                                 :REMARK 2
 R3.                                                                                 :REMARK 3
 R4.                                                                                 :REMARK 4
 R5.                                                                                 :REMARK 5
 R6.                                                                                 :REMARK 6
 R7.                                                                                 :REMARK 7
 R8.                                                                                 :REMARK 8
 R9.                                                                                 :REMARK 9
 R10.                                                                                :REMARK 10
 DCS_CENTER.  Denver DCS                                                             :Schlumberger DCS Center
 LOG_ANALYST. Roberts                                                                :Log Analyst Name
 ENG.         Kevin Ryan                                                             :Field Engineer Name
 GF_BASELINE. GF45                                                                   :GeoFrame Baseline
~Curve
#MNEM.UNIT                                                                           :DESCRIPTION
#----.----                                                                           :--------------------------------
 DEPT.F                                                                              :Depth Index
 GR.GAPI                                                                             : 1 Gamma Ray                                                                                 
 RHOZ.G/C3                                                                           : 2 HRDD Standard Resolution Formation Density                                                
 BS.IN                                                                               : 3 Bit Size                                                                                  
 P1AZ.DEG                                                                            : 4 Pad 1 Azimuth in Horizontal Plane (0 = True North)                                        
 SDEVM.DEG                                                                           : 5 Memorized Sonde Deviation                                                                 
 HAZIM.DEG                                                                           : 6 Memorized Hole Azimuth Relative to True North                                             
 RB.DEG                                                                              : 7 Relative Bearing                                                                          
 DEVI.DEG                                                                            : 8 Hole Deviation                                                                            
 HD1_PPC1.IN                                                                         : 9 PPC1 Hole Diameter 1                                                                      
 HD2_PPC1.IN                                                                         :10 PPC1 Hole Diameter 2                                                                      
 TENS.LBS                                                                            :11 Cable Tension                                                                             
 HDAR.IN                                                                             :12 Hole Diameter from Area                                                                   
 MINXENE_OVERALL.                                                                    :13 Overall estimate of minimum cross energy                                                  
 MAXXENE_OVERALL.                                                                    :14 Overall estimate of maximum cross energy                                                  
 FSH_AZIM_OVERALL_FILT.DEG                                                           :15 Overall estimate of fast shear azimuth filtered                                           
 FSH_AZIM_OVERALL.DEG                                                                :16 Overall estimate of fast shear azimuth                                                    
 FSH_AZIM_ERR.DEG                                                                    :17 Fast shear azimuth error                                                                  
 DTSM_SLOW.US/F                                                                      :18 Shear Slowness of Slow Shear Waves                                                        
 DTSM_FAST.US/F                                                                      :19 Shear Slowness of Fast Shear Waves                                                        
 DTCO.US/F                                                                           :20 Delta-T Compressional                                                                     
 SLOANI.                                                                             :21 Slowness based anisotropy                                                                 
 TIMANI.                                                                             :22 Time based anisotropy                                                                     
 TWE.US                                                                              :23 Time window end                                                                           
 TWB.US                                                                              :24 Time window begin                                                                         
 FLAG.                                                                               :25 Shear Flag                                                                    
 FLAG.                                                                               :26 Bad Hole Flag                                                                    
~Ascii   DEPT            GR          RHOZ            BS          P1AZ         SDEVM         HAZIM            RB          DEVI      HD1_PPC1      HD2_PPC1          TENS          HDAR  MINXENE_OVER  MAXXENE_OVER  FSH_AZIM_OVE  FSH_AZIM_OVE  FSH_AZIM_ERR     DTSM_SLOW     DTSM_FAST          DTCO        SLOANI        TIMANI           TWE           TWB          FLAG          FLAG
# ...
    1349.50000      51.78522       2.76491      12.25000      84.50219       0.60460     234.38515     210.11565       0.56816      12.54485      12.61264    1553.33325      12.57875       0.90842       1.66657    -999.25000      76.27556       6.82339      97.17355      95.56708      48.65257       1.66698       0.38642    4921.94531    1921.94531    -999.25000    -999.25000
    1349.00000      51.98760       2.76570      12.25000      83.80657       0.59882     234.66103     209.14421       0.56356      12.54716      12.61210    1687.50000      12.57963       0.91674       1.65747    -999.25000      76.71657       6.82491      96.40713      96.09775      49.09813       0.32143       0.44627    4919.31299    1919.31299    -999.25000    -999.25000
    1348.50000      45.79857       2.74941      12.25000      84.56109       0.59419     234.99953     209.56024       0.55997      12.55567      12.60068    1614.25000      12.57817       0.92624       1.63814    -999.25000      76.21752       7.15355      96.47449      95.72379      49.32545       0.78118       0.45225    4918.43652    1918.43677    -999.25000    -999.25000
    1348.00000      39.18330       2.72934      12.25000      84.03715       0.59074     235.39383     208.64203       0.55672      12.55647      12.57677    1528.33325      12.56662       0.93436       1.59785    -999.25000      75.81271       7.71236      95.90245      95.58167      49.46852       0.33505       0.43301    4919.14355    1919.14355    -999.25000    -999.25000
    1347.50000      34.18727       2.72961      12.25000      83.97303       0.58844     235.82347     208.14832       0.55520      12.54716      12.60013    1771.50012      12.57364       0.94057       1.56210    -999.25000      75.55702       8.48688      95.32033      95.61012      49.56388      -0.30356       0.43619    4921.19922    1921.19922    -999.25000    -999.25000
    1347.00000      33.60523       2.72075      12.25000      85.92152       0.58722     236.27165     209.64857       0.55505      12.54485      12.58874    1595.33337      12.56680       0.94580       1.53375    -999.25000      75.21361       9.22076      94.76821      94.42406      49.46219       0.36381       0.45040    4924.15186    1924.15198    -999.25000    -999.25000
    1346.50000      32.50320       2.71959      12.25000      86.36253       0.58694     236.70638     209.65486       0.55635      12.54580      12.59190    1533.68738      12.56885       0.95254       1.51405    -999.25000      74.75339      10.05680      94.67715      94.51259      48.98920       0.17396       0.43371    4927.47559    1927.47583    -999.25000    -999.25000
    1346.00000      34.77095       2.72740      12.25000      86.35737       0.58744     237.10075     209.25533       0.55790      12.54794      12.60581    1548.29541      12.57688       0.96435       1.48798    -999.25000      74.07817      10.70546      95.26530      95.77332      48.44540      -0.53185       0.42290    4930.94629    1930.94653    -999.25000    -999.25000
    1345.50000      37.19206       2.75479      12.25000      85.56928       0.58853     237.42900     208.13902       0.55965      12.55103      12.59386    1608.29102      12.57245       0.97967       1.46096    -999.25000      73.24471      11.49642      96.22462      96.70416      48.28498      -0.49711       0.40400    4933.96875    1933.96851    -999.25000    -999.25000
    1345.00000      41.20604       2.76748      12.25000      84.86195       0.59003     237.66878     207.19194       0.56235      12.54485      12.60070    1743.80066      12.57278       0.99135       1.45579    -999.25000      72.54459      12.42926      97.04665      96.74847      48.57577       0.30772       0.38065    4935.83691    1935.83691    -999.25000    -999.25000
    1344.50000      43.36139       2.76616      12.25000      86.86241       0.59174     237.81050     209.05061       0.56568      12.54485      12.59215    1580.54944      12.56850       0.99978       1.46276    -999.25000      72.12733      12.96058      97.74933      97.47794      49.46538       0.27803       0.37562    4937.11719    1937.11743    -999.25000    -999.25000
    1344.00000      39.09103       2.75237      12.25000      87.16168       0.59353     237.84729     209.31308       0.56778      12.54683      12.60877    1621.56409      12.57780       1.01346       1.45100    -999.25000      71.68256      13.14002      99.07098      98.54063      50.50314       0.53676       0.38302    4939.28223    1939.28198    -999.25000    -999.25000
    1343.50000      34.15300       2.75293      12.25000      87.20401       0.59529     237.78331     209.41937       0.56925      12.56618      12.61264    1602.66675      12.58941       1.03565       1.41967    -999.25000      70.99237      13.81040     101.13374     100.52145      51.34866       0.60726       0.37658    4943.07715    1943.07715    -999.25000    -999.25000
    1343.00000      34.50177       2.74405      12.25000      87.72506       0.59699     237.63237     210.09134       0.57045      12.56618      12.58874    1632.25000      12.57746       1.05872       1.40116    -999.25000      70.44028      15.30932     102.09119     101.14101      52.05580       0.93507       0.34855    4947.79590    1947.79565    -999.25000    -999.25000
    1342.50000      37.66373       2.73678      12.25000      87.84373       0.59863     237.41434     210.42804       0.57167      12.55567      12.61264    1597.00000      12.58415       1.07510       1.40132    -999.25000      70.04468      16.53996     102.44463     101.58249      52.62099       0.84512       0.32935    4952.36035    1952.36084    -999.25000    -999.25000
    1342.00000      42.62555       2.73410      12.25000      87.63664       0.60024     237.14655     210.48872       0.57250      12.55567      12.60070    1501.33337      12.57818       1.08374       1.39033    -999.25000      69.24367      16.87933     102.50353     101.84314      52.75682       0.64635       0.33522    4956.27246    1956.27246    -999.25000    -999.25000
    1341.50000      47.86548       2.74126      12.25000      87.33431       0.60187     236.84631     210.48662       0.57383      12.54485      12.60070    1564.00000      12.57278       1.08899       1.36982    -999.25000      67.61325      17.21453     101.93579     102.10920      52.56850      -0.16997       0.33684    4960.07520    1960.07544    -999.25000    -999.25000
    1341.00000      53.76434       2.73536      12.25000      87.52454       0.60358     236.53125     210.99190       0.57541      12.55567      12.60070    1589.33337      12.57818       1.08835       1.35465    -999.25000      65.58952      17.86467     101.38596     102.02656      52.24274      -0.62985       0.31949    4964.08838    1964.08813    -999.25000    -999.25000
    1340.50000      58.88648       2.71513      12.25000      88.64585       0.60541     236.20448     212.43991       0.57745      12.54485      12.58874    1526.75000      12.56680       1.08219       1.34422    -999.25000      63.95268      18.63667     101.80181     101.67822      52.05365       0.12148       0.28913    4966.89795    1966.89771    -999.25000    -999.25000
    1340.00000      56.05411       2.70350      12.25000      90.01644       0.60736     235.86775     214.14720       0.57998      12.54716      12.58817    1590.75000      12.56767       1.07575       1.33646    -999.25000      62.48337      19.19778     101.88773     101.57175      51.91753       0.31061       0.26241    4967.65479    1967.65454    -999.25000    -999.25000
    1339.50000      52.38738       2.72469      12.25000      91.37785       0.60940     235.52097     215.85535       0.58331      12.55567      12.58874    1609.66675      12.57220       1.07019       1.33327    -999.25000      60.89946      19.58212     101.72614     101.58225      51.66563       0.14155       0.24426    4967.17969    1967.17969    -999.25000    -999.25000
    1339.00000      44.16085       2.73496      12.25000      92.53230       0.61147     235.16525     217.36548       0.58657      12.54790      12.58829    1571.65125      12.56809       1.06452       1.33569    -999.25000      59.36830      20.03822     101.31705     101.70970      51.32166      -0.38680       0.22129    4966.14063    1966.14063    -999.25000    -999.25000
