~VERSION INFORMATION 
VERS  .    2.0                                     :CWLS Log ASCII Standard - VERSION 2.0
WRAP  .    NO                                      :One Line per Depth step
PROD  .    Schlumberger Technology Corp.           :LAS Producer
PROG  .    Horizon LASWriter 3.1.9755.0            :LAS Program name and version
SOURCE.    3A-Log[4]/Up                            :Run&Pass Information
CREA  .    10/30/2012                              :LAS Creation date {MM/DD/YYYY}
#--------------------------------------------------
~WELL INFORMATION 
#MNEM           .UNIT                      DATA            :DESCRIPTION
#----            ------          --------------            -----------------------------
STRT            .ft                  5150.00000            :START DEPTH
STOP            .ft                  7238.00000            :STOP DEPTH
STEP            .ft                         0.5            :STEP
NULL            .                       -999.25            :NULL VALUE
COMP            .                   ADM COMPANY            :COMPANY
WELL            .                Verification Well #2      :WELL NAME
FLD             .                       Wildcat            :FIELD NAME
RIGN            .                                          :Rig Name
RIGTYP          .                                          :Rig Type
SON             .                    C5FX-00022            :Service Order Number
SRVC            .                  Schlumberger            :SERVICE COMPANY
DATE            .                    10/30/2012            :LOG DATE(Composite Date for Composite LAP) (MM/DD/YYYY)
CLAB            .                       County:            :County Label
CNTY            .                         Macon            :COUNTY
SLAB            .                        State:            :State/Province Label
STAT            .                      Illinois            :STATE or PROVINCE
PROV            .                      Illinois            :STATE or PROVINCE
CTRY            .                                          :COUNTRY
CONT_REGION     .                    N. America            :Continent Region
SECT            .                            32            :Section
TOWN            .                      17 North            :Township
RANG            .                        3 East            :Range
API             .                  121152355200            :API NUMBER
UWI             .                                          :UNIQUE WELL ID
LUL             .                        Weston            :Logging Unit Location
LUN             .                          3149            :Logging Unit Number
LOC             .                Lat: 39.8922313 Long: -88.89244449:FIELD LOCATION
FL1             .                248' South and 233' East rom NW corner of the:Field Location Line 1
FL2             .                NW/4, of the NE/4, of the NW/4, of Section 32:Field Location Line 2
LATI            .deg                  39.892231            :LATITUDE
LONG            .deg                 -88.892444            :LONGITUDE
PDAT            .                            GL            :Local Permanent Datum
LMF             .                            KB            :Logging Measured From
APD             .ft                    17.00000            :Elevation of Depth Reference (LMF) Above Permanent Datum
EPD             .ft                   686.49998            :Elevation of Permanent Datum (PDAT) above Mean Sea Level
EKB             .ft                    17.00000            :Elevation of Kelly Bushing Above Permanent Datum
EDF             .ft                     -999.25            :Elevation of Drill Floor Above Permanent Datum
EGL             .ft                     0.00000            :Elevation of Ground Level Above Permanent Datum
ECF             .ft                     -999.25            :Elevation of Casing Flange above Permanent Datum
#--------------------------------------------------
~CURVE INFORMATION
#MNEM           .UNIT                  API CODE            :DESCRIPTION
#----            ------          --------------            -----------------------------
DEPT            .ft                                        :                                                        Depth Index
RLA4            .ohm.m                                     :        (HRLT-B)                (2in)                   Apparent Resistivity from Computed Focusing Mode 4
CALI            .in                                        :        (HDRS-H)                (1in)                   Caliper
GR              .gAPI                                      :        (EDTC-B)                (6in)                   Gamma Ray
MRES            .ohm.m                                     :        (HRLT-B)                (2in)                   Mud Resistivity
RLA2            .ohm.m                                     :        (HRLT-B)                (2in)                   Apparent Resistivity from Computed Focusing Mode 2
RLA5            .ohm.m                                     :        (HRLT-B)                (2in)                   Apparent Resistivity from Computed Focusing Mode 5
TENS            .lbf                                       :        (WLWorkflow)            (1in)                   Cable Tension
RT              .ohm.m                                     :        (HRLT-B)                (2in)                   True Resistivity
RXOZ            .ohm.m                                     :        (HDRS-H)                (2in)                   Invaded Formation Resistivity filtered at 18 inches
SP              .mV                                        :        (SPE-A)                 (6in)                   Spontaneous Potential
RLA3            .ohm.m                                     :        (HRLT-B)                (2in)                   Apparent Resistivity from Computed Focusing Mode 3
RHOZ            .g/cm3                                     :        (HDRS-H)                (2in)                   Standard Resolution Formation Density
PEFZ            .                                          :        (HDRS-H)                (2in)                   Standard Resolution Formation Photoelectric Factor
NPHI            .ft3/ft3                                   :        (HGNS-H)                (6in)                   Thermal Neutron Porosity (original Ratio Method) in Selected Lithology
DPHZ            .ft3/ft3                                   :        (HDRS-H)                (2in)                   Standard Resolution Density Porosity
HDRA            .g/cm3                                     :        (HDRS-H)                (2in)                   Density Standoff Correction
#-------------------------------------------------------------
#            DEPT         RLA4         CALI           GR         MRES         RLA2         RLA5         TENS           RT         RXOZ           SP         RLA3         RHOZ         PEFZ         NPHI         DPHZ         HDRA 
#                     (HRLT-B)     (HDRS-H)     (EDTC-B)     (HRLT-B)     (HRLT-B)     (HRLT-B)  (WLWorkflo)     (HRLT-B)     (HDRS-H)      (SPE-A)     (HRLT-B)     (HDRS-H)     (HDRS-H)     (HGNS-H)     (HDRS-H)     (HDRS-H) 
#                                                                                                                                                                                                                                 
#                        (2in)        (1in)        (6in)        (2in)        (2in)        (2in)        (1in)        (2in)        (2in)        (6in)        (2in)        (2in)        (2in)        (6in)        (2in)        (2in) 
~ASCII
# ...
       7184.00000  21968.04000      8.41210      -999.25      0.18897  13189.18000  21402.07000   2582.00040  30151.38000   3020.63900   -218.07810  17970.90000      2.97478      4.90006      0.07876     -0.19684     -0.00357
       7184.50000  31285.43000      8.45652      -999.25      0.18974  18564.21000  31864.92000   2624.99961  40170.32000   2767.56300   -218.98440  27111.14000      2.96974      4.85018      0.07745     -0.19378     -0.00307
       7185.00000  49432.56000      8.45652      -999.25      0.19012  25588.40000  49395.96000   2656.99891  65257.50000   2803.73400   -219.12500  40284.22000      2.96169      4.83103      0.07784     -0.18890     -0.00075
       7185.50000  38419.27000      8.45652      -999.25      0.18971  28356.94000  38128.76000   2588.00055  46619.17000   4354.64600   -217.06940  35353.24000      2.96647      4.81096      0.07929     -0.19180      0.00355
       7186.00000  10914.91000      8.41210      -999.25      0.18908   9224.95200  11446.14000   2531.00025  12906.53000   4641.85700   -218.10940  11104.57000      2.97422      4.80318      0.08000     -0.19650      0.00394
       7186.50000   6028.15100      8.38989      -999.25      0.18803   5921.50300   6346.84300   2566.00075   6453.94200   3570.24600   -219.45310   6208.27900      2.97933      4.82551      0.07932     -0.19959      0.00012
       7187.00000   7460.85200      8.36767      -999.25      0.18740   7145.93100   7899.25600   2590.99950   8418.47800   3247.23300   -219.71880   7749.03400      2.99449      4.81390      -999.25     -0.20878      0.00028
       7187.50000  12869.40000      8.37878      -999.25      0.18702  10603.27000  13331.47000   2629.00121  16525.77000   2894.54400   -220.97660  12660.08000      3.00099      4.77397      -999.25     -0.21272      0.00316
       7188.00000  11646.70000      8.36767      -999.25      0.18709   9680.55200  12058.93000   2677.00017  14706.46000   2788.17400   -222.98440  11410.71000      2.99919      4.76896      -999.25     -0.21163      0.00340
       7188.50000   8555.30700      8.35657      -999.25      0.18782   7497.92000   8658.31300   2685.50019   9942.87000   2951.89700   -224.84030   8398.13600      2.99241      4.79292      -999.25     -0.20752     -0.00101
       7189.00000  10851.21000      8.38989      -999.25      0.18844   8556.31900  10591.26000   2579.99960  13587.63000   3588.12700   -225.70310  10708.76000      2.98724      4.89873      -999.25     -0.20439      0.00257
       7189.50000  16905.95000      8.41210      -999.25      0.18943   9706.79000  11808.31000   2543.00055  18450.71000   4588.03700   -224.57030  22714.86000      2.98569      4.97328      -999.25     -0.20345      0.00439
       7190.00000  17979.93000      8.41210      -999.25      0.18948  12104.31000  16601.52000   2607.99956  22900.71000   4555.98400   -224.63280  14190.90000      2.97644      5.02260      -999.25     -0.19784      0.00750
       7190.50000  24031.26000      8.38989      -999.25      0.18847  18920.82000  23052.84000   2575.49893  28363.00000   4411.45700   -225.01560  20428.13000      2.98507      5.00617      -999.25     -0.20307      0.00928
       7191.00000  12019.01000      8.38989      -999.25      0.18739   9609.25300  11598.31000   2613.50063  13608.63000    350.66750   -224.79690  11606.42000      3.00871      5.05512      -999.25     -0.21740      0.02360
       7191.50000   2655.01000      8.36767      -999.25      0.18717   2803.01000   2568.92700   2598.00005   2384.05200    176.01360   -223.57030   2778.24400      3.01283      5.08475      -999.25     -0.21989      0.02586
       7192.00000   2064.27300      8.42320      -999.25      0.18657   2205.29900   1989.36900   2584.99935   1783.86500    166.34520   -222.55470   2179.89700      2.98452      5.17126      -999.25     -0.20274      0.01691
       7192.50000   2018.78900      8.43431      -999.25      0.18628   2153.22300   1947.46700   2655.00036   1742.09400    733.75660   -221.53130   2129.81400      2.95582      5.09723      -999.25     -0.18535      0.00109
       7193.00000   2014.05300      8.38989      -999.25      0.18570   2158.36700   1944.50100   2555.00085   1722.51600    643.89530   -220.24220   2116.63300      2.94216      5.06440      -999.25     -0.17707     -0.00397
       7193.50000   2014.63300      8.36767      -999.25      0.18461   2171.27900   1940.53000   2548.00030   1708.18400    616.10130   -219.30360   2118.84600      2.93889      4.98311      -999.25     -0.17508      0.00156
       7194.00000   2003.16100      8.38989      -999.25      0.18376   2137.18500   1930.76800   2601.99941   1733.21400    267.85480   -218.75780   2100.32500      2.93932      5.04791      -999.25     -0.17534      0.02907
       7194.50000   2000.37000      8.34546      -999.25      0.18336   2127.98500   1931.99700   2560.00060   1740.24400     78.48494   -217.75000   2106.64800      2.94256      5.10743      -999.25     -0.17731      0.05395
       7195.00000   1995.37000      8.30104      -999.25      0.18275   2120.67200   1924.09200   2602.99981   1736.32700     75.85125   -217.77340   2103.41200      2.94074      5.15766      -999.25     -0.17620      0.05577
       7195.50000   1989.75500      8.33435      -999.25      0.18242   2119.16500   1920.77600   2630.99976   1741.52100     94.98457   -217.09380   2096.98500      2.92599      5.13374      -999.25     -0.16726      0.02953
       7196.00000   1972.65900      8.33065      -999.25      0.18292   2091.10300   1907.90000   2653.50089   1748.50800    499.62890   -217.24220   2066.42700      2.90668      5.16673      -999.25     -0.15556      0.00228
       7196.50000   1972.19200      8.32325      -999.25      0.18324   2088.73500   1903.45800   2626.49908   1734.19700    250.16280   -217.57810   2073.63600      2.91177      5.14431      -999.25     -0.15865     -0.00354
       7197.00000   1972.78400      8.34546      -999.25      0.18321   2098.43300   1902.52300   2545.99950   1719.16200    223.41740   -217.95310   2080.94100      2.90453      5.03455      -999.25     -0.15426     -0.00428
       7197.50000   1971.31500      8.35657      -999.25      0.18325   2082.61300   1903.62800   2578.99920   1743.89400    192.41680   -217.93750   2081.60900      2.87040      4.73779      -999.25     -0.13358     -0.00230
       7198.00000   1969.12400      8.33435      -999.25      0.18304   2088.93200   1901.97800   2606.00101   1730.23400    304.29840   -218.76560   2075.31900      2.79958      4.34421      -999.25     -0.09066     -0.00184
       7198.50000   1966.37800      8.32325      -999.25      0.18261   2106.29400   1901.81100   2574.99985   1706.09700    608.45210   -218.69530   2069.97100      2.72714      3.98819      -999.25     -0.04675      0.00763
       7199.00000   1965.10900      8.32325      -999.25      0.18266   2088.00900   1899.13400   2600.99901   1723.87100   1826.90200   -218.96090   2077.42600      2.70880      3.81757      -999.25     -0.03564      0.02574
       7199.50000   1963.83700      8.33065      -999.25      0.18298   2101.08800   1896.69100   2613.99971   1704.62400   1423.41200   -219.78130   2065.80200      2.74511      3.99648      -999.25     -0.05764      0.04017
       7200.00000   1965.80300      8.35287      -999.25      0.18339   2067.80600   1898.41600   2629.00121   1739.71300   1257.13400   -221.45830   2065.34900      2.80847      4.53880      -999.25     -0.09604      0.02805
       7200.50000   1968.05300      8.33806      -999.25      0.18400   2108.75700   1898.31900   2694.00022   1692.28700   1124.07000   -219.69530   2075.22100      2.87816      5.07693      -999.25     -0.13828      0.01023
       7201.00000   1968.23000      8.36767      -999.25      0.18453   2093.69800   1900.39100   2617.00091   1706.90600    473.51380   -217.57640   2071.99000      2.92388      5.34986      -999.25     -0.16599     -0.00591
       7201.50000   1970.04700      8.38989      -999.25      0.18489   2111.66400   1901.93800   2516.00099   1687.79200    158.77430   -216.09030   2072.38900      2.94678      5.24939      -999.25     -0.17987     -0.00188
