~VERSION
 VERS.        2.00                                                                   :CWLS LOG ASCII STANDARD
 WRAP.        NO                                                                     :NO WRAP PERFORMED
 PROD.        Schlumberger                                                           :LAS Producer
 CREA.        11/5/2012                                         :LAS Creation Date and time
~Well
#MNEM.UNIT    VALUE                                                                   :DESCRIPTION
#----.----    ---------------                                                        :-------------------
 STRT.F       7170.000                                                               :START DEPTH
 STOP.F       5320.000                                                               :STOP  DEPTH
 STEP.F       -0.500                                                                 :DEPTH STEP
 NULL.        -999.250                                                               :NULL VALUE
 COMP.        ADM COMPANY                                       :COMPANY NAME
 WELL.        Verification Well #2                              :WELL NAME
 FLD.         Wildcat                                           :FIELD NAME
 API.         121152355200                                                           :API NUMBER
 CNTY.        Macon                                                                  :COUNTY
 STAT.        Illinois                                                               :STATE
 CTRY.        US                                                                     :COUNTRY
 LOC.         Lat: 39.8922313 Long: -88.8924449                                      :WELL SURFACE LOCATION LINE 1
 LOC2.        248' South and 233' East From NW corner of the                         :WELL SURFACE LOCATION LINE 2
 LOC3.        NW/4, of the NE/4, of the NW/4, of Section 32                          :WELL SURFACE LOCATION LINE 3
 SECT.        32                                                                     :SECTION
 TOWN.        17 North                                                               :TOWNSHIP
 RANG.        3 East                                                                 :RANGE
 LATI.        39.892231 degrees                                                      :Latitude
 LONG.        -88.892444 degrees                                                     :Longitude
 DATE.        2012/10/31                                                             :LOGGING DATE
 SRVC.        Schlumberger                                                           :SERVICE COMPANY
~Parameter
#MNEM.UNIT    VALUE                                                                  :DESCRIPTION
#----.----    ---------------                                                        :-------------------
 APD.F        17.000                                                                 :Elevation of depth reference above permanent datum
 EDF.F        -999.250                                                               :Elevation of Derrick Floor
 EGL.F        686.500                                                                :Elevation of Ground Level
 EKB.F        703.500                                                                :Elevation of Kelly Bushing
 EPD.F        686.500                                                                :Elevation of Permnaent Datum
 LMF.         Kelly Bushing                                                          :Logging Measured From
 PDAT.        Ground Level                                                           :Permanent Datum
 TDD.F        7225.000                                                               :Total Depth Driller
 TDL.F        7223.000                                                               :Total Depth Logger
 BS.IN        8.500                                                                  :Bit Size
 R1.                                                                                 :REMARK 1
 R2.                                                                                 :REMARK 2
 R3.                                                                                 :REMARK 3
 R4.                                                                                 :REMARK 4
 R5.                                                                                 :REMARK 5
 R6.                                                                                 :REMARK 6
 R7.                                                                                 :REMARK 7
 R8.                                                                                 :REMARK 8
 R9.                                                                                 :REMARK 9
 R10.                                                                                :REMARK 10
 DCS_CENTER.  Denver                                                                 :Schlumberger DCS Center
 LOG_ANALYST. Oliver                                                                 :Log Analyst Name
 ENG.         Beth DiBella                                                           :Field Engineer Name
 GF_BASELINE. 45                                                                     :GeoFrame Baseline
~Curve
#MNEM.UNIT                                                                           :DESCRIPTION
#----.----                                                                           :--------------------------------
 DEPT.F                                                                              :Depth Index
 GR.GAPI                                                                             : 1 Gamma Ray                                                                                 
 RHOZ.G/C3                                                                           : 2 HRDD Standard Resolution Formation Density                                                
 BS.IN                                                                               : 3 Bit Size                                                                                  
 P1AZ.DEG                                                                            : 4 Pad 1 Azimuth in Horizontal Plane (0 = True North)                                        
 SDEVM.DEG                                                                           : 5 Memorized Sonde Deviation                                                                 
 HAZIM.DEG                                                                           : 6 Memorized Hole Azimuth Relative to True North                                             
 RB.DEG                                                                              : 7 Relative Bearing                                                                          
 DEVI.DEG                                                                            : 8 Hole Deviation                                                                            
 HD1_PPC1.IN                                                                         : 9 PPC1 Hole Diameter 1                                                                      
 HD2_PPC1.IN                                                                         :10 PPC1 Hole Diameter 2                                                                      
 TENS.LBS                                                                            :11 Cable Tension                                                                             
 HDAR.IN                                                                             :12 Hole Diameter from Area                                                                   
 MINXENE_OVERALL.                                                                    :13 Overall estimate of minimum cross energy                                                  
 MAXXENE_OVERALL.                                                                    :14 Overall estimate of maximum cross energy                                                  
 FSH_AZIM_OVERALL_FILT.DEG                                                           :15 Overall estimate of fast shear azimuth filtered                                           
 FSH_AZIM_OVERALL.DEG                                                                :16 Overall estimate of fast shear azimuth                                                    
 FSH_AZIM_ERR.DEG                                                                    :17 Fast shear azimuth error                                                                  
 DTSM_SLOW.US/F                                                                      :18 Shear Slowness of Slow Shear Waves                                                        
 DTSM_FAST.US/F                                                                      :19 Shear Slowness of Fast Shear Waves                                                        
 DTCO.US/F                                                                           :20 Delta-T Compressional                                                                     
 SLOANI.                                                                             :21 Slowness based anisotropy                                                                 
 TIMANI.                                                                             :22 Time based anisotropy                                                                     
 TWE.US                                                                              :23 Time window end                                                                           
 TWB.US                                                                              :24 Time window begin                                                                         
~Ascii   DEPT            GR          RHOZ            BS          P1AZ         SDEVM         HAZIM            RB          DEVI      HD1_PPC1      HD2_PPC1          TENS          HDAR  MINXENE_OVER  MAXXENE_OVER  FSH_AZIM_OVE  FSH_AZIM_OVE  FSH_AZIM_ERR     DTSM_SLOW     DTSM_FAST          DTCO        SLOANI        TIMANI           TWE           TWB
# ...
    6307.50000     106.74626       2.51061      17.50000     111.39082       1.65130     281.70422     189.68265       1.62869       8.82567       9.01077    2690.00024       8.91822       1.52507       8.09015    -999.25000      62.25866       6.92902     109.03209     109.02508      66.97778       0.00643       1.74749    4384.66016    1984.66003
    6307.00000     103.72002       2.49646      17.50000     111.71687       1.65155     281.68344     190.02933       1.63045       8.82592       9.00147    2790.75000       8.91370       1.62505       8.58424    -999.25000      62.28461       6.72028     108.61929     108.34994      67.88480       0.24828       1.79529    4386.22363    1986.22351
    6306.50000      95.20770       2.49429      17.50000     113.32086       1.65247     281.64624     191.66991       1.63238       8.81479       9.01419    2782.50000       8.91449       1.65108       8.81437    -999.25000      62.11036       6.54696     107.86585     107.33412      67.53325       0.49417       1.81386    4388.37891    1988.37915
    6306.00000      91.11886       2.49745      17.50000     114.01103       1.65395     281.58401     192.42201       1.63455       8.84835       9.02328    2688.75000       8.93581       1.64958       8.74996    -999.25000      62.51975       6.27027     106.97758     106.44913      66.62505       0.49521       1.79900    4390.37891    1990.37915
    6305.50000      84.92553       2.50055      17.50000     114.53606       1.65589     281.50256     193.02824       1.63717       8.82633       9.00147    2717.33325       8.91390       1.69164       8.77920    -999.25000      63.19822       6.11062     106.13350     105.46039      65.67773       0.63623       1.79468    4391.35938    1991.35913
    6305.00000      83.95840       2.50614      17.50000     114.90967       1.65819     281.42484     193.47939       1.63996       8.82524       8.99803    2752.00000       8.91163       1.75077       8.79092    -999.25000      63.47002       6.10167     105.14878     104.21864      65.02533       0.88852       1.78715    4391.54395    1991.54407
    6304.50000      78.26828       2.51614      17.50000     115.37486       1.66079     281.34521     194.02399       1.64286       8.81367       8.97277    2782.00024       8.89322       1.82629       8.65672    -999.25000      63.91708       6.23796     104.07663     103.04678      64.69797       0.99444       1.76175    4390.33984    1990.34009
    6304.00000      69.01129       2.52033      17.50000     116.03277       1.66362     281.23782     194.78899       1.64597       8.82500       8.91869    2713.25000       8.87185       1.90669       8.68337    -999.25000      64.74107       6.48408     103.30318     102.14638      64.13950       1.12612       1.76025    4387.38184    1987.38208
    6303.50000      59.86918       2.53551      17.50000     116.24569       1.66662     281.13855     195.10104       1.64974       8.84727       8.91869    2679.00000       8.88298       1.93903       8.81957    -999.25000      65.22351       6.62499     102.87963     101.56425      63.45167       1.28678       1.80977    4382.80176    1982.80200
    6303.00000      52.93829       2.54830      17.50000     116.63616       1.66976     281.06589     195.56398       1.65314       8.82567       8.89691    2656.75000       8.86129       1.94604       8.83615    -999.25000      65.61151       6.56527     102.63853     101.26273      62.94236       1.34949       1.85177    4377.33496    1977.33447
    6302.50000      47.02117       2.55492      17.50000     117.13179       1.67298     280.96768     196.15756       1.65728       8.83680       8.87161    2688.33350       8.85420       1.93982       8.78259    -999.25000      66.21400       6.49899     102.57316     101.14782      62.38387       1.39930       1.85327    4372.33887    1972.33862
    6302.00000      44.65819       2.55366      17.50000     117.51266       1.67627     280.86203     196.64389       1.66055       8.85947       8.85906    2759.75000       8.85927       1.89705       8.67575    -999.25000      66.78955       6.43728     102.57981     101.19612      62.07602       1.35805       1.84588    4368.27930    1968.27930
    6301.50000      47.02329       2.54340      17.50000     117.67390       1.67958     280.79221     196.87486       1.66394       8.84899       8.78648    2571.25000       8.81773       1.78973       8.50069    -999.25000      67.59790       6.25430     102.56484     101.33139      62.47695       1.20988       1.83344    4364.99609    1964.99573
    6301.00000      50.76368       2.53565      17.50000     117.97913       1.68289     280.68542     197.28670       1.66728       8.84792       8.70669    2676.25024       8.77731       1.65969       8.30200    -999.25000      68.58444       5.91985     102.49719     101.51009      63.34482       0.96771       1.81956    4362.25732    1962.25732
    6300.50000      50.88581       2.52360      17.50000     117.98041       1.68617     280.60828     197.36505       1.67098       8.83742       8.69346    2693.70996       8.76544       1.58034       8.18448    -999.25000      69.21480       5.59389     102.38704     101.71318      64.19962       0.66032       1.81498    4360.25098    1960.25098
    6300.00000      45.30173       2.51893      17.50000     117.94884       1.68942     280.54721     197.39452       1.67421       8.86641       8.66847    2757.77368       8.76744       1.55537       8.20666    -999.25000      69.38268       5.42169     102.23129     101.85312      64.47529       0.37060       1.82590    4359.21973    1959.21997
    6299.50000      43.30912       2.53254      17.50000     118.15317       1.69262     280.48553     197.66039       1.67726       8.95879       8.66857    2666.84009       8.81368       1.50999       8.28001    -999.25000      69.39035       5.24126     102.02666     101.91701      64.56387       0.10754       1.84239    4359.39014    1959.39038
    6299.00000      48.32882       2.54813      17.50000     118.34052       1.69575     280.42114     197.91202       1.68124       8.96482       8.65934    2730.87329       8.81208       1.44139       8.40412    -999.25000      69.23313       4.95354     101.72636     101.68070      64.41167       0.04490       1.86592    4360.83691    1960.83679
    6298.50000      62.30597       2.57499      17.50000     119.05145       1.69883     280.37949     198.66434       1.68430       8.91769       8.67301    2685.84131       8.79535       1.35769       8.61624    -999.25000      68.93658       4.61864     101.36629     101.35277      63.83389       0.01335       1.89913    4363.51270    1963.51318
    6298.00000      81.83421       2.60688      17.50000     119.83865       1.70185     280.31644     199.51425       1.68765       8.89490       8.67030    2741.68677       8.78260       1.25859       8.73791    -999.25000      69.04721       4.44634     101.16928     101.20240      63.33960      -0.03273       1.91886    4366.70068    1966.70081
    6297.50000      94.64828       2.61460      17.50000     120.51501       1.70483     280.26608     200.24069       1.69073       8.90420       8.67752    2805.50024       8.79086       1.18805       8.67097    -999.25000      69.59154       4.51808     101.14315     101.29263      63.12897      -0.14768       1.91515    4368.87891    1968.87891
    6297.00000      93.31040       2.61697      17.50000     121.02311       1.70775     280.23334     200.78133       1.69374       8.90479       8.68129    2756.00000       8.79304       1.15358       8.54010    -999.25000      70.03068       4.60916     101.25613     101.49397      62.97470      -0.23461       1.90477    4369.90186    1969.90186
    6296.50000      84.44692       2.58217      17.50000     121.82221       1.71065     280.20734     201.60612       1.69658       8.90538       8.68506    2737.25000       8.79522       1.13687       8.44312    -999.25000      70.43400       4.69393     101.42699     101.57069      62.82816      -0.14158       1.89851    4370.41504    1970.41516
