~VERSION
 VERS.        2.00                                                                   :CWLS LOG ASCII STANDARD
 WRAP.        NO                                                                     :NO WRAP PERFORMED
 PROD.        Schlumberger                                                           :LAS Producer
 CREA.        Fri Nov 16 12:50:33 2012                                               :LAS Creation Date and time
~Well
#MNEM.UNIT    VALUE                                                                   :DESCRIPTION
#----.----    ---------------                                                        :-------------------
 STRT.F       5331.500                                                               :START DEPTH
 STOP.F       350.000                                                                :STOP  DEPTH
 STEP.F       -0.500                                                                 :DEPTH STEP
 NULL.        -999.250                                                               :NULL VALUE
 COMP.        ADM                                                                    :COMPANY NAME
 WELL.        Verification Well #2                                                   :WELL NAME
 FLD.         Wildcat                                                                :FIELD NAME
 API.         12115235520000                                                         :API NUMBER
 CNTY.        Macon                                                                  :COUNTY
 STAT.        Illinois                                                               :STATE
 CTRY.        US                                                                     :COUNTRY
 LOC.         Long:-88.8924449, Lat: 39.8922313                                      :WELL SURFACE LOCATION LINE 1
 LOC2.        248' South and 233' East from the NW corner of the                     :WELL SURFACE LOCATION LINE 2
 LOC3.        NW/4, of the NE/4, of the NW/4, of Section 32                          :WELL SURFACE LOCATION LINE 3
 SECT.        32                                                                     :SECTION
 TOWN.        17 North                                                               :TOWNSHIP
 RANG.        3 East                                                                 :RANGE
 LATI.        39.892232 degrees                                                      :Latitude
 LONG.        -88.892445 degrees                                                     :Longitude
 DATE.        2012/10/08                                                             :LOGGING DATE
 SRVC.        Schlumberger                                                           :SERVICE COMPANY
~Parameter
#MNEM.UNIT    VALUE                                                                  :DESCRIPTION
#----.----    ---------------                                                        :-------------------
 APD.F        17.000                                                                 :Elevation of depth reference above permanent datum
 EDF.F        703.500                                                                :Elevation of Derrick Floor
 EGL.F        686.500                                                                :Elevation of Ground Level
 EKB.F        703.500                                                                :Elevation of Kelly Bushing
 EPD.F        686.500                                                                :Elevation of Permnaent Datum
 LMF.         KB                                                                     :Logging Measured From
 PDAT.        Ground level                                                           :Permanent Datum
 TDD.F        5316.000                                                               :Total Depth Driller
 TDL.F        5316.000                                                               :Total Depth Logger
 BS.IN        12.250                                                                 :Bit Size
 R1.                                                                                 :REMARK 1
 R2.                                                                                 :REMARK 2
 R3.                                                                                 :REMARK 3
 R4.                                                                                 :REMARK 4
 R5.                                                                                 :REMARK 5
 R6.                                                                                 :REMARK 6
 R7.                                                                                 :REMARK 7
 R8.                                                                                 :REMARK 8
 R9.                                                                                 :REMARK 9
 R10.                                                                                :REMARK 10
 DCS_CENTER.  Denver DCS                                                             :Schlumberger DCS Center
 LOG_ANALYST. Roberts                                                                :Log Analyst Name
 ENG.         Kevin Ryan                                                             :Field Engineer Name
 GF_BASELINE. GF45                                                                   :GeoFrame Baseline
~Curve
#MNEM.UNIT                                                                           :DESCRIPTION
#----.----                                                                           :--------------------------------
 DEPT.F                                                                              :Depth Index
 GR.GAPI                                                                             : 1 Gamma Ray                                                                                 
 RHOZ.G/C3                                                                           : 2 HRDD Standard Resolution Formation Density                                                
 BS.IN                                                                               : 3 Bit Size                                                                                  
 P1AZ.DEG                                                                            : 4 Pad 1 Azimuth in Horizontal Plane (0 = True North)                                        
 SDEVM.DEG                                                                           : 5 Memorized Sonde Deviation                                                                 
 HAZIM.DEG                                                                           : 6 Memorized Hole Azimuth Relative to True North                                             
 RB.DEG                                                                              : 7 Relative Bearing                                                                          
 DEVI.DEG                                                                            : 8 Hole Deviation                                                                            
 HD1_PPC1.IN                                                                         : 9 PPC1 Hole Diameter 1                                                                      
 HD2_PPC1.IN                                                                         :10 PPC1 Hole Diameter 2                                                                      
 TENS.LBS                                                                            :11 Cable Tension                                                                             
 HDAR.IN                                                                             :12 Hole Diameter from Area                                                                   
 MINXENE_OVERALL.                                                                    :13 Overall estimate of minimum cross energy                                                  
 MAXXENE_OVERALL.                                                                    :14 Overall estimate of maximum cross energy                                                  
 FSH_AZIM_OVERALL_FILT.DEG                                                           :15 Overall estimate of fast shear azimuth filtered                                           
 FSH_AZIM_OVERALL.DEG                                                                :16 Overall estimate of fast shear azimuth                                                    
 FSH_AZIM_ERR.DEG                                                                    :17 Fast shear azimuth error                                                                  
 DTSM_SLOW.US/F                                                                      :18 Shear Slowness of Slow Shear Waves                                                        
 DTSM_FAST.US/F                                                                      :19 Shear Slowness of Fast Shear Waves                                                        
 DTCO.US/F                                                                           :20 Delta-T Compressional                                                                     
 SLOANI.                                                                             :21 Slowness based anisotropy                                                                 
 TIMANI.                                                                             :22 Time based anisotropy                                                                     
 TWE.US                                                                              :23 Time window end                                                                           
 TWB.US                                                                              :24 Time window begin                                                                         
 FLAG.                                                                               :25 Shear Flag                                                                    
 FLAG.                                                                               :26 Bad Hole Flag                                                                    
~Ascii   DEPT            GR          RHOZ            BS          P1AZ         SDEVM         HAZIM            RB          DEVI      HD1_PPC1      HD2_PPC1          TENS          HDAR  MINXENE_OVER  MAXXENE_OVER  FSH_AZIM_OVE  FSH_AZIM_OVE  FSH_AZIM_ERR     DTSM_SLOW     DTSM_FAST          DTCO        SLOANI        TIMANI           TWE           TWB          FLAG          FLAG
# ...
    5001.50000      22.72286       2.66552      12.25000     123.93849       1.25842     168.66559     315.27982       1.27065      12.43106      12.50388    2228.66675      12.46747       0.60277       3.10499      65.48198      65.48198       7.82027      96.06635      93.45636      55.31888       2.75428       0.66399    4869.25293    1869.25342    -999.25000    -999.25000
    5001.00000      23.73535       2.69759      12.25000     124.43433       1.26248     168.60742     315.83386       1.27682      12.48975      12.51033    2306.30566      12.50004       0.60736       2.79723      66.24931      66.24931       7.91132      94.73958      91.95380      54.55181       2.98433       0.65847    4861.42578    1861.42578    -999.25000    -999.25000
    5000.50000      25.04947       2.72271      12.25000     124.98965       1.26627     168.53310     316.46353       1.27907      12.47540      12.51033    2326.72217      12.49287       0.62136       2.50975      67.05042      67.05042       7.99461      93.74291      90.74026      53.78588       3.25520       0.65976    4853.54395    1853.54358    -999.25000    -999.25000
    5000.00000      26.41250       2.71035      12.25000     125.14596       1.26982     168.44093     316.71204       1.28351      12.45272      12.57551    2325.50000      12.51411       0.63297       2.35775      67.57712      67.57712       7.90800      92.74610      89.76196      53.36364       3.27015       0.66936    4845.60986    1845.60974    -999.25000    -999.25000
    4999.50000      28.32804       2.69704      12.25000     125.56052       1.27318     168.33163     317.23593       1.28704      12.54248      12.71929    2267.22217      12.63089       0.64096       2.28586      67.81057      67.81057       7.93193      92.33254      88.80518      53.39203       3.89467       0.67054    4839.10645    1839.10657    -999.25000    -999.25000
    4999.00000      30.12743       2.68529      12.25000     125.97099       1.27636     168.20833     317.76974       1.28653      12.55973      12.71027    2335.33325      12.63500       0.65105       2.27219      68.20035      68.20035       8.38342      92.21099      88.20461      53.69158       4.44128       0.65680    4834.32324    1834.32349    -999.25000    -999.25000
    4998.50000      31.58616       2.69703      12.25000     126.62927       1.27933     168.07446     318.56189       1.29279      12.58105      12.63548    2334.00000      12.60826       0.66604       2.26267      68.36421      68.36421       8.62983      91.98881      87.90178      53.67014       4.54390       0.66995    4830.95898    1830.95947    -999.25000    -999.25000
    4998.00000      29.57174       2.70822      12.25000     127.21706       1.28204     167.93439     319.28976       1.29613      12.53603      12.56421    2290.50024      12.55012       0.68879       2.20831      68.07091      68.07091       8.50323      91.58294      87.41972      53.01940       4.65158       0.70986    4829.35156    1829.35156    -999.25000    -999.25000
    4997.50000      26.66025       2.71403      12.25000     127.76338       1.28442     167.79128     319.97919       1.30167      12.42048      12.57563    2250.00000      12.49805       0.71333       2.20675      67.76797      67.76797       8.71433      90.84917      87.14002      51.98322       4.16784       0.73663    4829.87793    1829.87744    -999.25000    -999.25000
    4997.00000      22.41370       2.71174      12.25000     128.12732       1.28640     167.65002     320.48438       1.30370      12.42079      12.58761    2233.00000      12.50420       0.73229       2.28430      67.51521      67.51521       8.61841      89.90132      86.85721      51.27931       3.44437       0.77201    4832.46777    1832.46777    -999.25000    -999.25000
    4996.50000      21.76754       2.71799      12.25000     128.49419       1.28794     167.51042     320.99084       1.30380      12.44220      12.57563    2246.00000      12.50891       0.75056       2.37259      67.16915      67.16915       8.17397      89.32899      86.65080      51.02562       3.04375       0.82024    4836.11328    1836.11353    -999.25000    -999.25000
    4996.00000      21.62036       2.75211      12.25000     129.27951       1.28901     167.37381     321.91275       1.30512      12.45276      12.55163    2260.00000      12.50219       0.78674       2.42744      66.56657      66.56657       7.94922      90.19759      86.88528      50.80637       3.74097       0.86752    4839.33105    1839.33093    -999.25000    -999.25000
    4995.50000      23.82018       2.77089      12.25000     129.44319       1.28964     167.23885     322.21140       1.30435      12.49555      12.58759    2242.66675      12.54157       0.82189       2.50452      65.92308      65.92308       7.72085      90.28442      86.94309      50.44727       3.77067       0.91364    4841.71973    1841.71997    -999.25000    -999.25000
    4995.00000      26.33310       2.77976      12.25000     130.12605       1.28989     167.10481     323.02820       1.30413      12.49450      12.58755    2302.33325      12.54103       0.83682       2.62774      65.52562      65.52562       7.40815      90.01943      87.08147      50.14202       3.31784       0.95362    4843.51318    1843.51306    -999.25000    -999.25000
    4994.50000      27.55253       2.76335      12.25000     131.16841       1.28984     166.97087     324.20444       1.30691      12.44030      12.56421    2323.66675      12.50226       0.84688       2.76239      65.36086      65.36086       7.07824      89.89023      86.95661      50.08072       3.31769       0.99238    4844.58203    1844.58203    -999.25000    -999.25000
    4994.00000      27.62573       2.75849      12.25000     131.17917       1.28963     166.83447     324.35156       1.30555      12.40775      12.63596    2258.50000      12.52185       0.85347       2.91438      65.37531      65.37531       6.91896      90.10637      86.73725      50.27000       3.81028       1.02547    4845.32813    1845.32837    -999.25000    -999.25000
    4993.50000      26.23932       2.75480      12.25000     131.25702       1.28941     166.69696     324.56689       1.30367      12.41860      12.61208    2292.00000      12.51534       0.86153       3.06444      65.29056      65.29056       6.64501      90.59933      87.10466      50.74658       3.93314       1.05829    4847.10742    1847.10730    -999.25000    -999.25000
    4993.00000      24.61259       2.73695      12.25000     131.82820       1.28933     166.55800     325.27701       1.30238      12.42915      12.58815    2219.66675      12.50865       0.86513       3.21499      65.15710      65.15710       6.41116      91.33955      87.88220      51.44707       3.85817       1.08151    4849.02051    1849.02087    -999.25000    -999.25000
    4992.50000      26.20189       2.72289      12.25000     132.10406       1.28956     166.41972     325.69110       1.30011      12.47193      12.57620    2258.66675      12.52406       0.85975       3.38446      65.19345      65.19345       6.34037      92.11040      89.19820      52.17364       3.21243       1.09577    4849.34863    1849.34863    -999.25000    -999.25000
    4992.00000      26.60805       2.70193      12.25000     132.79538       1.29025     166.28685     326.51523       1.30005      12.46362      12.57563    2274.75024      12.51962       0.86472       3.53775      65.15248      65.15248       6.02481      93.07442      89.70115      53.00647       3.69116       1.11148    4849.98145    1849.98120    -999.25000    -999.25000
    4991.50000      28.58530       2.68744      12.25000     133.26341       1.29151     166.16235     327.10770       1.30394      12.42079      12.52768    2246.00000      12.47423       0.87480       3.67749      64.96671      64.96671       5.68610      94.18789      90.59644      54.41491       3.88718       1.11075    4852.77637    1852.77673    -999.25000    -999.25000
    4991.00000      26.60810       2.65484      12.25000     134.23761       1.29343     166.05150     328.19266       1.30616      12.44250      12.52764    2308.33350      12.48507       0.87755       3.78121      64.79369      64.79369       5.69129      95.15386      91.48250      56.47254       3.93424       1.09145    4857.47607    1857.47620    -999.25000    -999.25000
