~VERSION INFORMATION 
VERS  .    2.0                                     :CWLS Log ASCII Standard - VERSION 2.0
WRAP  .    NO                                      :One Line per Depth step
PROD  .    Schlumberger Technology Corp.           :LAS Producer
PROG  .    Horizon LASWriter 3.1.9755.0            :LAS Program name and version
SOURCE.    3A-Log[4]/Up                            :Run&Pass Information
CREA  .    10/30/2012                              :LAS Creation date {MM/DD/YYYY}
#--------------------------------------------------
~WELL INFORMATION 
#MNEM           .UNIT                      DATA            :DESCRIPTION
#----            ------          --------------            -----------------------------
STRT            .ft                  5150.00000            :START DEPTH
STOP            .ft                  7238.00000            :STOP DEPTH
STEP            .ft                         0.5            :STEP
NULL            .                       -999.25            :NULL VALUE
COMP            .                   ADM COMPANY            :COMPANY
WELL            .                Verification Well #2      :WELL NAME
FLD             .                       Wildcat            :FIELD NAME
RIGN            .                                          :Rig Name
RIGTYP          .                                          :Rig Type
SON             .                    C5FX-00022            :Service Order Number
SRVC            .                  Schlumberger            :SERVICE COMPANY
DATE            .                    10/30/2012            :LOG DATE(Composite Date for Composite LAP) (MM/DD/YYYY)
CLAB            .                       County:            :County Label
CNTY            .                         Macon            :COUNTY
SLAB            .                        State:            :State/Province Label
STAT            .                      Illinois            :STATE or PROVINCE
PROV            .                      Illinois            :STATE or PROVINCE
CTRY            .                                          :COUNTRY
CONT_REGION     .                    N. America            :Continent Region
SECT            .                            32            :Section
TOWN            .                      17 North            :Township
RANG            .                        3 East            :Range
API             .                  121152355200            :API NUMBER
UWI             .                                          :UNIQUE WELL ID
LUL             .                        Weston            :Logging Unit Location
LUN             .                          3149            :Logging Unit Number
LOC             .                Lat: 39.8922313 Long: -88.89244449:FIELD LOCATION
FL1             .                248' South and 233' East rom NW corner of the:Field Location Line 1
FL2             .                NW/4, of the NE/4, of the NW/4, of Section 32:Field Location Line 2
LATI            .deg                  39.892231            :LATITUDE
LONG            .deg                 -88.892444            :LONGITUDE
PDAT            .                            GL            :Local Permanent Datum
LMF             .                            KB            :Logging Measured From
APD             .ft                    17.00000            :Elevation of Depth Reference (LMF) Above Permanent Datum
EPD             .ft                   686.49998            :Elevation of Permanent Datum (PDAT) above Mean Sea Level
EKB             .ft                    17.00000            :Elevation of Kelly Bushing Above Permanent Datum
EDF             .ft                     -999.25            :Elevation of Drill Floor Above Permanent Datum
EGL             .ft                     0.00000            :Elevation of Ground Level Above Permanent Datum
ECF             .ft                     -999.25            :Elevation of Casing Flange above Permanent Datum
#--------------------------------------------------
~CURVE INFORMATION
#MNEM           .UNIT                  API CODE            :DESCRIPTION
#----            ------          --------------            -----------------------------
DEPT            .ft                                        :                                                        Depth Index
RLA4            .ohm.m                                     :        (HRLT-B)                (2in)                   Apparent Resistivity from Computed Focusing Mode 4
CALI            .in                                        :        (HDRS-H)                (1in)                   Caliper
GR              .gAPI                                      :        (EDTC-B)                (6in)                   Gamma Ray
MRES            .ohm.m                                     :        (HRLT-B)                (2in)                   Mud Resistivity
RLA2            .ohm.m                                     :        (HRLT-B)                (2in)                   Apparent Resistivity from Computed Focusing Mode 2
RLA5            .ohm.m                                     :        (HRLT-B)                (2in)                   Apparent Resistivity from Computed Focusing Mode 5
TENS            .lbf                                       :        (WLWorkflow)            (1in)                   Cable Tension
RT              .ohm.m                                     :        (HRLT-B)                (2in)                   True Resistivity
RXOZ            .ohm.m                                     :        (HDRS-H)                (2in)                   Invaded Formation Resistivity filtered at 18 inches
SP              .mV                                        :        (SPE-A)                 (6in)                   Spontaneous Potential
RLA3            .ohm.m                                     :        (HRLT-B)                (2in)                   Apparent Resistivity from Computed Focusing Mode 3
RHOZ            .g/cm3                                     :        (HDRS-H)                (2in)                   Standard Resolution Formation Density
PEFZ            .                                          :        (HDRS-H)                (2in)                   Standard Resolution Formation Photoelectric Factor
NPHI            .ft3/ft3                                   :        (HGNS-H)                (6in)                   Thermal Neutron Porosity (original Ratio Method) in Selected Lithology
DPHZ            .ft3/ft3                                   :        (HDRS-H)                (2in)                   Standard Resolution Density Porosity
HDRA            .g/cm3                                     :        (HDRS-H)                (2in)                   Density Standoff Correction
#-------------------------------------------------------------
#            DEPT         RLA4         CALI           GR         MRES         RLA2         RLA5         TENS           RT         RXOZ           SP         RLA3         RHOZ         PEFZ         NPHI         DPHZ         HDRA 
#                     (HRLT-B)     (HDRS-H)     (EDTC-B)     (HRLT-B)     (HRLT-B)     (HRLT-B)  (WLWorkflo)     (HRLT-B)     (HDRS-H)      (SPE-A)     (HRLT-B)     (HDRS-H)     (HDRS-H)     (HGNS-H)     (HDRS-H)     (HDRS-H) 
#                                                                                                                                                                                                                                 
#                        (2in)        (1in)        (6in)        (2in)        (2in)        (2in)        (1in)        (2in)        (2in)        (6in)        (2in)        (2in)        (2in)        (6in)        (2in)        (2in) 
~ASCII
# ...
       6104.00000     12.28925      8.50095     36.19225      0.20762     13.79756     11.33415   2199.00015      7.27166     21.88149   -266.03130     12.97605      2.51141      1.76966      0.11301      0.08399     -0.00269
       6104.50000     12.98407      8.50095     32.68631      0.20794     14.59810     11.91995   2184.99995      7.65199     21.23550   -266.07140     13.67472      2.51128      1.74302      0.11260      0.08407     -0.00117
       6105.00000     13.17203      8.54537     33.91005      0.20905     14.87475     12.11057   2207.00020      7.82198     22.42523   -266.28910     13.95078      2.51517      1.74064      0.10879      0.08171     -0.00206
       6105.50000     14.80818      8.57869     39.95238      0.20959     16.71546     13.59560   2247.50021      8.79103     26.19925   -266.65180     15.73556      2.52981      1.73245      0.10834      0.07284     -0.00297
       6106.00000     17.71474      8.65644     46.98176      0.20937     19.99309     16.26412   2220.00000     10.68405     31.14075   -266.71090     18.84953      2.53073      1.74914      0.09965      0.07229     -0.00604
       6106.50000     14.12622      8.67865     44.71598      0.21050     15.99303     12.99334   2202.00000      8.22202     31.85281   -267.04690     15.02943      2.53168      1.74579      0.08810      0.07171     -0.00672
       6107.00000     14.60445      8.65644     43.59198      0.20936     16.45549     13.41711   2167.00017      8.42827     29.54620   -267.29460     15.51592      2.52605      1.74925      0.08449      0.07512     -0.00667
       6107.50000     18.50177      8.67865     40.72896      0.20693     20.80218     17.00762   2252.00111     10.65658     27.78382   -266.82810     19.61908      2.52213      1.75564      0.08819      0.07750     -0.00559
       6108.00000     16.52737      8.67865     42.22943      0.20622     18.61341     15.20365   2174.00005      9.16254     29.71979   -266.54460     17.57601      2.51786      1.76846      0.09414      0.08009     -0.00477
       6108.50000     15.47912      8.67865     40.40079      0.20581     17.46888     14.24991   2189.99992      8.61259     32.43026   -266.31250     16.43738      2.51928      1.77401      0.09226      0.07923     -0.00343
       6109.00000     16.23003      8.65644     44.78630      0.20479     18.47108     14.97311   2200.00010      8.84135     32.34219   -266.06250     17.29061      2.51890      1.78663      0.08505      0.07946     -0.00418
       6109.50000     22.98284      8.67865     51.05669      0.20329     26.13002     21.19001   2232.00008     12.65909     37.83299   -266.01560     24.46295      2.53149      1.79646      0.08285      0.07182     -0.00342
       6110.00000     23.39448      8.70086     51.73512      0.20331     26.67440     21.51792   2202.00000     12.30143     44.30649   -266.16070     24.94412      2.54877      1.78012      0.08284      0.06135     -0.00257
       6110.50000     20.92751      8.74529     49.55868      0.20374     23.94358     19.26252   2229.99995     10.72010     47.03519   -265.14060     22.32649      2.55066      1.78442      0.08285      0.06021      0.00052
       6111.00000     19.37496      8.73418     46.69454      0.20365     22.23079     17.87847   2237.00006      9.80487     40.59874   -264.21430     20.70536      2.53874      1.78014      0.08760      0.06743      0.00243
       6111.50000     15.81842      8.76750     52.97649      0.20391     18.11715     14.58007   2263.00101      7.93955     34.74122   -264.24220     16.92397      2.53405      1.78087      0.09579      0.07027      0.00109
       6112.00000     16.09892      8.80082     60.18523      0.20274     18.33472     14.79043   2175.00000      7.93602     38.02922   -264.13390     17.28500      2.55303      1.75255      0.10578      0.05877     -0.00628
       6112.50000     21.54388      8.83414     59.58149      0.20098     24.43078     19.82396   2168.99985     10.97852     43.50076   -264.21090     22.84163      2.57215      1.72951      0.10663      0.04718     -0.00686
       6113.00000     17.28672      8.87856     53.44255      0.20104     19.71609     15.91433   2263.00101      8.50793     34.94878   -264.23440     18.31603      2.55201      1.76237      0.10188      0.05939     -0.00025
       6113.50000     21.60779      8.90078     48.19572      0.20183     24.44101     19.77121   2291.00096     10.52972     20.82530   -264.56250     22.86934      2.52750      1.83309      0.09214      0.07424      0.03230
       6114.00000     28.05995      9.11179     51.89149      0.20594     31.36644     25.63970   2303.99942     13.46235     17.25072   -264.93750     29.52496      2.51960      1.91201      0.07703      0.07903      0.09381
       6114.50000     20.82626      9.45609     56.64006      0.21165     23.09072     18.92102   2283.00001      9.83481     10.56266   -265.48210     21.90750      2.54873      1.94587      0.07715      0.06138      0.15519
       6115.00000     17.93282      9.85591     63.04115      0.21135     19.94777     16.28840   2234.49996      8.23382     12.15969   -265.53910     18.95963      2.58400      1.91955      0.07372      0.04000      0.16350
       6115.50000     23.82092      9.43387     67.31602      0.20442     26.38661     21.51040   2297.00111     10.04864     15.16531   -265.07140     25.13903      2.60066      1.86267      0.08383      0.02990      0.10523
       6116.00000     22.77871      9.01183     73.27026      0.19373     25.27222     20.51038   2229.99995      9.12698     43.77395   -265.06250     24.10715      2.59992      1.81825      0.08142      0.03035      0.03765
       6116.50000     12.82786      9.05626     77.27721      0.19240     14.36883     11.57639   2221.99990      5.89105     41.88218   -265.08590     13.66599      2.57882      1.81902      0.09016      0.04314     -0.00003
       6117.00000     13.43036      9.10069     77.78801      0.19611     15.20844     12.12462   2233.99998      6.67232     39.38686   -264.83040     14.33983      2.57731      1.81752      0.08837      0.04405     -0.00357
       6117.50000     15.08597      9.13400     73.55129      0.19801     17.14367     13.54156   2240.49988      7.21605     34.71349   -264.96880     16.07718      2.55651      1.84047      0.09547      0.05666     -0.00318
       6118.00000     12.39758      9.18954     64.30360      0.19985     14.15048     11.13968   2240.00013      5.70646     29.12306   -265.28570     13.23000      2.54457      1.82981      0.10056      0.06390     -0.00318
       6118.50000     11.45163      9.36724     61.39439      0.20106     13.04639     10.27318   2259.99981      5.19798     24.27646   -264.53910     12.18333      2.52717      1.83933      0.11747      0.07444     -0.00389
       6119.00000     12.00940      9.41166     59.03215      0.20109     13.65827     10.77480   2229.99995      5.46812     21.24886   -263.50890     12.71537      2.52705      1.83232      0.11865      0.07451     -0.00493
       6119.50000     13.57324      9.36724     65.28359      0.19965     15.19586     12.16593   2263.00101      6.22370     24.09797   -263.46090     14.32403      2.53579      1.82944      0.11594      0.06922     -0.00318
       6120.00000     13.48279      9.27839     72.39714      0.19838     14.97903     12.08688   2301.00046      6.01442     25.34047   -262.97320     14.25863      2.53898      1.83582      0.10484      0.06729     -0.00638
       6120.50000     22.07433      9.27839     78.11359      0.19773     24.10569     19.75173   2241.00008     10.62049     38.93910   -262.95310     23.07261      2.54702      1.85347      0.10965      0.06241     -0.00885
       6121.00000     21.51929      9.25617     73.23798      0.19999     23.52050     19.18187   2248.00018     10.37551     49.17203   -262.96880     22.38792      2.54939      1.85554      0.10803      0.06098     -0.00634
       6121.50000     19.74607      9.25617     69.06110      0.20226     21.74327     17.64960   2317.00012      9.35774     42.01644   -262.89290     20.64738      2.54196      1.88609      0.11492      0.06548      0.02037
