~VERSION INFORMATION 
VERS  .    2.0                                     :CWLS Log ASCII Standard - VERSION 2.0
WRAP  .    NO                                      :One Line per Depth step
PROD  .    Schlumberger Technology Corp.           :LAS Producer
PROG  .    Horizon LASWriter 3.1.9755.0            :LAS Program name and version
SOURCE.    3A-Log[4]/Up                            :Run&Pass Information
CREA  .    10/30/2012                              :LAS Creation date {MM/DD/YYYY}
#--------------------------------------------------
~WELL INFORMATION 
#MNEM           .UNIT                      DATA            :DESCRIPTION
#----            ------          --------------            -----------------------------
STRT            .ft                  5150.00000            :START DEPTH
STOP            .ft                  7238.00000            :STOP DEPTH
STEP            .ft                         0.5            :STEP
NULL            .                       -999.25            :NULL VALUE
COMP            .                   ADM COMPANY            :COMPANY
WELL            .                Verification Well #2      :WELL NAME
FLD             .                       Wildcat            :FIELD NAME
RIGN            .                                          :Rig Name
RIGTYP          .                                          :Rig Type
SON             .                    C5FX-00022            :Service Order Number
SRVC            .                  Schlumberger            :SERVICE COMPANY
DATE            .                    10/30/2012            :LOG DATE(Composite Date for Composite LAP) (MM/DD/YYYY)
CLAB            .                       County:            :County Label
CNTY            .                         Macon            :COUNTY
SLAB            .                        State:            :State/Province Label
STAT            .                      Illinois            :STATE or PROVINCE
PROV            .                      Illinois            :STATE or PROVINCE
CTRY            .                                          :COUNTRY
CONT_REGION     .                    N. America            :Continent Region
SECT            .                            32            :Section
TOWN            .                      17 North            :Township
RANG            .                        3 East            :Range
API             .                  121152355200            :API NUMBER
UWI             .                                          :UNIQUE WELL ID
LUL             .                        Weston            :Logging Unit Location
LUN             .                          3149            :Logging Unit Number
LOC             .                Lat: 39.8922313 Long: -88.89244449:FIELD LOCATION
FL1             .                248' South and 233' East rom NW corner of the:Field Location Line 1
FL2             .                NW/4, of the NE/4, of the NW/4, of Section 32:Field Location Line 2
LATI            .deg                  39.892231            :LATITUDE
LONG            .deg                 -88.892444            :LONGITUDE
PDAT            .                            GL            :Local Permanent Datum
LMF             .                            KB            :Logging Measured From
APD             .ft                    17.00000            :Elevation of Depth Reference (LMF) Above Permanent Datum
EPD             .ft                   686.49998            :Elevation of Permanent Datum (PDAT) above Mean Sea Level
EKB             .ft                    17.00000            :Elevation of Kelly Bushing Above Permanent Datum
EDF             .ft                     -999.25            :Elevation of Drill Floor Above Permanent Datum
EGL             .ft                     0.00000            :Elevation of Ground Level Above Permanent Datum
ECF             .ft                     -999.25            :Elevation of Casing Flange above Permanent Datum
#--------------------------------------------------
~CURVE INFORMATION
#MNEM           .UNIT                  API CODE            :DESCRIPTION
#----            ------          --------------            -----------------------------
DEPT            .ft                                        :                                                        Depth Index
RLA4            .ohm.m                                     :        (HRLT-B)                (2in)                   Apparent Resistivity from Computed Focusing Mode 4
CALI            .in                                        :        (HDRS-H)                (1in)                   Caliper
GR              .gAPI                                      :        (EDTC-B)                (6in)                   Gamma Ray
MRES            .ohm.m                                     :        (HRLT-B)                (2in)                   Mud Resistivity
RLA2            .ohm.m                                     :        (HRLT-B)                (2in)                   Apparent Resistivity from Computed Focusing Mode 2
RLA5            .ohm.m                                     :        (HRLT-B)                (2in)                   Apparent Resistivity from Computed Focusing Mode 5
TENS            .lbf                                       :        (WLWorkflow)            (1in)                   Cable Tension
RT              .ohm.m                                     :        (HRLT-B)                (2in)                   True Resistivity
RXOZ            .ohm.m                                     :        (HDRS-H)                (2in)                   Invaded Formation Resistivity filtered at 18 inches
SP              .mV                                        :        (SPE-A)                 (6in)                   Spontaneous Potential
RLA3            .ohm.m                                     :        (HRLT-B)                (2in)                   Apparent Resistivity from Computed Focusing Mode 3
RHOZ            .g/cm3                                     :        (HDRS-H)                (2in)                   Standard Resolution Formation Density
PEFZ            .                                          :        (HDRS-H)                (2in)                   Standard Resolution Formation Photoelectric Factor
NPHI            .ft3/ft3                                   :        (HGNS-H)                (6in)                   Thermal Neutron Porosity (original Ratio Method) in Selected Lithology
DPHZ            .ft3/ft3                                   :        (HDRS-H)                (2in)                   Standard Resolution Density Porosity
HDRA            .g/cm3                                     :        (HDRS-H)                (2in)                   Density Standoff Correction
#-------------------------------------------------------------
#            DEPT         RLA4         CALI           GR         MRES         RLA2         RLA5         TENS           RT         RXOZ           SP         RLA3         RHOZ         PEFZ         NPHI         DPHZ         HDRA 
#                     (HRLT-B)     (HDRS-H)     (EDTC-B)     (HRLT-B)     (HRLT-B)     (HRLT-B)  (WLWorkflo)     (HRLT-B)     (HDRS-H)      (SPE-A)     (HRLT-B)     (HDRS-H)     (HDRS-H)     (HGNS-H)     (HDRS-H)     (HDRS-H) 
#                                                                                                                                                                                                                                 
#                        (2in)        (1in)        (6in)        (2in)        (2in)        (2in)        (1in)        (2in)        (2in)        (6in)        (2in)        (2in)        (2in)        (6in)        (2in)        (2in) 
~ASCII
# ...
       5564.00000      8.53172      8.43431     54.45624      0.20743      9.27329      7.92740   2123.99984      5.70439     15.11551   -259.66960      8.83834      2.50685      1.87747      0.10954      0.08676     -0.00574
       5564.50000      7.11269      8.45652     59.46809      0.20807      7.80773      6.59456   2089.99996      4.61011     14.53375   -259.48440      7.47242      2.50049      1.93270      0.12899      0.09061     -0.00470
       5565.00000      8.14419      8.45652     53.85189      0.20711      9.02035      7.50675   2053.99996      5.23978     12.84151   -259.80360      8.62268      2.49521      1.96561      0.13729      0.09381     -0.00479
       5565.50000      7.05823      8.43431     45.57116      0.20786      7.95753      6.51987   2100.00014      4.43143     12.51319   -260.03910      7.53444      2.49569      1.94599      0.12512      0.09352     -0.00500
       5566.00000      6.51008      8.45652     38.03032      0.20851      7.38894      6.01500   2071.99996      4.04059     10.90147   -260.23440      6.96727      2.49473      1.90948      0.11413      0.09410     -0.00487
       5566.50000      6.49652      8.45652     26.87302      0.20853      7.41290      6.00086   2066.00003      3.99695     10.44296   -260.63390      6.95340      2.48591      1.88202      0.10791      0.09945     -0.00548
       5567.00000      6.19464      8.45652     20.05760      0.20938      7.08317      5.73996   2147.99999      3.78626      9.85943   -261.09380      6.64692      2.47625      1.86847      0.10500      0.10530     -0.00553
       5567.50000      5.74107      8.45652     21.16610      0.21081      6.53510      5.30385   2123.99984      3.41270      9.43120   -260.35710      6.14268      2.47151      1.86665      0.10073      0.10817     -0.00511
       5568.00000      6.31545      8.45652     34.48040      0.21020      7.13445      5.85001   2117.00019      3.87246     10.19229   -260.64840      6.74150      2.48440      1.89150      0.10195      0.10036     -0.00343
       5568.50000      7.67704      8.45652     60.24627      0.20907      8.62971      7.09647   2133.00007      4.80613     12.67155   -260.16960      8.13697      2.52240      2.00472      0.10116      0.07733      0.00110
       5569.00000      9.52008      8.45652     90.01221      0.20708     10.60209      8.82866   2084.99998      6.22592     19.48064   -259.87500     10.08121      2.56176      2.19303      0.12076      0.05348      0.00370
       5569.50000     16.02059      8.52316    113.38400      0.20418     17.73580     14.89427   2088.00006     10.58125     27.13539   -259.77340     16.88678      2.58465      2.46743      0.13299      0.03961      0.00207
       5570.00000     14.32160      8.54537    134.61280      0.20414     16.15820     13.34355   2112.00021      8.45778     34.68713   -260.21430     15.16408      2.58266      2.73582      0.14903      0.04081     -0.00096
       5570.50000     16.78143      8.54537    145.40820      0.20360     18.80094     15.76884   2110.50029     10.17851     38.36751   -260.47660     17.74707      2.58124      2.97404      0.15658      0.04168      0.00428
       5571.00000     16.13836      8.52316    139.21160      0.20293     18.14715     15.29611   2130.99994      9.44080     36.44172   -259.78570     17.06524      2.58189      2.99526      0.17166      0.04128      0.00776
       5571.50000     20.01540      8.52316    113.48150      0.20233     22.62684     19.09482   2098.00001     11.97193     35.68787   -259.08590     21.16775      2.57588      2.79100      0.17205      0.04492      0.01294
       5572.00000     16.82542      8.52316     78.91994      0.20364     19.09128     16.09921   2139.99994     10.05410     30.97989   -259.59820     17.76946      2.55781      2.43564      0.15133      0.05587      0.00504
       5572.50000     16.42267      8.47874     60.67252      0.20356     18.67895     15.69322   2100.00014      9.64288     36.98160   -259.25000     17.35902      2.53774      2.15107      0.11445      0.06804     -0.00016
       5573.00000     28.02970      8.46763     65.04496      0.20073     31.32100     26.84402   2084.00003     18.15271     34.68784   -259.42190     29.49465      2.52606      2.08980      0.08556      0.07511     -0.00902
       5573.50000     16.53992      8.45652    104.09070      0.20187     18.33062     15.88342   2094.99994     10.79066     31.54689   -259.51790     17.51623      2.52231      2.31152      0.07326      0.07739     -0.01274
       5574.00000     11.50830      8.48984    143.47030      0.20295     12.71116     10.95367   2120.99999      7.50598     23.49568   -259.77340     12.09904      2.52396      2.67107      0.10390      0.07639     -0.01380
       5574.50000     14.72058      8.50095    147.79310      0.20085     16.08788     13.93351   2105.00011     10.29827     23.12937   -260.23210     15.37953      2.53897      2.83516      0.13712      0.06729     -0.00928
       5575.00000     12.80811      8.47874    110.37420      0.19984     14.06111     12.00237   2113.00016      8.63866     22.27299   -261.27340     13.38548      2.55077      2.65887      0.15116      0.06014     -0.00199
       5575.50000     12.12546      8.43431     72.23487      0.19856     13.27908     11.31188   2093.00004      8.15560     20.63779   -261.45310     12.64946      2.53736      2.29326      0.13127      0.06827      0.00118
       5576.00000      9.89465      8.41210     55.52303      0.19833     10.85296      9.16703   2083.00008      6.57076     14.97456   -261.60710     10.32341      2.49814      2.02467      0.11841      0.09204     -0.00245
       5576.50000      6.92505      8.43431     51.03291      0.19961      7.59773      6.34160   2071.99996      4.45419     11.20201   -261.64060      7.20666      2.46715      1.91338      0.12594      0.11082     -0.00543
       5577.00000      6.28622      8.41210     47.16240      0.20042      6.82158      5.67512   2006.00010      4.03400      9.58140   -261.22320      6.52799      2.45270      1.88597      0.14115      0.11958     -0.00658
       5577.50000      6.45341      8.41210     42.00950      0.19851      7.01711      5.76073   2075.00003      4.05855      8.79496   -261.50000      6.70823      2.45245      1.87305      0.15058      0.11973     -0.00672
       5578.00000      7.34848      8.43431     39.58746      0.19802      7.96412      6.53959   2152.99997      4.84783     10.03490   -261.62500      7.66639      2.46010      1.85069      0.14286      0.11509     -0.00679
       5578.50000      6.29022      8.41210     38.37409      0.20012      6.80593      5.59605   2178.00007      4.11815     10.50895   -262.15630      6.61733      2.47559      1.82702      0.13241      0.10571     -0.00532
       5579.00000      7.66848      8.41210     38.04813      0.19845      8.28571      6.81985   2219.50003      5.11991     10.91590   -261.57030      8.07273      2.47478      1.83515      0.11968      0.10620     -0.00576
       5579.50000      8.46570      8.41210     38.52293      0.19747      9.17840      7.54405   2210.00005      5.71736     11.02601   -260.58040      8.93942      2.47112      1.85037      0.11999      0.10841     -0.00628
       5580.00000      7.43178      8.43431     37.67259      0.19920      8.09888      6.64235   2134.99997      4.96323     10.80302   -260.41410      7.85838      2.47399      1.84461      0.12564      0.10667     -0.00475
       5580.50000      7.46604      8.41210     34.07168      0.19965      8.13900      6.71125   2093.50001      4.93911     11.25016   -260.18750      7.87010      2.48432      1.84270      0.12620      0.10041     -0.00199
       5581.00000      8.00672      8.43431     34.51324      0.19805      8.74709      7.22567   2031.99993      5.16831     11.31881   -260.17860      8.37930      2.48682      1.85768      0.12296      0.09890     -0.00105
       5581.50000      8.63501      8.41210     40.30654      0.19833      9.49759      7.87613   2078.50008      5.44675     12.43043   -260.09380      9.00513      2.47895      1.93768      0.11704      0.10367     -0.00246
