~VERSION
 VERS.        2.00                                                                   :CWLS LOG ASCII STANDARD
 WRAP.        NO                                                                     :NO WRAP PERFORMED
 PROD.        Schlumberger                                                           :LAS Producer
 CREA.        Fri Nov 16 12:50:33 2012                                               :LAS Creation Date and time
~Well
#MNEM.UNIT    VALUE                                                                   :DESCRIPTION
#----.----    ---------------                                                        :-------------------
 STRT.F       5331.500                                                               :START DEPTH
 STOP.F       350.000                                                                :STOP  DEPTH
 STEP.F       -0.500                                                                 :DEPTH STEP
 NULL.        -999.250                                                               :NULL VALUE
 COMP.        ADM                                                                    :COMPANY NAME
 WELL.        Verification Well #2                                                   :WELL NAME
 FLD.         Wildcat                                                                :FIELD NAME
 API.         12115235520000                                                         :API NUMBER
 CNTY.        Macon                                                                  :COUNTY
 STAT.        Illinois                                                               :STATE
 CTRY.        US                                                                     :COUNTRY
 LOC.         Long:-88.8924449, Lat: 39.8922313                                      :WELL SURFACE LOCATION LINE 1
 LOC2.        248' South and 233' East from the NW corner of the                     :WELL SURFACE LOCATION LINE 2
 LOC3.        NW/4, of the NE/4, of the NW/4, of Section 32                          :WELL SURFACE LOCATION LINE 3
 SECT.        32                                                                     :SECTION
 TOWN.        17 North                                                               :TOWNSHIP
 RANG.        3 East                                                                 :RANGE
 LATI.        39.892232 degrees                                                      :Latitude
 LONG.        -88.892445 degrees                                                     :Longitude
 DATE.        2012/10/08                                                             :LOGGING DATE
 SRVC.        Schlumberger                                                           :SERVICE COMPANY
~Parameter
#MNEM.UNIT    VALUE                                                                  :DESCRIPTION
#----.----    ---------------                                                        :-------------------
 APD.F        17.000                                                                 :Elevation of depth reference above permanent datum
 EDF.F        703.500                                                                :Elevation of Derrick Floor
 EGL.F        686.500                                                                :Elevation of Ground Level
 EKB.F        703.500                                                                :Elevation of Kelly Bushing
 EPD.F        686.500                                                                :Elevation of Permnaent Datum
 LMF.         KB                                                                     :Logging Measured From
 PDAT.        Ground level                                                           :Permanent Datum
 TDD.F        5316.000                                                               :Total Depth Driller
 TDL.F        5316.000                                                               :Total Depth Logger
 BS.IN        12.250                                                                 :Bit Size
 R1.                                                                                 :REMARK 1
 R2.                                                                                 :REMARK 2
 R3.                                                                                 :REMARK 3
 R4.                                                                                 :REMARK 4
 R5.                                                                                 :REMARK 5
 R6.                                                                                 :REMARK 6
 R7.                                                                                 :REMARK 7
 R8.                                                                                 :REMARK 8
 R9.                                                                                 :REMARK 9
 R10.                                                                                :REMARK 10
 DCS_CENTER.  Denver DCS                                                             :Schlumberger DCS Center
 LOG_ANALYST. Roberts                                                                :Log Analyst Name
 ENG.         Kevin Ryan                                                             :Field Engineer Name
 GF_BASELINE. GF45                                                                   :GeoFrame Baseline
~Curve
#MNEM.UNIT                                                                           :DESCRIPTION
#----.----                                                                           :--------------------------------
 DEPT.F                                                                              :Depth Index
 GR.GAPI                                                                             : 1 Gamma Ray                                                                                 
 RHOZ.G/C3                                                                           : 2 HRDD Standard Resolution Formation Density                                                
 BS.IN                                                                               : 3 Bit Size                                                                                  
 P1AZ.DEG                                                                            : 4 Pad 1 Azimuth in Horizontal Plane (0 = True North)                                        
 SDEVM.DEG                                                                           : 5 Memorized Sonde Deviation                                                                 
 HAZIM.DEG                                                                           : 6 Memorized Hole Azimuth Relative to True North                                             
 RB.DEG                                                                              : 7 Relative Bearing                                                                          
 DEVI.DEG                                                                            : 8 Hole Deviation                                                                            
 HD1_PPC1.IN                                                                         : 9 PPC1 Hole Diameter 1                                                                      
 HD2_PPC1.IN                                                                         :10 PPC1 Hole Diameter 2                                                                      
 TENS.LBS                                                                            :11 Cable Tension                                                                             
 HDAR.IN                                                                             :12 Hole Diameter from Area                                                                   
 MINXENE_OVERALL.                                                                    :13 Overall estimate of minimum cross energy                                                  
 MAXXENE_OVERALL.                                                                    :14 Overall estimate of maximum cross energy                                                  
 FSH_AZIM_OVERALL_FILT.DEG                                                           :15 Overall estimate of fast shear azimuth filtered                                           
 FSH_AZIM_OVERALL.DEG                                                                :16 Overall estimate of fast shear azimuth                                                    
 FSH_AZIM_ERR.DEG                                                                    :17 Fast shear azimuth error                                                                  
 DTSM_SLOW.US/F                                                                      :18 Shear Slowness of Slow Shear Waves                                                        
 DTSM_FAST.US/F                                                                      :19 Shear Slowness of Fast Shear Waves                                                        
 DTCO.US/F                                                                           :20 Delta-T Compressional                                                                     
 SLOANI.                                                                             :21 Slowness based anisotropy                                                                 
 TIMANI.                                                                             :22 Time based anisotropy                                                                     
 TWE.US                                                                              :23 Time window end                                                                           
 TWB.US                                                                              :24 Time window begin                                                                         
 FLAG.                                                                               :25 Shear Flag                                                                    
 FLAG.                                                                               :26 Bad Hole Flag                                                                    
~Ascii   DEPT            GR          RHOZ            BS          P1AZ         SDEVM         HAZIM            RB          DEVI      HD1_PPC1      HD2_PPC1          TENS          HDAR  MINXENE_OVER  MAXXENE_OVER  FSH_AZIM_OVE  FSH_AZIM_OVE  FSH_AZIM_ERR     DTSM_SLOW     DTSM_FAST          DTCO        SLOANI        TIMANI           TWE           TWB          FLAG          FLAG
# ...
     689.50000      83.03310       2.52997      12.25000     132.89017       0.44502     238.86751     254.02220       0.42759      12.92611      12.90541    1329.14429      12.91576       8.06274      13.70804      67.81512      67.81512      14.06838     192.36644     186.18237      95.17623       3.26725       0.74726    6594.37988    3594.38013    -999.25000    -999.25000
     689.00000      84.15530       2.55802      12.25000     132.47191       0.44833     238.80486     253.66658       0.42958      12.94401      12.89863    1333.23523      12.92132       6.91466      12.27633    -999.25000      66.85988      14.00401     192.79596     188.01692      94.16004       2.50991       0.68283    6632.61230    3632.61279    -999.25000    -999.25000
     688.50000      88.30188       2.59013      12.25000     132.22031       0.45159     238.73192     253.48790       0.43678      12.95614      12.89863    1328.71301      12.92738       5.87650      11.00180    -999.25000      66.17477      14.42445     193.13939     189.63593      93.62450       1.83056       0.61215    6668.52051    3668.52075    -999.25000    -999.25000
     688.00000      91.76900       2.62305      12.25000     132.74095       0.45469     238.65489     254.08559       0.44101      12.98626      12.90881    1338.07874      12.94754       5.57417       9.74702    -999.25000      66.68359      14.39404     194.39630     192.28540      94.02190       1.09180       0.59209    6710.22705    3710.22705    -999.25000    -999.25000
     687.50000      87.29964       2.64078      12.25000     135.36522       0.45751     238.58112     256.78369       0.44590      13.03303      13.58307    1386.33325      13.30805       5.27516       8.81620    -999.25000      68.18790      13.94104     196.76590     194.43378      95.95216       1.19229       0.58793    6759.60156    3759.60107    -999.25000       1.00000
     687.00000      87.58769       2.67021      12.25000     139.37672       0.45995     238.51031     260.86612       0.44817      13.10705      14.98054    1435.00000      14.04379       4.78597       8.39402    -999.25000      70.05459      13.46081     201.78175     197.85551      98.87180       1.96490       0.53382    6807.31592    3807.31543    -999.25000       1.00000
     686.50000      87.45148       2.65720      12.25000     143.42798       0.46195     238.45222     264.97559       0.45229      13.84871      15.75870    1350.33337      14.80370       4.43895       8.12402    -999.25000      71.20210      13.27961     207.26671     205.16563     100.82794       1.01887       0.46896    6846.02051    3846.02051    -999.25000       1.00000
     686.00000      90.62222       2.62716      12.25000     144.31996       0.46344     238.41202     265.90781       0.45168      13.53792      17.94418    1460.00000      15.74105       4.18916       7.81663    -999.25000      71.77237      13.23019     216.05656     214.11914      99.97532       0.90076       0.41547    6879.39014    3879.39014    -999.25000       1.00000
     685.50000      86.80799       2.56337      12.25000     143.53490       0.46440     238.38951     265.14523       0.45393      13.10705      15.85916    1389.00000      14.48310       3.91061       7.52201    -999.25000      71.53948      13.28821     227.33505     223.56058      95.32865       1.67421       0.39524    6911.49805    3911.49805    -999.25000       1.00000
     685.00000      80.82482       2.52512      12.25000     141.68138       0.46481     238.38609     263.29507       0.45376      12.99077      14.92360    1372.00000      13.95719       3.68181       7.20737    -999.25000      71.65042      13.32996     235.76093     232.54681      90.43233       1.37265       0.43075    6943.38184    3943.38184    -999.25000       1.00000
     684.50000      73.88457       2.47703      12.25000     140.19118       0.46466     238.40300     261.78790       0.45165      12.94904      13.26554    1354.00012      13.10729       3.53494       6.97129    -999.25000      72.87104      13.01041     241.63974     240.41090      90.44048       0.50984       0.49845    6975.27832    3975.27832    -999.25000       1.00000
     684.00000      91.69775       2.33693      12.25000     138.89590       0.46394     238.44231     260.45331       0.45068      12.82392      12.76735    1346.33337      12.79563       3.48849       7.17979    -999.25000      73.28838      12.98412     249.15303     248.40034      97.41467       0.30255       0.54342    7007.01074    4007.01074    -999.25000    -999.25000
     683.50000     144.24231       2.05893      12.25000     137.94525       0.46266     238.50311     259.44180       0.44899      12.77067      12.74349    1356.33337      12.75708       3.52544       8.18125    -999.25000      70.92173      13.86756     260.91766     258.28143     109.86230       1.01550       0.54832    7038.25000    4038.25000    -999.25000    -999.25000
     683.00000     285.66498       1.72006      12.25000     137.07689       0.46087     238.58507     258.49146       0.44740      12.71555      12.73872    1364.53955      12.72714       3.73791       9.60179    -999.25000      67.53349      14.59665     274.38205     268.88171     121.62996       2.02492       0.58064    7069.03418    4069.03418    -999.25000    -999.25000
     682.50000     344.53418       1.53415      12.25000     136.24287       0.45861     238.68744     257.55505       0.44452      12.69853      12.74112    1372.67139      12.71983       4.29225      10.51222    -999.25000      64.89574      14.59214     282.79959     277.12296     128.06847       2.02765       0.65653    7100.35059    4100.35059    -999.25000    -999.25000
     682.00000     282.07037       1.55654      12.25000     135.39406       0.45597     238.80954     256.58411       0.43949      12.68990      12.74112    1359.77612      12.71551       5.02148      11.06550    -999.25000      65.09182      14.37883     282.65775     280.48981     129.24283       0.76994       0.72257    7133.24805    4133.24805    -999.25000    -999.25000
     681.50000     214.40080       1.72116      12.25000     134.66367       0.45304     238.94930     255.71394       0.43621      12.73245      12.75543    1366.55371      12.74394       5.48064      11.56785    -999.25000      66.90636      14.65955     277.50790     277.24707     127.75731       0.09404       0.77468    7165.33447    4165.33447    -999.25000    -999.25000
     681.00000     163.97672       1.86603      12.25000     133.92613       0.44991     239.10388     254.82181       0.43062      12.79191      12.80311    1328.00000      12.79751       5.52387      11.73605    -999.25000      66.59290      16.33992     275.33350     273.04663     124.72575       0.83404       0.80990    7192.69873    4192.69873    -999.25000    -999.25000
     680.50000     142.73822       1.95493      12.25000     133.45201       0.44672     239.27377     254.17778       0.42712      12.80053      12.80311    1339.80188      12.80182       5.53153      11.66907    -999.25000      66.71530      17.54754     277.07114     272.02777     121.82346       1.83696       0.86191    7215.18994    4215.18994    -999.25000    -999.25000
     680.00000     127.73412       2.02914      12.25000     132.60455       0.44354     239.45607     253.14801       0.42304      12.80268      12.80311    1361.64795      12.80290       6.54650      11.52779    -999.25000      66.93724      17.75252     280.09851     274.48676     119.75398       2.02377       0.91132    7225.37012    4225.37012    -999.25000    -999.25000
     679.50000     117.36376       2.15294      12.25000     131.86618       0.44050     239.64990     252.21579       0.42011      12.81118      12.81265    1379.47095      12.81191       7.61428      11.62811    -999.25000      67.43886      17.64459     280.00955     272.48407     118.27490       2.72419       0.92095    7228.82227    4228.82227    -999.25000    -999.25000
     679.00000     109.79626       2.31394      12.25000     131.12193       0.43768     239.85394     251.26747       0.41590      12.82183      12.82694    1380.94177      12.82439       7.83387      11.88347      67.92712      67.92712      17.64535     275.76950     267.20444     117.03318       3.15487       0.88209    7230.14063    4230.14063    -999.25000    -999.25000
