~VERSION INFORMATION 
VERS  .    2.0                                     :CWLS Log ASCII Standard - VERSION 2.0
WRAP  .    NO                                      :One Line per Depth step
PROD  .    Schlumberger Technology Corp.           :LAS Producer
PROG  .    Horizon LASWriter 3.1.9755.0            :LAS Program name and version
SOURCE.    3A-Log[4]/Up                            :Run&Pass Information
CREA  .    10/30/2012                              :LAS Creation date {MM/DD/YYYY}
#--------------------------------------------------
~WELL INFORMATION 
#MNEM           .UNIT                      DATA            :DESCRIPTION
#----            ------          --------------            -----------------------------
STRT            .ft                  5150.00000            :START DEPTH
STOP            .ft                  7238.00000            :STOP DEPTH
STEP            .ft                         0.5            :STEP
NULL            .                       -999.25            :NULL VALUE
COMP            .                   ADM COMPANY            :COMPANY
WELL            .                Verification Well #2      :WELL NAME
FLD             .                       Wildcat            :FIELD NAME
RIGN            .                                          :Rig Name
RIGTYP          .                                          :Rig Type
SON             .                    C5FX-00022            :Service Order Number
SRVC            .                  Schlumberger            :SERVICE COMPANY
DATE            .                    10/30/2012            :LOG DATE(Composite Date for Composite LAP) (MM/DD/YYYY)
CLAB            .                       County:            :County Label
CNTY            .                         Macon            :COUNTY
SLAB            .                        State:            :State/Province Label
STAT            .                      Illinois            :STATE or PROVINCE
PROV            .                      Illinois            :STATE or PROVINCE
CTRY            .                                          :COUNTRY
CONT_REGION     .                    N. America            :Continent Region
SECT            .                            32            :Section
TOWN            .                      17 North            :Township
RANG            .                        3 East            :Range
API             .                  121152355200            :API NUMBER
UWI             .                                          :UNIQUE WELL ID
LUL             .                        Weston            :Logging Unit Location
LUN             .                          3149            :Logging Unit Number
LOC             .                Lat: 39.8922313 Long: -88.89244449:FIELD LOCATION
FL1             .                248' South and 233' East rom NW corner of the:Field Location Line 1
FL2             .                NW/4, of the NE/4, of the NW/4, of Section 32:Field Location Line 2
LATI            .deg                  39.892231            :LATITUDE
LONG            .deg                 -88.892444            :LONGITUDE
PDAT            .                            GL            :Local Permanent Datum
LMF             .                            KB            :Logging Measured From
APD             .ft                    17.00000            :Elevation of Depth Reference (LMF) Above Permanent Datum
EPD             .ft                   686.49998            :Elevation of Permanent Datum (PDAT) above Mean Sea Level
EKB             .ft                    17.00000            :Elevation of Kelly Bushing Above Permanent Datum
EDF             .ft                     -999.25            :Elevation of Drill Floor Above Permanent Datum
EGL             .ft                     0.00000            :Elevation of Ground Level Above Permanent Datum
ECF             .ft                     -999.25            :Elevation of Casing Flange above Permanent Datum
#--------------------------------------------------
~CURVE INFORMATION
#MNEM           .UNIT                  API CODE            :DESCRIPTION
#----            ------          --------------            -----------------------------
DEPT            .ft                                        :                                                        Depth Index
RLA4            .ohm.m                                     :        (HRLT-B)                (2in)                   Apparent Resistivity from Computed Focusing Mode 4
CALI            .in                                        :        (HDRS-H)                (1in)                   Caliper
GR              .gAPI                                      :        (EDTC-B)                (6in)                   Gamma Ray
MRES            .ohm.m                                     :        (HRLT-B)                (2in)                   Mud Resistivity
RLA2            .ohm.m                                     :        (HRLT-B)                (2in)                   Apparent Resistivity from Computed Focusing Mode 2
RLA5            .ohm.m                                     :        (HRLT-B)                (2in)                   Apparent Resistivity from Computed Focusing Mode 5
TENS            .lbf                                       :        (WLWorkflow)            (1in)                   Cable Tension
RT              .ohm.m                                     :        (HRLT-B)                (2in)                   True Resistivity
RXOZ            .ohm.m                                     :        (HDRS-H)                (2in)                   Invaded Formation Resistivity filtered at 18 inches
SP              .mV                                        :        (SPE-A)                 (6in)                   Spontaneous Potential
RLA3            .ohm.m                                     :        (HRLT-B)                (2in)                   Apparent Resistivity from Computed Focusing Mode 3
RHOZ            .g/cm3                                     :        (HDRS-H)                (2in)                   Standard Resolution Formation Density
PEFZ            .                                          :        (HDRS-H)                (2in)                   Standard Resolution Formation Photoelectric Factor
NPHI            .ft3/ft3                                   :        (HGNS-H)                (6in)                   Thermal Neutron Porosity (original Ratio Method) in Selected Lithology
DPHZ            .ft3/ft3                                   :        (HDRS-H)                (2in)                   Standard Resolution Density Porosity
HDRA            .g/cm3                                     :        (HDRS-H)                (2in)                   Density Standoff Correction
#-------------------------------------------------------------
#            DEPT         RLA4         CALI           GR         MRES         RLA2         RLA5         TENS           RT         RXOZ           SP         RLA3         RHOZ         PEFZ         NPHI         DPHZ         HDRA 
#                     (HRLT-B)     (HDRS-H)     (EDTC-B)     (HRLT-B)     (HRLT-B)     (HRLT-B)  (WLWorkflo)     (HRLT-B)     (HDRS-H)      (SPE-A)     (HRLT-B)     (HDRS-H)     (HDRS-H)     (HGNS-H)     (HDRS-H)     (HDRS-H) 
#                                                                                                                                                                                                                                 
#                        (2in)        (1in)        (6in)        (2in)        (2in)        (2in)        (1in)        (2in)        (2in)        (6in)        (2in)        (2in)        (2in)        (6in)        (2in)        (2in) 
~ASCII
       5150.00000      0.02703      -999.25     19.27415      0.03593      0.03019      0.02828      -999.25      0.02828      -999.25      -999.25      0.02834      -999.25      -999.25      0.20347      -999.25      -999.25
       5150.50000      0.02712      3.34765     17.91290      0.03590      0.03022      0.02850   1922.00001      0.02850      0.11527   -164.86930      0.02840      2.38615     10.00000      0.19547      0.15991      0.15618
       5151.00000      0.02686      3.33655     17.36830      0.03592      0.02998      0.02804   1986.50017      0.02804      0.11539   -165.31820      0.02811      2.39061     10.00000      0.19619      0.15720      0.15217
       5151.50000      0.02591      3.33655     19.08221      0.03595      0.02879      0.02729   2020.99980      0.02729      0.11527   -164.63640      0.02710      2.39755     10.00000      0.18893      0.15300      0.15132
       5152.00000      0.02625      3.34765     20.59490      0.03600      0.02907      0.02775   1974.00012      0.02775      0.11602   -164.69320      0.02743      2.40310     10.00000      0.18384      0.14964      0.15301
       5152.50000      0.02668      3.34765     22.07491      0.03599      0.02957      0.02810   1996.50012      0.02810      0.11699   -164.35620      0.02790      2.40362     10.00000      0.18042      0.14932      0.15449
       5153.00000      0.02833      3.33655     21.45095      0.03592      0.03152      0.02955   1984.50005      0.02955      0.11838   -164.27840      0.02966      2.39871     10.00000      0.17857      0.15230      0.15347
       5153.50000      0.02853      3.32544     20.51069      0.03576      0.03183      0.02979   1931.00001      0.02979      0.11892   -164.33520      0.02988      2.39014     10.00000      0.17812      0.15749      0.14917
       5154.00000      0.02628      3.34765     20.35049      0.03574      0.02912      0.02782   1967.00002      0.02782      0.11986   -164.77270      0.02742      2.38081      9.98105      0.17171      0.16315      0.14349
       5154.50000      0.02647      3.32544     18.48912      0.03567      0.02933      0.02814   1989.00005      0.02814      0.12018   -164.56250      0.02756      2.38198      9.92302      0.17300      0.16243      0.14373
       5155.00000      0.02507      3.34765     17.91354      0.03552      0.02736      0.02714   1976.49999      0.02714      0.12076   -164.15000      0.02592      2.37870      9.85816      0.16462      0.16442      0.14486
       5155.50000      0.02782      3.35876     15.83025      0.03559      0.02987      0.03301   2003.00002      0.03301      0.12122   -164.59660      0.02848      2.37121      9.80658      0.16671      0.16896      0.14640
       5156.00000      0.02878      3.34765     15.57715      0.03542      0.03057      0.03494   1950.99992      0.03494      0.12203   -164.55110      0.02936      2.36347      9.77604      0.16119      0.17365      0.14806
       5156.50000      0.02817      3.34766     17.01012      0.03519      0.02995      0.03444   1963.50019      0.03444      0.12191   -164.86360      0.02871      2.36654      9.75027      0.16756      0.17180      0.15265
       5157.00000      0.03031      3.36987     17.67352      0.03512      0.03248      0.03663   1994.99997      0.03663      0.12221   -165.46020      0.03102      2.37706      9.75484      0.16807      0.16542      0.15964
       5157.50000      0.03048      3.34765     18.35403      0.03444      0.03183      0.04007   1953.00004      0.04007      0.12194   -165.97730      0.03074      2.38528      9.79920      0.17234      0.16044      0.16351
       5158.00000      0.02885      3.34765     18.18502      0.03435      0.02963      0.03943   1965.50009      0.03943      0.12225   -166.53750      0.02887      2.39012      9.86189      0.17175      0.15751      0.16453
       5158.50000      0.01462      3.33655     20.74580      0.03437      0.01467      0.01895   2013.00020      0.01895      0.12178   -167.23860      0.01460      2.39876      9.89562      0.18561      0.15227      0.16613
       5159.00000      0.02558      3.33655     21.49518      0.03438      0.02831      0.02701   1930.50004      0.02701      0.12207   -167.90910      0.02677      2.39850      9.90035      0.19284      0.15242      0.16552
       5159.50000      0.02783      3.35876     20.64776      0.03459      0.03118      0.02892   2012.00002      0.02892      0.12193   -167.68750      0.02920      2.40149      9.88973      0.19823      0.15061      0.16613
       5160.00000      0.02666      3.34765     18.59984      0.03465      0.02984      0.02775   1958.00002      0.02775      0.12224   -167.50570      0.02798      2.39547      9.88117      0.18844      0.15426      0.16213
       5160.50000      0.02719      3.34765     18.81565      0.03451      0.03063      0.02809   1949.50022      0.02809      0.12208   -166.68750      0.02856      2.39084      9.89463      0.18037      0.15706      0.15981
       5161.00000      0.02646      3.33655     20.27528      0.03439      0.02947      0.02762   1982.99990      0.02762      0.12167   -165.78410      0.02771      2.38258      9.92976      0.17976      0.16208      0.15654
       5161.50000      0.02596      3.34765     20.18600      0.03432      0.02900      0.02705   1927.00021      0.02705      0.12127   -165.88750      0.02720      2.37919      9.97054      0.18216      0.16413      0.15735
       5162.00000      0.02593      3.32544     20.22736      0.03447      0.02888      0.02722   1982.50015      0.02722      0.12068   -166.40340      0.02713      2.38284      9.99657      0.18814      0.16192      0.15950
       5162.50000      0.02736      3.34765     19.23138      0.03463      0.03054      0.02853   1977.99992      0.02853      0.12077   -166.08520      0.02875      2.38725     10.00000      0.18376      0.15925      0.16166
       5163.00000      0.02788      3.34765     21.08668      0.03464      0.03099      0.02903   1988.50007      0.02903      0.12099   -165.06250      0.02923      2.39534     10.00000      0.18588      0.15434      0.16400
       5163.50000      0.02725      3.33655     18.38025      0.03452      0.03043      0.02847   2020.00008      0.02847      0.12109   -164.32390      0.02855      2.39955     10.00000      0.18969      0.15179      0.16480
       5164.00000      0.02563      3.33655     20.11744      0.03442      0.02846      0.02687   1970.00009      0.02687      0.12113   -164.22160      0.02682      2.40474     10.00000      0.20006      0.14864      0.16725
       5164.50000      0.02496      3.33655     18.01991      0.03424      0.02757      0.02640   1982.50015      0.02640      0.12098   -164.49370      0.02605      2.40227     10.00000      0.21227      0.15014      0.16718
       5165.00000      0.02543      3.34765     18.24565      0.03416      0.02809      0.02688   1986.99992      0.02688      0.12096   -164.45450      0.02657      2.39744     10.00000      0.21478      0.15307      0.16685
       5165.50000      0.02505      3.35876     16.05523      0.03420      0.02766      0.02651   1985.00002      0.02651      0.12012   -164.25570      0.02616      2.39403     10.00000      0.20911      0.15513      0.16468
       5166.00000      0.02604      3.34765     17.81729      0.03420      0.02885      0.02728   1983.99985      0.02728      0.11916   -164.07950      0.02721      2.40579     10.00000      0.19777      0.14801      0.16959
       5166.50000      0.02788      3.34765     19.19725      0.03411      0.03125      0.02901   1973.00017      0.02901      0.11787   -164.05110      0.02922      2.41767     10.00000      0.19261      0.14081      0.17569
       5167.00000      0.02786      3.33655     21.85159      0.03402      0.03123      0.02872   1990.00000      0.02872      0.11685   -164.31820      0.02927      2.43354     10.00000      0.18399      0.13119      0.18461
       5167.50000      0.02619      3.33655     20.39617      0.03407      0.02925      0.02737   1983.99985      0.02737      0.11602   -164.33750      0.02747      2.43507     10.00000      0.17927      0.13026      0.18554
