~VERSION
 VERS.        2.00                                                                   :CWLS LOG ASCII STANDARD
 WRAP.        NO                                                                     :NO WRAP PERFORMED
 PROD.        Schlumberger                                                           :LAS Producer
 CREA.        11/5/2012                                         :LAS Creation Date and time
~Well
#MNEM.UNIT    VALUE                                                                   :DESCRIPTION
#----.----    ---------------                                                        :-------------------
 STRT.F       7170.000                                                               :START DEPTH
 STOP.F       5320.000                                                               :STOP  DEPTH
 STEP.F       -0.500                                                                 :DEPTH STEP
 NULL.        -999.250                                                               :NULL VALUE
 COMP.        ADM COMPANY                                       :COMPANY NAME
 WELL.        Verification Well #2                              :WELL NAME
 FLD.         Wildcat                                           :FIELD NAME
 API.         121152355200                                                           :API NUMBER
 CNTY.        Macon                                                                  :COUNTY
 STAT.        Illinois                                                               :STATE
 CTRY.        US                                                                     :COUNTRY
 LOC.         Lat: 39.8922313 Long: -88.8924449                                      :WELL SURFACE LOCATION LINE 1
 LOC2.        248' South and 233' East From NW corner of the                         :WELL SURFACE LOCATION LINE 2
 LOC3.        NW/4, of the NE/4, of the NW/4, of Section 32                          :WELL SURFACE LOCATION LINE 3
 SECT.        32                                                                     :SECTION
 TOWN.        17 North                                                               :TOWNSHIP
 RANG.        3 East                                                                 :RANGE
 LATI.        39.892231 degrees                                                      :Latitude
 LONG.        -88.892444 degrees                                                     :Longitude
 DATE.        2012/10/31                                                             :LOGGING DATE
 SRVC.        Schlumberger                                                           :SERVICE COMPANY
~Parameter
#MNEM.UNIT    VALUE                                                                  :DESCRIPTION
#----.----    ---------------                                                        :-------------------
 APD.F        17.000                                                                 :Elevation of depth reference above permanent datum
 EDF.F        -999.250                                                               :Elevation of Derrick Floor
 EGL.F        686.500                                                                :Elevation of Ground Level
 EKB.F        703.500                                                                :Elevation of Kelly Bushing
 EPD.F        686.500                                                                :Elevation of Permnaent Datum
 LMF.         Kelly Bushing                                                          :Logging Measured From
 PDAT.        Ground Level                                                           :Permanent Datum
 TDD.F        7225.000                                                               :Total Depth Driller
 TDL.F        7223.000                                                               :Total Depth Logger
 BS.IN        8.500                                                                  :Bit Size
 R1.                                                                                 :REMARK 1
 R2.                                                                                 :REMARK 2
 R3.                                                                                 :REMARK 3
 R4.                                                                                 :REMARK 4
 R5.                                                                                 :REMARK 5
 R6.                                                                                 :REMARK 6
 R7.                                                                                 :REMARK 7
 R8.                                                                                 :REMARK 8
 R9.                                                                                 :REMARK 9
 R10.                                                                                :REMARK 10
 DCS_CENTER.  Denver                                                                 :Schlumberger DCS Center
 LOG_ANALYST. Oliver                                                                 :Log Analyst Name
 ENG.         Beth DiBella                                                           :Field Engineer Name
 GF_BASELINE. 45                                                                     :GeoFrame Baseline
~Curve
#MNEM.UNIT                                                                           :DESCRIPTION
#----.----                                                                           :--------------------------------
 DEPT.F                                                                              :Depth Index
 GR.GAPI                                                                             : 1 Gamma Ray                                                                                 
 RHOZ.G/C3                                                                           : 2 HRDD Standard Resolution Formation Density                                                
 BS.IN                                                                               : 3 Bit Size                                                                                  
 P1AZ.DEG                                                                            : 4 Pad 1 Azimuth in Horizontal Plane (0 = True North)                                        
 SDEVM.DEG                                                                           : 5 Memorized Sonde Deviation                                                                 
 HAZIM.DEG                                                                           : 6 Memorized Hole Azimuth Relative to True North                                             
 RB.DEG                                                                              : 7 Relative Bearing                                                                          
 DEVI.DEG                                                                            : 8 Hole Deviation                                                                            
 HD1_PPC1.IN                                                                         : 9 PPC1 Hole Diameter 1                                                                      
 HD2_PPC1.IN                                                                         :10 PPC1 Hole Diameter 2                                                                      
 TENS.LBS                                                                            :11 Cable Tension                                                                             
 HDAR.IN                                                                             :12 Hole Diameter from Area                                                                   
 MINXENE_OVERALL.                                                                    :13 Overall estimate of minimum cross energy                                                  
 MAXXENE_OVERALL.                                                                    :14 Overall estimate of maximum cross energy                                                  
 FSH_AZIM_OVERALL_FILT.DEG                                                           :15 Overall estimate of fast shear azimuth filtered                                           
 FSH_AZIM_OVERALL.DEG                                                                :16 Overall estimate of fast shear azimuth                                                    
 FSH_AZIM_ERR.DEG                                                                    :17 Fast shear azimuth error                                                                  
 DTSM_SLOW.US/F                                                                      :18 Shear Slowness of Slow Shear Waves                                                        
 DTSM_FAST.US/F                                                                      :19 Shear Slowness of Fast Shear Waves                                                        
 DTCO.US/F                                                                           :20 Delta-T Compressional                                                                     
 SLOANI.                                                                             :21 Slowness based anisotropy                                                                 
 TIMANI.                                                                             :22 Time based anisotropy                                                                     
 TWE.US                                                                              :23 Time window end                                                                           
 TWB.US                                                                              :24 Time window begin                                                                         
~Ascii   DEPT            GR          RHOZ            BS          P1AZ         SDEVM         HAZIM            RB          DEVI      HD1_PPC1      HD2_PPC1          TENS          HDAR  MINXENE_OVER  MAXXENE_OVER  FSH_AZIM_OVE  FSH_AZIM_OVE  FSH_AZIM_ERR     DTSM_SLOW     DTSM_FAST          DTCO        SLOANI        TIMANI           TWE           TWB
# ...
    5824.50000      34.78206       2.43964      17.50000     225.78024       1.47321     277.61755     308.17191       1.49543       8.53095       8.44377    2685.75000       8.48736       0.48502       9.19224      68.94815      68.94815       2.13843     113.38062     108.65151      67.55550       4.25984       1.50943    4439.73682    2039.73682
    5824.00000      34.30228       2.42678      17.50000     226.53969       1.46584     277.58142     308.96744       1.48885       8.54161       8.43976    2581.00000       8.49069       0.49755       9.04180      69.10641      69.10641       2.17042     113.48890     108.90389      67.78219       4.12334       1.51251    4439.67529    2039.67529
    5823.50000      33.03893       2.41037      17.50000     227.00674       1.45874     277.53180     309.48407       1.48153       8.57650       8.45663    2616.00000       8.51656       0.51036       8.89066      69.17107      69.17107       2.22253     113.36988     108.79190      67.77966       4.12130       1.50979    4439.13867    2039.13867
    5823.00000      29.33335       2.41341      17.50000     227.64804       1.45189     277.49512     310.16199       1.47550       8.55280       8.42711    2622.25000       8.48995       0.52234       8.81047      69.26782      69.26782       2.20397     112.93119     108.14223      67.73938       4.33246       1.51054    4437.37402    2037.37427
    5822.50000      30.12177       2.41957      17.50000     227.95915       1.44525     277.43460     310.53354       1.46950       8.52956       8.43997    2546.25024       8.48477       0.53293       8.84026      69.39034      69.39034       2.10669     112.45352     107.46258      68.20515       4.53895       1.52533    4434.32617    2034.32617
    5822.00000      37.14676       2.42846      17.50000     228.19507       1.43879     277.38245     310.82156       1.46351       8.48437       8.43997    2567.00000       8.46217       0.55143       8.87777      69.33846      69.33846       2.00745     112.23091     106.97523      69.05556       4.79519       1.53737    4430.48096    2030.48096
    5821.50000      40.16304       2.42271      17.50000     228.60054       1.43245     277.30499     311.30441       1.45661       8.49557       8.42711    2605.50000       8.46134       0.58557       8.96688      69.10506      69.10506       1.98624     112.06303     106.67081      69.23922       4.93039       1.55259    4426.77637    2026.77637
    5821.00000      37.52452       2.42689      17.50000     229.33282       1.42621     277.21866     312.12299       1.45067       8.49557       8.42711    2633.33325       8.46134       0.63062       9.08725      68.70155      68.70155       2.09912     111.82072     106.55993      68.16882       4.81800       1.56666    4424.29492    2024.29517
    5820.50000      33.26863       2.44113      17.50000     230.30128       1.42001     277.13184     313.17822       1.44493       8.49557       8.41423    2544.75000       8.45490       0.66185       9.20166      68.15161      68.15161       2.36816     111.22056     106.29866      66.47095       4.52548       1.57399    4423.10938    2023.10913
    5820.00000      45.50003       2.46617      17.50000     230.87268       1.41381     277.04623     313.83517       1.43917       8.53000       8.41423    2509.50000       8.47212       0.67102       9.35160      67.66251      67.66251       2.57067     110.40035     105.68739      65.66471       4.36208       1.58384    4422.73438    2022.73438
    5819.50000      64.92800       2.47119      17.50000     231.52522       1.40756     276.98233     314.55154       1.43283       8.51838       8.41423    2538.50000       8.46631       0.67992       9.51977      67.34985      67.34985       2.55259     109.85207     105.25515      66.50035       4.27408       1.59466    4422.53809    2022.53796
    5819.00000      85.84094       2.46950      17.50000     231.75864       1.40121     276.93509     314.83212       1.42710       8.58676       8.42688    2674.00000       8.50682       0.69633       9.72116      67.03749      67.03749       2.46465     109.37833     104.85704      67.42455       4.22086       1.61135    4422.00000    2021.99988
    5818.50000      73.69906       2.46704      17.50000     232.27776       1.39472     276.89993     315.38629       1.42117       8.53095       8.41827    2515.75000       8.47461       0.70878       9.95979      66.52596      66.52596       2.45725     108.74586     104.12807      66.67522       4.33851       1.63715    4420.93506    2020.93506
    5818.00000      55.02140       2.48096      17.50000     232.69403       1.38807     276.92203     315.78040       1.41423       8.50719       8.42711    2542.00000       8.46715       0.71244      10.18075      65.91742      65.91742       2.49071     107.89351     103.09769      64.59132       4.54599       1.66217    4419.55762    2019.55762
    5817.50000      32.53070       2.50259      17.50000     233.06844       1.38126     276.95654     316.12021       1.40760       8.49698       8.43113    2589.25024       8.46406       0.71141      10.37975      65.32767      65.32767       2.47215     106.99471     102.31664      62.81676       4.46996       1.68635    4418.25098    2018.25134
    5817.00000      31.23914       2.51292      17.50000     233.57520       1.37432     277.02875     316.55466       1.40034       8.50692       8.46502    2580.66675       8.48597       0.70603      10.59098      64.78223      64.78223       2.40260     106.32578     102.07854      62.38431       4.07596       1.71195    4417.61914    2017.61902
    5816.50000      48.01513       2.51336      17.50000     233.88168       1.36732     277.13156     316.75827       1.39298       8.50740       8.46616    2700.16675       8.48678       0.69526      10.79127      64.42465      64.42465       2.31660     106.04662     102.13427      62.60588       3.75860       1.73642    4418.10352    2018.10364
    5816.00000      77.26591       2.52324      17.50000     234.19981       1.36035     277.26233     316.94556       1.38402       8.53759       8.49084    2632.75000       8.51422       0.68361      10.94983      64.26282      64.26282       2.26107     106.06260     102.14710      63.00916       3.76111       1.75654    4419.15918    2019.15955
    5815.50000     101.12141       2.53901      17.50000     235.63206       1.35352     277.41565     318.22437       1.37681       8.54013       8.50350    2541.50000       8.52182       0.69823      10.99603      64.03479      64.03479       2.44437     106.19901     101.98475      63.29824       4.04859       1.76350    4420.30127    2020.30151
    5815.00000     104.15274       2.56721      17.50000     236.32875       1.34691     277.58124     318.75534       1.37005       8.50972       8.48655    2576.41675       8.49814       0.73354      11.01270      63.78458      63.78458       2.71157     106.14447     101.92046      63.46168       4.06028       1.76992    4420.85791    2020.85815
    5814.50000      87.30768       2.55899      17.50000     236.55034       1.34060     277.74863     318.80951       1.36401       8.49198       8.45269    2605.25000       8.47233       0.75624      11.08299      63.56606      63.56606       2.81916     105.93291     101.95577      63.64342       3.82622       1.78837    4420.64893    2020.64917
    5814.00000      65.52438       2.55090      17.50000     237.58553       1.33464     277.90857     319.68460       1.35821       8.50460       8.42711    2581.41675       8.46586       0.76487      11.17117      63.25846      63.25846       2.83326     105.75119     101.93102      63.89392       3.67886       1.81207    4420.34863    2020.34888
    5813.50000      51.46559       2.52646      17.50000     238.21429       1.32902     278.04300     320.17889       1.35344       8.49557       8.42994    2579.75000       8.46276       0.76549      11.33438      63.06182      63.06182       2.85222     105.71151     101.84740      64.04248       3.72339       1.84391    4421.14990    2021.15015
