~VERSION
 VERS.        2.00                                                                   :CWLS LOG ASCII STANDARD
 WRAP.        NO                                                                     :NO WRAP PERFORMED
 PROD.        Schlumberger                                                           :LAS Producer
 CREA.        11/5/2012                                         :LAS Creation Date and time
~Well
#MNEM.UNIT    VALUE                                                                   :DESCRIPTION
#----.----    ---------------                                                        :-------------------
 STRT.F       7170.000                                                               :START DEPTH
 STOP.F       5320.000                                                               :STOP  DEPTH
 STEP.F       -0.500                                                                 :DEPTH STEP
 NULL.        -999.250                                                               :NULL VALUE
 COMP.        ADM COMPANY                                       :COMPANY NAME
 WELL.        Verification Well #2                              :WELL NAME
 FLD.         Wildcat                                           :FIELD NAME
 API.         121152355200                                                           :API NUMBER
 CNTY.        Macon                                                                  :COUNTY
 STAT.        Illinois                                                               :STATE
 CTRY.        US                                                                     :COUNTRY
 LOC.         Lat: 39.8922313 Long: -88.8924449                                      :WELL SURFACE LOCATION LINE 1
 LOC2.        248' South and 233' East From NW corner of the                         :WELL SURFACE LOCATION LINE 2
 LOC3.        NW/4, of the NE/4, of the NW/4, of Section 32                          :WELL SURFACE LOCATION LINE 3
 SECT.        32                                                                     :SECTION
 TOWN.        17 North                                                               :TOWNSHIP
 RANG.        3 East                                                                 :RANGE
 LATI.        39.892231 degrees                                                      :Latitude
 LONG.        -88.892444 degrees                                                     :Longitude
 DATE.        2012/10/31                                                             :LOGGING DATE
 SRVC.        Schlumberger                                                           :SERVICE COMPANY
~Parameter
#MNEM.UNIT    VALUE                                                                  :DESCRIPTION
#----.----    ---------------                                                        :-------------------
 APD.F        17.000                                                                 :Elevation of depth reference above permanent datum
 EDF.F        -999.250                                                               :Elevation of Derrick Floor
 EGL.F        686.500                                                                :Elevation of Ground Level
 EKB.F        703.500                                                                :Elevation of Kelly Bushing
 EPD.F        686.500                                                                :Elevation of Permnaent Datum
 LMF.         Kelly Bushing                                                          :Logging Measured From
 PDAT.        Ground Level                                                           :Permanent Datum
 TDD.F        7225.000                                                               :Total Depth Driller
 TDL.F        7223.000                                                               :Total Depth Logger
 BS.IN        8.500                                                                  :Bit Size
 R1.                                                                                 :REMARK 1
 R2.                                                                                 :REMARK 2
 R3.                                                                                 :REMARK 3
 R4.                                                                                 :REMARK 4
 R5.                                                                                 :REMARK 5
 R6.                                                                                 :REMARK 6
 R7.                                                                                 :REMARK 7
 R8.                                                                                 :REMARK 8
 R9.                                                                                 :REMARK 9
 R10.                                                                                :REMARK 10
 DCS_CENTER.  Denver                                                                 :Schlumberger DCS Center
 LOG_ANALYST. Oliver                                                                 :Log Analyst Name
 ENG.         Beth DiBella                                                           :Field Engineer Name
 GF_BASELINE. 45                                                                     :GeoFrame Baseline
~Curve
#MNEM.UNIT                                                                           :DESCRIPTION
#----.----                                                                           :--------------------------------
 DEPT.F                                                                              :Depth Index
 GR.GAPI                                                                             : 1 Gamma Ray                                                                                 
 RHOZ.G/C3                                                                           : 2 HRDD Standard Resolution Formation Density                                                
 BS.IN                                                                               : 3 Bit Size                                                                                  
 P1AZ.DEG                                                                            : 4 Pad 1 Azimuth in Horizontal Plane (0 = True North)                                        
 SDEVM.DEG                                                                           : 5 Memorized Sonde Deviation                                                                 
 HAZIM.DEG                                                                           : 6 Memorized Hole Azimuth Relative to True North                                             
 RB.DEG                                                                              : 7 Relative Bearing                                                                          
 DEVI.DEG                                                                            : 8 Hole Deviation                                                                            
 HD1_PPC1.IN                                                                         : 9 PPC1 Hole Diameter 1                                                                      
 HD2_PPC1.IN                                                                         :10 PPC1 Hole Diameter 2                                                                      
 TENS.LBS                                                                            :11 Cable Tension                                                                             
 HDAR.IN                                                                             :12 Hole Diameter from Area                                                                   
 MINXENE_OVERALL.                                                                    :13 Overall estimate of minimum cross energy                                                  
 MAXXENE_OVERALL.                                                                    :14 Overall estimate of maximum cross energy                                                  
 FSH_AZIM_OVERALL_FILT.DEG                                                           :15 Overall estimate of fast shear azimuth filtered                                           
 FSH_AZIM_OVERALL.DEG                                                                :16 Overall estimate of fast shear azimuth                                                    
 FSH_AZIM_ERR.DEG                                                                    :17 Fast shear azimuth error                                                                  
 DTSM_SLOW.US/F                                                                      :18 Shear Slowness of Slow Shear Waves                                                        
 DTSM_FAST.US/F                                                                      :19 Shear Slowness of Fast Shear Waves                                                        
 DTCO.US/F                                                                           :20 Delta-T Compressional                                                                     
 SLOANI.                                                                             :21 Slowness based anisotropy                                                                 
 TIMANI.                                                                             :22 Time based anisotropy                                                                     
 TWE.US                                                                              :23 Time window end                                                                           
 TWB.US                                                                              :24 Time window begin                                                                         
~Ascii   DEPT            GR          RHOZ            BS          P1AZ         SDEVM         HAZIM            RB          DEVI      HD1_PPC1      HD2_PPC1          TENS          HDAR  MINXENE_OVER  MAXXENE_OVER  FSH_AZIM_OVE  FSH_AZIM_OVE  FSH_AZIM_ERR     DTSM_SLOW     DTSM_FAST          DTCO        SLOANI        TIMANI           TWE           TWB
# ...
    5939.50000      24.73997       2.44620      17.50000      68.90098       1.69428     291.80606     137.10741       1.66932       9.15297       8.78327    2573.75000       8.96812       1.09592       6.90953    -999.25000      57.46017       5.47079     109.92233     109.04857      68.61053       0.79806       0.98991    4421.06104    2021.06091
    5939.00000      24.21632       2.44646      17.50000      68.89845       1.69319     291.69803     137.21289       1.66855       9.16358       8.82139    2554.80029       8.99249       1.09772       6.90664    -999.25000      57.10691       5.46655     109.83357     108.93427      69.16791       0.82216       1.01130    4424.89941    2024.89941
    5938.50000      23.75458       2.46624      17.50000      69.04163       1.69191     291.58585     137.46823       1.66746       9.15297       8.83395    2712.00000       8.99346       1.08869       6.82756    -999.25000      56.81356       5.50750     109.24543     108.18829      68.82333       0.97238       1.02792    4426.26416    2026.26392
    5938.00000      24.47537       2.48442      17.50000      69.17254       1.69041     291.46146     137.72350       1.66571       9.15297       8.82139    2670.50024       8.98718       1.06329       6.59368    -999.25000      56.48185       5.66876     108.59480     107.33923      67.96377       1.16292       1.02545    4425.79883    2025.79858
    5937.50000      26.71845       2.49519      17.50000      69.37012       1.68866     291.33295     138.04955       1.66387       9.17507       8.84673    2710.00000       9.01090       1.08265       6.32964    -999.25000      56.21680       6.04314     108.02731     106.65585      66.91737       1.27765       0.99765    4424.41309    2024.41309
    5937.00000      27.94645       2.49292      17.50000      69.42601       1.68668     291.20123     138.23711       1.66139       9.18656       8.85949    2724.50000       9.02303       1.12417       6.30473    -999.25000      56.22952       6.29223     107.22914     105.82403      65.80281       1.31903       0.98821    4422.86621    2022.86597
    5936.50000      26.65697       2.50431      17.50000      69.76968       1.68449     291.06635     138.71561       1.65869       9.15297       8.80882    2660.00000       8.98090       1.14012       6.44473    -999.25000      56.27322       6.28838     106.01140     104.65242      64.48761       1.29019       1.01437    4421.10596    2021.10620
    5936.00000      26.03047       2.51432      17.50000      69.71771       1.68213     290.91711     138.81285       1.65596       9.18625       8.75442    2703.00000       8.97033       1.16334       6.55806    -999.25000      56.00859       6.36507     104.61716     103.20734      63.17178       1.35674       1.04474    4419.16504    2019.16479
    5935.50000      25.13715       2.52986      17.50000      69.80839       1.67964     290.77167     139.04890       1.65328       9.18656       8.72015    2746.00000       8.95336       1.19413       6.72638    -999.25000      55.72383       6.43723     103.46747     101.79656      62.40715       1.62806       1.07908    4417.01758    2017.01782
    5935.00000      25.24972       2.53694      17.50000      69.61605       1.67707     290.63013     138.99808       1.65015       9.18656       8.72015    2721.19995       8.95336       1.20110       6.89805    -999.25000      55.60334       6.44094     102.92220     100.88569      62.38464       1.99846       1.11184    4414.45898    2014.45898
    5934.50000      24.99730       2.53444      17.50000      69.89274       1.67445     290.47458     139.43025       1.64767       9.17551       8.72034    2626.00000       8.94792       1.20042       7.06094    -999.25000      55.54840       6.41383     102.94080     100.82961      63.04721       2.07213       1.13835    4411.73828    2011.73853
    5934.00000      26.03745       2.51830      17.50000      69.79074       1.67183     290.32858     139.47420       1.64498       9.17594       8.69495    2773.00000       8.93544       1.20068       7.26370    -999.25000      55.34612       6.37161     103.42329     101.53716      64.16415       1.84048       1.16647    4409.33691    2009.33716
    5933.50000      28.28452       2.51203      17.50000      69.96894       1.66924     290.16650     139.81441       1.64250       9.19805       8.70755    2648.50000       8.95280       1.19204       7.50108    -999.25000      55.00494       6.27673     104.16652     102.55667      64.89642       1.55749       1.19666    4407.59277    2007.59265
    5933.00000      31.89336       2.53423      17.50000      70.14970       1.66671     290.01465     140.14697       1.63978       9.18732       8.71129    2710.33325       8.94930       1.20322       7.88446    -999.25000      54.55971       6.13814     105.03445     103.56794      64.73640       1.40603       1.23761    4406.53223    2006.53247
    5932.50000      34.86145       2.56202      17.50000      70.17141       1.66425     289.85730     140.32599       1.63722       9.17594       8.70755    2712.75000       8.94175       1.23509       8.41481    -999.25000      54.19506       5.94771     105.92564     104.55184      64.33279       1.30541       1.29631    4406.08887    2006.08887
    5932.00000      37.71243       2.56497      17.50000      70.31419       1.66188     289.70511     140.62091       1.63477       9.17594       8.70755    2556.25000       8.94175       1.22307       8.91566    -999.25000      54.06841       5.53316     106.99210     105.60662      64.27666       1.30337       1.37110    4406.67920    2006.67920
    5931.50000      38.68171       2.53178      17.50000      70.40605       1.65961     289.56235     140.85547       1.63234       9.17594       8.70755    2631.50000       8.94175       1.17427       9.08928    -999.25000      53.80252       5.22229     108.17293     106.63736      64.79099       1.42970       1.41422    4408.58691    2008.58667
    5931.00000      39.68134       2.50112      17.50000      70.60146       1.65743     289.42297     141.19020       1.63030       9.18774       8.72406    2626.50000       8.95590       1.14233       9.01763    -999.25000      53.51284       5.15732     108.96970     107.46246      65.93124       1.39281       1.40505    4411.36816    2011.36792
    5930.50000      37.25259       2.48655      17.50000      70.99805       1.65535     289.29141     141.71826       1.62839       9.17594       8.69495    2606.66675       8.93544       1.12254       8.99435    -999.25000      53.52224       5.05827     109.14642     107.93216      67.09628       1.11873       1.39000    4414.29980    2014.29968
    5930.00000      36.43957       2.48896      17.50000      71.21960       1.65335     289.16739     142.06378       1.62661       9.16446       8.70755    2652.25000       8.93600       1.10488       8.94477    -999.25000      53.60962       5.00702     108.92552     107.92045      67.51045       0.92699       1.37452    4416.67676    2016.67664
    5929.50000      34.74519       2.49238      17.50000      71.85117       1.65141     289.05338     142.80925       1.62481       9.16488       8.70755    2702.50000       8.93622       1.10006       8.88274    -999.25000      53.55094       5.03242     108.40555     107.48634      67.34653       0.85154       1.35735    4418.35840    2018.35815
    5929.00000      35.20575       2.49775      17.50000      72.49791       1.64951     288.94769     143.56155       1.62321       9.15340       8.70774    2611.00000       8.93057       1.10581       8.80733    -999.25000      53.42851       5.08075     107.80571     106.79623      66.74272       0.94080       1.34066    4419.29004    2019.28992
    5928.50000      33.96927       2.51247      17.50000      73.03140       1.64764     288.85458     144.18806       1.62149       9.10871       8.66954    2578.50024       8.88912       1.12368       8.69334    -999.25000      53.45903       5.17225     107.07381     105.80267      65.67436       1.19425       1.31969    4419.64551    2019.64551
