~VERSION
 VERS.        2.00                                                                   :CWLS LOG ASCII STANDARD
 WRAP.        NO                                                                     :NO WRAP PERFORMED
 PROD.        Schlumberger                                                           :LAS Producer
 CREA.        11/5/2012                                         :LAS Creation Date and time
~Well
#MNEM.UNIT    VALUE                                                                   :DESCRIPTION
#----.----    ---------------                                                        :-------------------
 STRT.F       7170.000                                                               :START DEPTH
 STOP.F       5320.000                                                               :STOP  DEPTH
 STEP.F       -0.500                                                                 :DEPTH STEP
 NULL.        -999.250                                                               :NULL VALUE
 COMP.        ADM COMPANY                                       :COMPANY NAME
 WELL.        Verification Well #2                              :WELL NAME
 FLD.         Wildcat                                           :FIELD NAME
 API.         121152355200                                                           :API NUMBER
 CNTY.        Macon                                                                  :COUNTY
 STAT.        Illinois                                                               :STATE
 CTRY.        US                                                                     :COUNTRY
 LOC.         Lat: 39.8922313 Long: -88.8924449                                      :WELL SURFACE LOCATION LINE 1
 LOC2.        248' South and 233' East From NW corner of the                         :WELL SURFACE LOCATION LINE 2
 LOC3.        NW/4, of the NE/4, of the NW/4, of Section 32                          :WELL SURFACE LOCATION LINE 3
 SECT.        32                                                                     :SECTION
 TOWN.        17 North                                                               :TOWNSHIP
 RANG.        3 East                                                                 :RANGE
 LATI.        39.892231 degrees                                                      :Latitude
 LONG.        -88.892444 degrees                                                     :Longitude
 DATE.        2012/10/31                                                             :LOGGING DATE
 SRVC.        Schlumberger                                                           :SERVICE COMPANY
~Parameter
#MNEM.UNIT    VALUE                                                                  :DESCRIPTION
#----.----    ---------------                                                        :-------------------
 APD.F        17.000                                                                 :Elevation of depth reference above permanent datum
 EDF.F        -999.250                                                               :Elevation of Derrick Floor
 EGL.F        686.500                                                                :Elevation of Ground Level
 EKB.F        703.500                                                                :Elevation of Kelly Bushing
 EPD.F        686.500                                                                :Elevation of Permnaent Datum
 LMF.         Kelly Bushing                                                          :Logging Measured From
 PDAT.        Ground Level                                                           :Permanent Datum
 TDD.F        7225.000                                                               :Total Depth Driller
 TDL.F        7223.000                                                               :Total Depth Logger
 BS.IN        8.500                                                                  :Bit Size
 R1.                                                                                 :REMARK 1
 R2.                                                                                 :REMARK 2
 R3.                                                                                 :REMARK 3
 R4.                                                                                 :REMARK 4
 R5.                                                                                 :REMARK 5
 R6.                                                                                 :REMARK 6
 R7.                                                                                 :REMARK 7
 R8.                                                                                 :REMARK 8
 R9.                                                                                 :REMARK 9
 R10.                                                                                :REMARK 10
 DCS_CENTER.  Denver                                                                 :Schlumberger DCS Center
 LOG_ANALYST. Oliver                                                                 :Log Analyst Name
 ENG.         Beth DiBella                                                           :Field Engineer Name
 GF_BASELINE. 45                                                                     :GeoFrame Baseline
~Curve
#MNEM.UNIT                                                                           :DESCRIPTION
#----.----                                                                           :--------------------------------
 DEPT.F                                                                              :Depth Index
 GR.GAPI                                                                             : 1 Gamma Ray                                                                                 
 RHOZ.G/C3                                                                           : 2 HRDD Standard Resolution Formation Density                                                
 BS.IN                                                                               : 3 Bit Size                                                                                  
 P1AZ.DEG                                                                            : 4 Pad 1 Azimuth in Horizontal Plane (0 = True North)                                        
 SDEVM.DEG                                                                           : 5 Memorized Sonde Deviation                                                                 
 HAZIM.DEG                                                                           : 6 Memorized Hole Azimuth Relative to True North                                             
 RB.DEG                                                                              : 7 Relative Bearing                                                                          
 DEVI.DEG                                                                            : 8 Hole Deviation                                                                            
 HD1_PPC1.IN                                                                         : 9 PPC1 Hole Diameter 1                                                                      
 HD2_PPC1.IN                                                                         :10 PPC1 Hole Diameter 2                                                                      
 TENS.LBS                                                                            :11 Cable Tension                                                                             
 HDAR.IN                                                                             :12 Hole Diameter from Area                                                                   
 MINXENE_OVERALL.                                                                    :13 Overall estimate of minimum cross energy                                                  
 MAXXENE_OVERALL.                                                                    :14 Overall estimate of maximum cross energy                                                  
 FSH_AZIM_OVERALL_FILT.DEG                                                           :15 Overall estimate of fast shear azimuth filtered                                           
 FSH_AZIM_OVERALL.DEG                                                                :16 Overall estimate of fast shear azimuth                                                    
 FSH_AZIM_ERR.DEG                                                                    :17 Fast shear azimuth error                                                                  
 DTSM_SLOW.US/F                                                                      :18 Shear Slowness of Slow Shear Waves                                                        
 DTSM_FAST.US/F                                                                      :19 Shear Slowness of Fast Shear Waves                                                        
 DTCO.US/F                                                                           :20 Delta-T Compressional                                                                     
 SLOANI.                                                                             :21 Slowness based anisotropy                                                                 
 TIMANI.                                                                             :22 Time based anisotropy                                                                     
 TWE.US                                                                              :23 Time window end                                                                           
 TWB.US                                                                              :24 Time window begin                                                                         
~Ascii   DEPT            GR          RHOZ            BS          P1AZ         SDEVM         HAZIM            RB          DEVI      HD1_PPC1      HD2_PPC1          TENS          HDAR  MINXENE_OVER  MAXXENE_OVER  FSH_AZIM_OVE  FSH_AZIM_OVE  FSH_AZIM_ERR     DTSM_SLOW     DTSM_FAST          DTCO        SLOANI        TIMANI           TWE           TWB
# ...
    5330.00000     167.28592       2.69967      17.50000      62.35356       0.18682     181.54834     240.80508       0.19626       9.25499      10.39479    2479.00000       9.82489       1.08490      34.69197    -999.25000      87.35838       2.78056     118.07385     118.06274      68.02974       0.00941       3.45421    4663.07861    2263.07861
    5329.50000     167.38896       2.65269      17.50000      53.26871       0.18808     176.80408     236.46448       0.19760       9.20146      10.24505    2427.22339       9.72326       1.08511      34.42973    -999.25000      87.34700       2.81397     120.45991     120.88674      68.81306      -0.35371       3.42224    4668.35254    2268.35278
    5329.00000     171.19061       2.60290      17.50000      55.84322       0.18972     172.28032     243.56277       0.19929       9.18821      10.23492    2423.56641       9.71156       1.06453      33.76463    -999.25000      87.39815       2.79826     122.87089     123.58057      68.13042      -0.57592       3.35493    4673.61768    2273.61768
    5328.50000     174.87424       2.57814      17.50000      42.98281       0.19156     168.12045     234.86221       0.20094       9.17769      10.21378    2393.10571       9.69573       1.01811      32.56317    -999.25000      87.67792       2.62682     125.18782     125.97464      67.61849      -0.62654       3.24751    4679.69727    2279.69775
    5328.00000     175.94197       2.58482      17.50000      42.74700       0.19343     164.41988     238.32697       0.20254       9.17594      10.18246    2400.56250       9.67920       0.94804      31.12353    -999.25000      87.70889       2.67004     127.18520     128.19234      68.81084      -0.78874       3.12344    4687.60156    2287.60156
    5327.50000     171.31754       2.59621      17.50000      42.75637       0.19521     161.19032     241.56592       0.20406       9.17594      10.21904    2471.90674       9.69749       0.92930      29.79599    -999.25000      87.08640       3.31338     128.57471     130.15898      70.44128      -1.22464       3.01071    4697.51270    2297.51270
    5327.00000     161.97125       2.61728      17.50000      42.76818       0.19684     158.49303     244.27502       0.20553       9.15265      10.10773    2405.52783       9.63019       1.07230      28.36278    -999.25000      86.42163       4.22479     129.18546     130.79102      70.80389      -1.23516       2.90734    4708.28320    2308.28296
    5326.50000     153.15533       2.61196      17.50000      42.77152       0.19829     156.33536     246.43604       0.20659       9.14214      10.03496    2395.62451       9.58855       1.31752      26.35752    -999.25000      86.09041       4.77260     128.60620     130.17807      69.36414      -1.21481       2.76418    4717.32715    2317.32715
    5326.00000     143.86060       2.59537      17.50000      42.77977       0.19962     154.70247     248.07718       0.20749       9.12924      10.00368    2372.26953       9.56646       1.45370      24.28233    -999.25000      85.72649       4.84858     125.91787     127.52856      66.47152      -1.27103       2.58391    4722.64355    2322.64331
    5325.50000     135.03613       2.58170      17.50000      42.77577       0.20087     153.55991     249.21574       0.20853       9.12560       9.95448    2393.82471       9.54004       1.45679      22.72184    -999.25000      85.26309       4.89531     122.54719     124.53424      63.51073      -1.60842       2.43544    4725.20215    2325.20190
    5325.00000     126.00583       2.59619      17.50000      42.78141       0.20213     152.86061     249.92068       0.20986       9.13085       9.90172    2424.15552       9.51628       1.44790      21.16279    -999.25000      84.25177       5.13706     120.21825     121.84752      61.63887      -1.34614       2.29739    4724.60889    2324.60889
    5324.50000     119.32733       2.62093      17.50000      42.79657       0.20341     152.53281     250.26364       0.21126       9.13085       9.85976    2438.79175       9.49531       1.49599      19.77872    -999.25000      82.76282       5.42079     118.98800     119.90054      60.69723      -0.76399       2.17777    4722.34375    2322.34351
    5324.00000     122.25189       2.65788      17.50000      43.69907       0.20475     152.50958     251.18938       0.21275       9.13928       9.82066    2378.84229       9.47997       1.56639      18.48046    -999.25000      81.86009       5.86836     118.42888     118.98183      60.43364      -0.46582       2.08449    4721.45996    2321.46021
    5323.50000     135.69373       2.69572      17.50000      42.82994       0.20614     152.72548     250.10434       0.21421       9.14664      10.04798    2400.10010       9.59731       1.59477      16.78559    -999.25000      81.45676       6.34538     118.84557     119.49728      61.64493      -0.54686       1.96848    4720.81934    2320.81934
    5323.00000     155.26761       2.71983      17.50000      42.84450       0.20755     153.10298     249.74139       0.21568       9.13123      10.47614    2440.36670       9.80368       1.57606      15.14672    -999.25000      81.10855       6.60773     120.56171     121.53327      64.92091      -0.80263       1.84872    4718.48389    2318.48389
    5322.50000     173.12074       2.67664      17.50000      42.87582       0.20893     153.56931     249.30640       0.21708       9.09782      10.00523    2361.14429       9.55153       1.54337      13.69223    -999.25000      81.00040       6.91024     124.47232     124.93663      69.34941      -0.37233       1.73284    4712.80908    2312.80908
    5322.00000     176.43855       2.58777      17.50000      42.88416       0.21021     154.07271     248.81131       0.21853       8.96746       9.59615    2364.32813       9.28180       1.51467      12.33253    -999.25000      81.64730       6.97950     129.26187     129.00172      72.99386       0.20146       1.59945    4702.47998    2302.47998
    5321.50000     182.48334       2.51056      17.50000      42.90762       0.21133     154.55191     248.35559       0.21990       8.93836       9.54770    2430.75635       9.24303       1.42861      11.34395    -999.25000      82.56976       6.68829     132.17558     132.30060      74.21827      -0.09454       1.46082    4690.63477    2290.63501
    5321.00000     177.28847       2.47155      17.50000      45.19742       0.21221     154.96710     250.23019       0.21729       8.91826       9.47719    2424.46851       9.19772       1.31898      11.01781    -999.25000      82.52972       6.39533     133.18657     133.55310      73.27634      -0.27482       1.38262    4682.12549    2282.12549
    5320.50000     175.88673       2.46092      17.50000      45.31545       0.21279     155.27711     250.03821       0.22237       8.73561       9.21582    2387.50000       8.97572       1.28363      10.77144    -999.25000      81.77693       6.51692     133.34393     133.12535      71.73050       0.16406       1.34993    4680.22900    2280.22900
    5320.00000     161.57352       2.44785      17.50000      45.33640       0.21304     155.46024     249.87604       0.22374       8.73490       9.18913    2394.22583       8.96202       1.33045      10.34643    -999.25000      80.95950       7.07417     132.77802     131.75258      70.47028       0.77529       1.33027    4686.45947    2286.45947
