~VERSION
 VERS.        2.00                                                                   :CWLS LOG ASCII STANDARD
 WRAP.        NO                                                                     :NO WRAP PERFORMED
 PROD.        Schlumberger                                                           :LAS Producer
 CREA.        11/5/2012                                         :LAS Creation Date and time
~Well
#MNEM.UNIT    VALUE                                                                   :DESCRIPTION
#----.----    ---------------                                                        :-------------------
 STRT.F       7170.000                                                               :START DEPTH
 STOP.F       5320.000                                                               :STOP  DEPTH
 STEP.F       -0.500                                                                 :DEPTH STEP
 NULL.        -999.250                                                               :NULL VALUE
 COMP.        ADM COMPANY                                       :COMPANY NAME
 WELL.        Verification Well #2                              :WELL NAME
 FLD.         Wildcat                                           :FIELD NAME
 API.         121152355200                                                           :API NUMBER
 CNTY.        Macon                                                                  :COUNTY
 STAT.        Illinois                                                               :STATE
 CTRY.        US                                                                     :COUNTRY
 LOC.         Lat: 39.8922313 Long: -88.8924449                                      :WELL SURFACE LOCATION LINE 1
 LOC2.        248' South and 233' East From NW corner of the                         :WELL SURFACE LOCATION LINE 2
 LOC3.        NW/4, of the NE/4, of the NW/4, of Section 32                          :WELL SURFACE LOCATION LINE 3
 SECT.        32                                                                     :SECTION
 TOWN.        17 North                                                               :TOWNSHIP
 RANG.        3 East                                                                 :RANGE
 LATI.        39.892231 degrees                                                      :Latitude
 LONG.        -88.892444 degrees                                                     :Longitude
 DATE.        2012/10/31                                                             :LOGGING DATE
 SRVC.        Schlumberger                                                           :SERVICE COMPANY
~Parameter
#MNEM.UNIT    VALUE                                                                  :DESCRIPTION
#----.----    ---------------                                                        :-------------------
 APD.F        17.000                                                                 :Elevation of depth reference above permanent datum
 EDF.F        -999.250                                                               :Elevation of Derrick Floor
 EGL.F        686.500                                                                :Elevation of Ground Level
 EKB.F        703.500                                                                :Elevation of Kelly Bushing
 EPD.F        686.500                                                                :Elevation of Permnaent Datum
 LMF.         Kelly Bushing                                                          :Logging Measured From
 PDAT.        Ground Level                                                           :Permanent Datum
 TDD.F        7225.000                                                               :Total Depth Driller
 TDL.F        7223.000                                                               :Total Depth Logger
 BS.IN        8.500                                                                  :Bit Size
 R1.                                                                                 :REMARK 1
 R2.                                                                                 :REMARK 2
 R3.                                                                                 :REMARK 3
 R4.                                                                                 :REMARK 4
 R5.                                                                                 :REMARK 5
 R6.                                                                                 :REMARK 6
 R7.                                                                                 :REMARK 7
 R8.                                                                                 :REMARK 8
 R9.                                                                                 :REMARK 9
 R10.                                                                                :REMARK 10
 DCS_CENTER.  Denver                                                                 :Schlumberger DCS Center
 LOG_ANALYST. Oliver                                                                 :Log Analyst Name
 ENG.         Beth DiBella                                                           :Field Engineer Name
 GF_BASELINE. 45                                                                     :GeoFrame Baseline
~Curve
#MNEM.UNIT                                                                           :DESCRIPTION
#----.----                                                                           :--------------------------------
 DEPT.F                                                                              :Depth Index
 GR.GAPI                                                                             : 1 Gamma Ray                                                                                 
 RHOZ.G/C3                                                                           : 2 HRDD Standard Resolution Formation Density                                                
 BS.IN                                                                               : 3 Bit Size                                                                                  
 P1AZ.DEG                                                                            : 4 Pad 1 Azimuth in Horizontal Plane (0 = True North)                                        
 SDEVM.DEG                                                                           : 5 Memorized Sonde Deviation                                                                 
 HAZIM.DEG                                                                           : 6 Memorized Hole Azimuth Relative to True North                                             
 RB.DEG                                                                              : 7 Relative Bearing                                                                          
 DEVI.DEG                                                                            : 8 Hole Deviation                                                                            
 HD1_PPC1.IN                                                                         : 9 PPC1 Hole Diameter 1                                                                      
 HD2_PPC1.IN                                                                         :10 PPC1 Hole Diameter 2                                                                      
 TENS.LBS                                                                            :11 Cable Tension                                                                             
 HDAR.IN                                                                             :12 Hole Diameter from Area                                                                   
 MINXENE_OVERALL.                                                                    :13 Overall estimate of minimum cross energy                                                  
 MAXXENE_OVERALL.                                                                    :14 Overall estimate of maximum cross energy                                                  
 FSH_AZIM_OVERALL_FILT.DEG                                                           :15 Overall estimate of fast shear azimuth filtered                                           
 FSH_AZIM_OVERALL.DEG                                                                :16 Overall estimate of fast shear azimuth                                                    
 FSH_AZIM_ERR.DEG                                                                    :17 Fast shear azimuth error                                                                  
 DTSM_SLOW.US/F                                                                      :18 Shear Slowness of Slow Shear Waves                                                        
 DTSM_FAST.US/F                                                                      :19 Shear Slowness of Fast Shear Waves                                                        
 DTCO.US/F                                                                           :20 Delta-T Compressional                                                                     
 SLOANI.                                                                             :21 Slowness based anisotropy                                                                 
 TIMANI.                                                                             :22 Time based anisotropy                                                                     
 TWE.US                                                                              :23 Time window end                                                                           
 TWB.US                                                                              :24 Time window begin                                                                         
~Ascii   DEPT            GR          RHOZ            BS          P1AZ         SDEVM         HAZIM            RB          DEVI      HD1_PPC1      HD2_PPC1          TENS          HDAR  MINXENE_OVER  MAXXENE_OVER  FSH_AZIM_OVE  FSH_AZIM_OVE  FSH_AZIM_ERR     DTSM_SLOW     DTSM_FAST          DTCO        SLOANI        TIMANI           TWE           TWB
# ...
    6192.50000      69.14825       2.46820      17.50000     163.66876       1.77313     281.86819     241.78912       1.77467       8.75714       8.68153    2688.25000       8.71934       0.83256       3.93435      70.62125      70.62125       5.50954     112.54060     109.70218      68.71813       2.55434       0.64771    4448.00244    2048.00269
    6192.00000      72.75945       2.46409      17.50000     163.99156       1.77552     281.86105     242.11914       1.77712       8.74557       8.66894    2680.75000       8.70725       0.81045       4.17119      70.29977      70.29977       5.51519     111.77036     109.17612      69.15116       2.34830       0.71114    4445.97363    2045.97400
    6191.50000      72.20720       2.46972      17.50000     165.28116       1.77830     281.83414     243.43597       1.78037       8.74557       8.63091    2755.75000       8.68824       0.76030       4.53221      69.63280      69.63280       5.10390     111.48439     108.83923      68.50771       2.40116       0.81179    4443.15723    2043.15771
    6191.00000      69.95580       2.47825      17.50000     165.56691       1.78139     281.78653     243.76939       1.78438       8.73443       8.60548    2810.00000       8.66996       0.70087       4.69134      68.84444      68.84444       4.67887     111.56647     108.83315      66.54335       2.48033       0.85659    4440.27002    2040.27026
    6190.50000      67.31492       2.49898      17.50000     166.38425       1.78467     281.71179     244.66171       1.78881       8.72328       8.58004    2794.00024       8.65166       0.63947       4.73011      68.48119      68.48119       4.22345     111.98086     109.27056      64.45580       2.44997       0.87462    4437.72363    2037.72375
    6190.00000      69.54544       2.52510      17.50000     166.96449       1.78797     281.63824     245.31566       1.79411       8.72252       8.57616    2787.75000       8.64934       0.58618       4.84028      68.37473      68.37473       3.55681     112.51572     109.95729      63.59549       2.29999       0.90620    4435.01416    2035.01404
    6189.50000      78.71452       2.54167      17.50000     167.05363       1.79110     281.54559     245.49748       1.79869       8.72252       8.58900    2765.50000       8.65576       0.54834       4.98378      68.36720      68.36720       3.03877     112.92200     110.46846      64.20415       2.19664       0.94672    4431.35107    2031.35083
    6189.00000      82.38409       2.53957      17.50000     164.11113       1.79390     281.43658     242.66309       1.80275       8.72285       8.58025    2710.00000       8.65155       0.52311       5.08285      68.33282      68.33282       2.81706     113.01965     110.52011      65.34891       2.23633       0.98678    4427.04004    2027.04028
    6188.50000      82.74512       2.52256      17.50000     163.97926       1.79621     281.33719     242.63058       1.80535       8.72285       8.56742    2724.00000       8.64513       0.49893       5.18952      68.24902      68.24902       2.68017     112.73167     110.05094      66.03489       2.40658       1.03754    4423.54932    2023.54932
    6188.00000      73.99031       2.50991      17.50000     164.35648       1.79791     281.25839     243.08669       1.80683       8.70012       8.55479    2827.50000       8.62745       0.47147       5.34975      68.22316      68.22316       2.48420     112.05811     109.07008      65.77731       2.70253       1.09877    4421.85547    2021.85547
    6187.50000      70.99690       2.51491      17.50000     164.32852       1.79896     281.17020     243.14693       1.80699       8.70012       8.63112    2716.50000       8.66562       0.44697       5.49323      68.07980      68.07980       2.23000     111.05507     107.96843      65.34601       2.81855       1.16387    4422.22559    2022.22559
    6187.00000      67.50404       2.51560      17.50000     163.90019       1.79934     281.09830     242.79039       1.80640       8.65463       8.64373    2743.00000       8.64918       0.42908       5.71098      67.97427      67.97427       1.91778     109.76625     106.66421      65.60019       2.86655       1.23592    4423.68164    2023.68188
    6186.50000      67.21907       2.50683      17.50000     163.95442       1.79909     281.05386     242.88910       1.80367       8.66623       8.61809    2751.00000       8.64216       0.41671       6.00297      68.13120      68.13120       1.77102     108.84214     105.18048      65.94329       3.42175       1.30786    4424.21973    2024.21948
    6186.00000      62.28547       2.50343      17.50000     165.19839       1.79829     281.00421     244.18312       1.80110       8.60911       8.65655    2778.25000       8.63283       0.40877       6.08252      68.40188      68.40188       1.77966     108.00429     103.66968      65.47131       4.09555       1.33506    4424.02051    2024.02026
    6185.50000      55.71714       2.52650      17.50000     159.10872       1.79700     281.00592     238.09015       1.79787       8.62071       8.66915    2758.00000       8.64493       0.40730       5.93320      68.72824      68.72824       1.76274     106.93916     102.31200      64.19217       4.42259       1.31191    4424.96875    2024.96899
    6185.00000      52.43932       2.55671      17.50000     152.22736       1.79533     281.01038     231.20323       1.79501       8.61984       8.66536    2809.50024       8.64260       0.41129       5.99053      68.97205      68.97205       1.68372     105.93530     101.39736      62.87440       4.37745       1.32573    4427.79541    2027.79529
    6184.50000      60.63548       2.57326      17.50000     151.38150       1.79337     281.03009     230.33762       1.79258       8.65894       8.64199    2851.84570       8.65047       0.41702       6.19438      69.07362      69.07362       1.61194     105.60984     101.27331      62.29336       4.19225       1.36217    4431.93652    2031.93677
    6184.00000      66.21017       2.57126      17.50000     152.89665       1.79120     281.06360     231.81944       1.79060       8.63625       8.61308    2821.00000       8.62466       0.43706       6.22678      69.14141      69.14141       1.59934     106.03494     101.63934      63.24272       4.23317       1.34671    4435.30908    2035.30908
    6183.50000      62.20794       2.57118      17.50000     161.43556       1.78890     281.10535     240.31822       1.78920       8.59982       8.54174    2645.66992       8.57078       0.47915       6.28628      69.01419      69.01419       1.69796     107.28074     102.28155      64.04634       4.77108       1.33615    4435.85547    2035.85522
    6183.00000      60.19699       2.55475      17.50000     164.70932       1.78650     281.17615     243.52208       1.78773       8.58838       8.52384    2748.80835       8.55611       0.52339       6.35478      68.57777      68.57777       1.97769     108.80787     103.39989      65.16248       5.09687       1.33969    4433.53027    2033.53064
    6182.50000      61.52704       2.53097      17.50000     164.97937       1.78404     281.26489     243.70343       1.78686       8.58633       8.52911    2723.75000       8.55772       0.54665       6.27316      68.07826      68.07826       2.32709     109.46852     104.43948      66.00337       4.70206       1.31242    4429.86670    2029.86694
    6182.00000      64.75980       2.50683      17.50000     165.84203       1.78153     281.38007     244.45116       1.78597       8.63187       8.54195    2738.25000       8.58691       0.54759       6.10682      67.75294      67.75294       2.57987     109.50305     104.82161      66.10797       4.36855       1.26995    4427.39063    2027.39087
    6181.50000      78.82935       2.49272      17.50000     167.45885       1.77892     281.47812     245.97046       1.78473       8.68853       8.56742    2801.00000       8.62797       0.54353       5.94075      67.55860      67.55860       2.70964     109.38299     104.89016      66.31575       4.19355       1.23022    4428.41992    2028.41968
