~VERSION
 VERS.        2.00                                                                   :CWLS LOG ASCII STANDARD
 WRAP.        NO                                                                     :NO WRAP PERFORMED
 PROD.        Schlumberger                                                           :LAS Producer
 CREA.        Fri Nov 16 12:50:33 2012                                               :LAS Creation Date and time
~Well
#MNEM.UNIT    VALUE                                                                   :DESCRIPTION
#----.----    ---------------                                                        :-------------------
 STRT.F       5331.500                                                               :START DEPTH
 STOP.F       350.000                                                                :STOP  DEPTH
 STEP.F       -0.500                                                                 :DEPTH STEP
 NULL.        -999.250                                                               :NULL VALUE
 COMP.        ADM                                                                    :COMPANY NAME
 WELL.        Verification Well #2                                                   :WELL NAME
 FLD.         Wildcat                                                                :FIELD NAME
 API.         12115235520000                                                         :API NUMBER
 CNTY.        Macon                                                                  :COUNTY
 STAT.        Illinois                                                               :STATE
 CTRY.        US                                                                     :COUNTRY
 LOC.         Long:-88.8924449, Lat: 39.8922313                                      :WELL SURFACE LOCATION LINE 1
 LOC2.        248' South and 233' East from the NW corner of the                     :WELL SURFACE LOCATION LINE 2
 LOC3.        NW/4, of the NE/4, of the NW/4, of Section 32                          :WELL SURFACE LOCATION LINE 3
 SECT.        32                                                                     :SECTION
 TOWN.        17 North                                                               :TOWNSHIP
 RANG.        3 East                                                                 :RANGE
 LATI.        39.892232 degrees                                                      :Latitude
 LONG.        -88.892445 degrees                                                     :Longitude
 DATE.        2012/10/08                                                             :LOGGING DATE
 SRVC.        Schlumberger                                                           :SERVICE COMPANY
~Parameter
#MNEM.UNIT    VALUE                                                                  :DESCRIPTION
#----.----    ---------------                                                        :-------------------
 APD.F        17.000                                                                 :Elevation of depth reference above permanent datum
 EDF.F        703.500                                                                :Elevation of Derrick Floor
 EGL.F        686.500                                                                :Elevation of Ground Level
 EKB.F        703.500                                                                :Elevation of Kelly Bushing
 EPD.F        686.500                                                                :Elevation of Permnaent Datum
 LMF.         KB                                                                     :Logging Measured From
 PDAT.        Ground level                                                           :Permanent Datum
 TDD.F        5316.000                                                               :Total Depth Driller
 TDL.F        5316.000                                                               :Total Depth Logger
 BS.IN        12.250                                                                 :Bit Size
 R1.                                                                                 :REMARK 1
 R2.                                                                                 :REMARK 2
 R3.                                                                                 :REMARK 3
 R4.                                                                                 :REMARK 4
 R5.                                                                                 :REMARK 5
 R6.                                                                                 :REMARK 6
 R7.                                                                                 :REMARK 7
 R8.                                                                                 :REMARK 8
 R9.                                                                                 :REMARK 9
 R10.                                                                                :REMARK 10
 DCS_CENTER.  Denver DCS                                                             :Schlumberger DCS Center
 LOG_ANALYST. Roberts                                                                :Log Analyst Name
 ENG.         Kevin Ryan                                                             :Field Engineer Name
 GF_BASELINE. GF45                                                                   :GeoFrame Baseline
~Curve
#MNEM.UNIT                                                                           :DESCRIPTION
#----.----                                                                           :--------------------------------
 DEPT.F                                                                              :Depth Index
 GR.GAPI                                                                             : 1 Gamma Ray                                                                                 
 RHOZ.G/C3                                                                           : 2 HRDD Standard Resolution Formation Density                                                
 BS.IN                                                                               : 3 Bit Size                                                                                  
 P1AZ.DEG                                                                            : 4 Pad 1 Azimuth in Horizontal Plane (0 = True North)                                        
 SDEVM.DEG                                                                           : 5 Memorized Sonde Deviation                                                                 
 HAZIM.DEG                                                                           : 6 Memorized Hole Azimuth Relative to True North                                             
 RB.DEG                                                                              : 7 Relative Bearing                                                                          
 DEVI.DEG                                                                            : 8 Hole Deviation                                                                            
 HD1_PPC1.IN                                                                         : 9 PPC1 Hole Diameter 1                                                                      
 HD2_PPC1.IN                                                                         :10 PPC1 Hole Diameter 2                                                                      
 TENS.LBS                                                                            :11 Cable Tension                                                                             
 HDAR.IN                                                                             :12 Hole Diameter from Area                                                                   
 MINXENE_OVERALL.                                                                    :13 Overall estimate of minimum cross energy                                                  
 MAXXENE_OVERALL.                                                                    :14 Overall estimate of maximum cross energy                                                  
 FSH_AZIM_OVERALL_FILT.DEG                                                           :15 Overall estimate of fast shear azimuth filtered                                           
 FSH_AZIM_OVERALL.DEG                                                                :16 Overall estimate of fast shear azimuth                                                    
 FSH_AZIM_ERR.DEG                                                                    :17 Fast shear azimuth error                                                                  
 DTSM_SLOW.US/F                                                                      :18 Shear Slowness of Slow Shear Waves                                                        
 DTSM_FAST.US/F                                                                      :19 Shear Slowness of Fast Shear Waves                                                        
 DTCO.US/F                                                                           :20 Delta-T Compressional                                                                     
 SLOANI.                                                                             :21 Slowness based anisotropy                                                                 
 TIMANI.                                                                             :22 Time based anisotropy                                                                     
 TWE.US                                                                              :23 Time window end                                                                           
 TWB.US                                                                              :24 Time window begin                                                                         
 FLAG.                                                                               :25 Shear Flag                                                                    
 FLAG.                                                                               :26 Bad Hole Flag                                                                    
~Ascii   DEPT            GR          RHOZ            BS          P1AZ         SDEVM         HAZIM            RB          DEVI      HD1_PPC1      HD2_PPC1          TENS          HDAR  MINXENE_OVER  MAXXENE_OVER  FSH_AZIM_OVE  FSH_AZIM_OVE  FSH_AZIM_ERR     DTSM_SLOW     DTSM_FAST          DTCO        SLOANI        TIMANI           TWE           TWB          FLAG          FLAG
# ...
    4671.50000      38.25790       2.76035      12.25000     149.24538       1.14562     155.97762     353.26910       1.17891      12.68409      13.11857    2271.21021      12.90133       1.31258       2.90517      68.89076      68.89076      11.36225      93.96391      91.20824      50.57093       2.97634       1.03446    4839.60156    1839.60156    -999.25000    -999.25000
    4671.00000      37.31142       2.71781      12.25000     149.47171       1.15006     156.15993     353.31311       1.17918      12.71107      13.08331    2308.72925      12.89719       1.30339       3.21285      66.46120      66.46120      10.47177      93.93184      90.83256      51.14559       3.35485       1.12949    4840.67383    1840.67407    -999.25000    -999.25000
    4670.50000      32.93975       2.69859      12.25000     149.33009       1.15344     156.37399     352.95752       1.18282      12.66305      13.02508    2282.66479      12.84406       1.29542       3.54775      64.90684      64.90684      10.18604      93.82189      90.75101      51.37701       3.32756       1.20485    4841.44434    1841.44397    -999.25000    -999.25000
    4670.00000      27.32274       2.70476      12.25000     148.24590       1.15581     156.61555     351.63202       1.18413      12.61985      13.00528    2337.93188      12.81257       1.29643       3.88441      63.93832      63.93832      10.09416      93.63571      90.41665      51.19405       3.49799       1.26156    4842.03320    1842.03271    -999.25000    -999.25000
    4669.50000      23.50955       2.72645      12.25000     147.42001       1.15727     156.87418     350.54773       1.18487      12.63688      13.01250    2203.52075      12.82469       1.33266       4.20224      63.49850      63.49850       9.80956      93.18892      90.53707      50.45699       2.88674       1.32501    4842.87158    1842.87122    -999.25000    -999.25000
    4669.00000      23.97086       2.74052      12.25000     147.04387       1.15790     157.14134     349.90454       1.18362      12.63996      13.04657    2229.19434      12.84327       1.41309       4.45299      63.35450      63.35450       9.78266      93.03271      90.22253      49.60759       3.06697       1.38876    4844.85156    1844.85132    -999.25000    -999.25000
    4668.50000      26.84775       2.73958      12.25000     146.46852       1.15779     157.40504     349.06567       1.18397      12.62653      13.02695    2222.49414      12.82674       1.52509       4.64190      63.28801      63.28801      10.54978      93.13018      90.66589      49.41650       2.68155       1.42713    4847.83594    1847.83618    -999.25000    -999.25000
    4668.00000      31.37672       2.73007      12.25000     146.37808       1.15703     157.65347     348.72684       1.18410      12.63586      13.01290    2252.28687      12.82438       1.66990       4.84563      63.41572      63.41572      11.71856      93.28615      90.75018      49.81812       2.75595       1.45021    4850.60156    1850.60156    -999.25000    -999.25000
    4667.50000      36.41804       2.70723      12.25000     146.55403       1.15575     157.87502     348.68127       1.18083      12.68452      13.00935    2171.93311      12.84693       1.85350       5.04316    -999.25000      63.73089      12.99714      93.47292      91.32195      50.60368       2.32795       1.47095    4852.61035    1852.61035    -999.25000    -999.25000
    4667.00000      38.91478       2.67499      12.25000     146.17319       1.15406     158.06354     348.11197       1.17733      12.70789      13.00519    2226.27759      12.85654       2.08846       5.16850    -999.25000      64.32784      14.21891      93.73409      91.45962      51.34882       2.45632       1.48151    4853.98486    1853.98462    -999.25000    -999.25000
    4666.50000      36.88425       2.64452      12.25000     146.04672       1.15210     158.21248     347.83664       1.17392      12.80175      13.04577    2253.78223      12.92376       2.37631       5.24807    -999.25000      65.45064      15.23901      93.74565      91.57996      51.81861       2.33717       1.48264    4854.81055    1854.81055    -999.25000    -999.25000
    4666.00000      30.53120       2.66091      12.25000     146.04294       1.14999     158.32184     347.72351       1.17097      12.92571      13.10583    2249.39868      13.01577       2.67901       5.33115    -999.25000      67.04196      15.90477      93.68075      91.52316      51.92683       2.32996       1.48135    4855.90430    1855.90442    -999.25000    -999.25000
    4665.50000      23.43080       2.67707      12.25000     146.00807       1.14786     158.39421     347.61627       1.16752      13.12780      13.10695    2265.52100      13.11737       2.94920       5.40151      68.69550      68.69550      16.30029      93.47823      90.98060      51.87974       2.70806       1.48207    4858.29590    1858.29590    -999.25000    -999.25000
    4665.00000      18.80954       2.72122      12.25000     145.94908       1.14580     158.43483     347.51666       1.16604      13.21703      13.08301    2329.45630      13.15002       3.18062       5.44772      70.38608      70.38608      16.60764      92.86408      90.16016      51.69020       2.95472       1.48735    4861.49219    1861.49219    -999.25000    -999.25000
    4664.50000      17.96466       2.75908      12.25000     146.35030       1.14384     158.44780     347.90485       1.16456      13.17083      13.06775    2300.69043      13.11929       3.40837       5.50339      72.63007      72.63007      16.68296      92.21646      89.25265      51.16209       3.26647       1.49798    4864.61426    1864.61450    -999.25000    -999.25000
    4664.00000      19.11847       2.79161      12.25000     147.13341       1.14197     158.44539     348.69022       1.16220      13.07232      13.07345    2264.46875      13.07289       3.62011       5.62079      75.50226      75.50226      16.74943      91.85107      88.45452      50.01691       3.76755       1.50436    4867.52734    1867.52734    -999.25000    -999.25000
    4663.50000      22.20223       2.79876      12.25000     146.96158       1.14015     158.43492     348.52887       1.16253      12.91692      13.18433    2254.42358      13.05062       3.78019       5.76904      77.91818      77.91818      17.18475      91.77255      88.35574      48.43868       3.79375       1.50804    4870.06348    1870.06348    -999.25000    -999.25000
    4663.00000      25.35327       2.75500      12.25000     146.25015       1.13830     158.42741     347.82507       1.16157      12.86814      13.27321    2284.96729      13.07067       3.88952       5.89269      79.25053      79.25053      17.60806      92.74613      89.00367      47.18583       4.11826       1.53595    4872.25293    1872.25317    -999.25000    -999.25000
    4662.50000      28.01456       2.70486      12.25000     146.27086       1.13632     158.43347     347.83972       1.16047      12.85732      13.27081    2227.56250      13.06406       3.94956       5.99304      79.93932      79.93932      16.85025      94.00096      89.86266      47.03279       4.50149       1.58200    4873.51074    1873.51123    -999.25000    -999.25000
    4662.00000      27.55806       2.68117      12.25000     146.19319       1.13416     158.46251     347.73300       1.15872      12.83808      13.27513    2252.82153      13.05660       3.98011       6.05531      79.94246      79.94246      15.07989      95.05412      90.56949      47.85109       4.83197       1.64169    4873.12109    1873.12085    -999.25000    -999.25000
    4661.50000      24.45014       2.69421      12.25000     146.10986       1.13175     158.52327     347.58893       1.15692      12.90463      13.25846    2359.71729      13.08155       4.00569       6.06760      78.76984      78.76984      13.55815      95.67642      91.44357      48.94373       4.52421       1.72008    4871.89258    1871.89258    -999.25000    -999.25000
    4661.00000      22.22980       2.73031      12.25000     145.88640       1.12911     158.62123     347.26758       1.15357      12.83204      13.25392    2303.57568      13.04298       4.04558       6.08364      75.71468      75.71468      12.20732      95.83398      92.54350      49.19539       3.49350       1.79763    4870.97754    1870.97754    -999.25000    -999.25000
