~VERSION
 VERS.        2.00                                                                   :CWLS LOG ASCII STANDARD
 WRAP.        NO                                                                     :NO WRAP PERFORMED
 PROD.        Schlumberger                                                           :LAS Producer
 CREA.        11/5/2012                                         :LAS Creation Date and time
~Well
#MNEM.UNIT    VALUE                                                                   :DESCRIPTION
#----.----    ---------------                                                        :-------------------
 STRT.F       7170.000                                                               :START DEPTH
 STOP.F       5320.000                                                               :STOP  DEPTH
 STEP.F       -0.500                                                                 :DEPTH STEP
 NULL.        -999.250                                                               :NULL VALUE
 COMP.        ADM COMPANY                                       :COMPANY NAME
 WELL.        Verification Well #2                              :WELL NAME
 FLD.         Wildcat                                           :FIELD NAME
 API.         121152355200                                                           :API NUMBER
 CNTY.        Macon                                                                  :COUNTY
 STAT.        Illinois                                                               :STATE
 CTRY.        US                                                                     :COUNTRY
 LOC.         Lat: 39.8922313 Long: -88.8924449                                      :WELL SURFACE LOCATION LINE 1
 LOC2.        248' South and 233' East From NW corner of the                         :WELL SURFACE LOCATION LINE 2
 LOC3.        NW/4, of the NE/4, of the NW/4, of Section 32                          :WELL SURFACE LOCATION LINE 3
 SECT.        32                                                                     :SECTION
 TOWN.        17 North                                                               :TOWNSHIP
 RANG.        3 East                                                                 :RANGE
 LATI.        39.892231 degrees                                                      :Latitude
 LONG.        -88.892444 degrees                                                     :Longitude
 DATE.        2012/10/31                                                             :LOGGING DATE
 SRVC.        Schlumberger                                                           :SERVICE COMPANY
~Parameter
#MNEM.UNIT    VALUE                                                                  :DESCRIPTION
#----.----    ---------------                                                        :-------------------
 APD.F        17.000                                                                 :Elevation of depth reference above permanent datum
 EDF.F        -999.250                                                               :Elevation of Derrick Floor
 EGL.F        686.500                                                                :Elevation of Ground Level
 EKB.F        703.500                                                                :Elevation of Kelly Bushing
 EPD.F        686.500                                                                :Elevation of Permnaent Datum
 LMF.         Kelly Bushing                                                          :Logging Measured From
 PDAT.        Ground Level                                                           :Permanent Datum
 TDD.F        7225.000                                                               :Total Depth Driller
 TDL.F        7223.000                                                               :Total Depth Logger
 BS.IN        8.500                                                                  :Bit Size
 R1.                                                                                 :REMARK 1
 R2.                                                                                 :REMARK 2
 R3.                                                                                 :REMARK 3
 R4.                                                                                 :REMARK 4
 R5.                                                                                 :REMARK 5
 R6.                                                                                 :REMARK 6
 R7.                                                                                 :REMARK 7
 R8.                                                                                 :REMARK 8
 R9.                                                                                 :REMARK 9
 R10.                                                                                :REMARK 10
 DCS_CENTER.  Denver                                                                 :Schlumberger DCS Center
 LOG_ANALYST. Oliver                                                                 :Log Analyst Name
 ENG.         Beth DiBella                                                           :Field Engineer Name
 GF_BASELINE. 45                                                                     :GeoFrame Baseline
~Curve
#MNEM.UNIT                                                                           :DESCRIPTION
#----.----                                                                           :--------------------------------
 DEPT.F                                                                              :Depth Index
 GR.GAPI                                                                             : 1 Gamma Ray                                                                                 
 RHOZ.G/C3                                                                           : 2 HRDD Standard Resolution Formation Density                                                
 BS.IN                                                                               : 3 Bit Size                                                                                  
 P1AZ.DEG                                                                            : 4 Pad 1 Azimuth in Horizontal Plane (0 = True North)                                        
 SDEVM.DEG                                                                           : 5 Memorized Sonde Deviation                                                                 
 HAZIM.DEG                                                                           : 6 Memorized Hole Azimuth Relative to True North                                             
 RB.DEG                                                                              : 7 Relative Bearing                                                                          
 DEVI.DEG                                                                            : 8 Hole Deviation                                                                            
 HD1_PPC1.IN                                                                         : 9 PPC1 Hole Diameter 1                                                                      
 HD2_PPC1.IN                                                                         :10 PPC1 Hole Diameter 2                                                                      
 TENS.LBS                                                                            :11 Cable Tension                                                                             
 HDAR.IN                                                                             :12 Hole Diameter from Area                                                                   
 MINXENE_OVERALL.                                                                    :13 Overall estimate of minimum cross energy                                                  
 MAXXENE_OVERALL.                                                                    :14 Overall estimate of maximum cross energy                                                  
 FSH_AZIM_OVERALL_FILT.DEG                                                           :15 Overall estimate of fast shear azimuth filtered                                           
 FSH_AZIM_OVERALL.DEG                                                                :16 Overall estimate of fast shear azimuth                                                    
 FSH_AZIM_ERR.DEG                                                                    :17 Fast shear azimuth error                                                                  
 DTSM_SLOW.US/F                                                                      :18 Shear Slowness of Slow Shear Waves                                                        
 DTSM_FAST.US/F                                                                      :19 Shear Slowness of Fast Shear Waves                                                        
 DTCO.US/F                                                                           :20 Delta-T Compressional                                                                     
 SLOANI.                                                                             :21 Slowness based anisotropy                                                                 
 TIMANI.                                                                             :22 Time based anisotropy                                                                     
 TWE.US                                                                              :23 Time window end                                                                           
 TWB.US                                                                              :24 Time window begin                                                                         
~Ascii   DEPT            GR          RHOZ            BS          P1AZ         SDEVM         HAZIM            RB          DEVI      HD1_PPC1      HD2_PPC1          TENS          HDAR  MINXENE_OVER  MAXXENE_OVER  FSH_AZIM_OVE  FSH_AZIM_OVE  FSH_AZIM_ERR     DTSM_SLOW     DTSM_FAST          DTCO        SLOANI        TIMANI           TWE           TWB
# ...
    6675.50000      82.82929       2.40876      17.50000     300.27731       0.58110     317.97073     342.30743       0.60977       8.50408       8.44977    2768.00000       8.47692       0.84403       3.10836    -999.25000      55.84579       7.02108     136.55502     133.95688      75.32216       1.92091       0.35414    4981.02588    2581.02588
    6675.00000      91.76876       2.40359      17.50000     300.63785       0.58619     317.90598     342.73273       0.61487       8.51327       8.45839    2734.79980       8.48583       0.83608       3.18490    -999.25000      56.56456       6.84629     138.60730     135.52419      73.52993       2.24937       0.35416    4971.25488    2571.25488
    6674.50000      91.40995       2.39616      17.50000     302.17624       0.59126     317.78217     344.39487       0.62009       8.52921       8.46830    2788.33325       8.49876       0.82284       3.32122    -999.25000      57.24196       6.50693     140.45923     137.34581      72.47741       2.24144       0.36266    4966.02881    2566.02881
    6674.00000      84.87581       2.39283      17.50000     304.13058       0.59631     317.58929     346.54196       0.62444       8.53438       8.47403    2780.16675       8.50420       0.79934       3.39433    -999.25000      57.77103       6.12992     141.89626     139.43553      72.36436       1.74934       0.35832    4963.17920    2563.17920
    6673.50000      77.47111       2.38267      17.50000     306.22388       0.60133     317.35547     348.86899       0.62899       8.51328       8.47126    2781.20020       8.49227       0.77003       3.38977    -999.25000      58.39496       5.84299     142.89561     141.26968      73.11108       1.14436       0.33725    4957.93359    2557.93359
    6673.00000      70.91467       2.36742      17.50000     307.72977       0.60634     317.07880     350.65149       0.63358       8.48857       8.46258    2725.98315       8.47557       0.73855       3.41041    -999.25000      59.17722       5.52084     143.42258     142.29190      74.78009       0.79147       0.31016    4947.44482    2547.44482
    6672.50000      68.70230       2.34410      17.50000     309.24841       0.61134     316.78589     352.46295       0.63844       8.50621       8.45766    2715.66675       8.48193       0.70201       3.53238    -999.25000      60.08293       5.08440     143.64706     142.68411      77.59977       0.67261       0.32080    4934.86572    2534.86572
    6672.00000      64.89658       2.33003      17.50000     310.81918       0.61632     316.49359     354.32593       0.64290       8.50534       8.49967    2669.75000       8.50250       0.67357       3.59478    -999.25000      60.59219       4.51690     143.62921     142.71545      81.25071       0.63822       0.33545    4924.51221    2524.51221
    6671.50000      59.82753       2.32585      17.50000     311.99524       0.62127     316.22537     355.77011       0.64755       8.52141       8.45792    2693.88794       8.48967       0.65822       3.55798    -999.25000      60.85055       4.17501     143.46262     142.40138      84.57282       0.74247       0.32990    4918.22266    2518.22217
    6671.00000      55.82738       2.32150      17.50000     314.44489       0.62618     315.99490     358.45007       0.65228       8.54119       8.43837    2733.96973       8.48978       0.64875       3.52338    -999.25000      61.11979       4.13877     143.12868     141.68298      84.43520       1.01519       0.32562    4915.75586    2515.75635
    6670.50000      53.30836       2.32620      17.50000     316.13123       0.63101     315.80325       0.32793       0.65666       8.50293       8.43434    2835.94409       8.46863       0.64726       3.49891    -999.25000      61.37534       4.18490     142.75621     140.84460      81.92500       1.34810       0.31417    4915.38965    2515.38965
    6670.00000      53.43301       2.32709      17.50000     318.52277       0.63574     315.68018       2.84241       0.66078       8.52846       8.43204    2770.61743       8.48025       0.65114       3.46475    -999.25000      61.84613       4.35081     142.41675     140.19177      79.65574       1.57460       0.30387    4914.27832    2514.27808
    6669.50000      54.85893       2.35173      17.50000     320.26080       0.64033     315.62573       4.63479       0.66483       8.50598       8.42957    2792.05078       8.46778       0.65488       3.40757    -999.25000      62.11684       4.51546     142.16064     139.87978      78.39931       1.61741       0.30290    4909.72852    2509.72852
    6669.00000      53.38026       2.37312      17.50000     322.73489       0.64477     315.62598       7.10848       0.66915       8.48350       8.43795    2689.43994       8.46073       0.65577       3.33055    -999.25000      62.26540       4.67275     142.01671     139.89450      77.28917       1.50559       0.30298    4902.71582    2502.71606
    6668.50000      55.02810       2.38586      17.50000     324.85822       0.64901     315.69366       9.16396       0.67286       8.49369       8.42307    2675.50000       8.45838       0.65603       3.19452    -999.25000      62.58856       4.96213     141.96269     140.13631      75.92004       1.29485       0.29773    4896.19092    2496.19092
    6668.00000      53.96336       2.36919      17.50000     326.59076       0.65306     315.81866      10.77143       0.67590       8.47186       8.42711    2748.35742       8.44949       0.65633       3.05011    -999.25000      63.11058       5.15903     141.93643     140.51134      75.89790       1.00910       0.28351    4892.14111    2492.14111
    6667.50000      53.77862       2.34965      17.50000     329.23663       0.65690     316.00620      13.22958       0.67924       8.47186       8.43072    2772.72510       8.45129       0.67507       3.03065    -999.25000      64.12556       5.29485     142.02032     140.88826      78.11984       0.80030       0.25721    4891.31299    2491.31299
    6667.00000      49.98310       2.33662      17.50000     331.07291       0.66052     316.22601      14.84595       0.68190       8.51115       8.42882    2754.77661       8.46999       0.69310       3.09542    -999.25000      65.04436       5.45506     142.02075     141.06407      81.19280       0.67590       0.25963    4891.97949    2491.97949
    6666.50000      49.20582       2.31887      17.50000     332.98163       0.66391     316.48938      16.49118       0.68471       8.53002       8.41928    2676.33594       8.47465       0.68971       3.10286    -999.25000      65.66192       5.48642     141.65906     140.81763      83.00176       0.59575       0.26771    4892.02637    2492.02637
    6666.00000      47.06586       2.30761      17.50000     335.61203       0.66707     316.78845      18.82237       0.68708       8.48929       8.42595    2726.20947       8.45762       0.68545       3.15767    -999.25000      66.34586       5.47522     140.46213     139.68292      82.29989       0.55629       0.26054    4889.91846    2489.91870
    6665.50000      47.61816       2.31319      17.50000     337.56531       0.67000     317.11322      20.45080       0.68935       8.48305       8.42711    2724.96533       8.45508       0.68583       3.41990    -999.25000      67.18768       5.44986     138.62428     137.68169      79.61266       0.68228       0.27900    4885.84326    2485.84351
    6665.00000      48.72212       2.35343      17.50000     340.21896       0.67268     317.44046      22.77708       0.69121       8.47085       8.42307    2734.40015       8.44696       0.68096       3.76528    -999.25000      67.84584       5.36015     136.52528     135.02393      76.93301       1.10577       0.32313    4881.53027    2481.53052
    6664.50000      51.49248       2.37970      17.50000     342.30411       0.67512     317.77512      24.52749       0.69310       8.49468       8.42711    2738.00024       8.46090       0.66870       4.04855    -999.25000      68.24204       5.35137     134.46919     132.15759      76.30219       1.73396       0.39170    4876.35352    2476.35376
