~VERSION
 VERS.        2.00                                                                   :CWLS LOG ASCII STANDARD
 WRAP.        NO                                                                     :NO WRAP PERFORMED
 PROD.        Schlumberger                                                           :LAS Producer
 CREA.        Fri Nov 16 12:50:33 2012                                               :LAS Creation Date and time
~Well
#MNEM.UNIT    VALUE                                                                   :DESCRIPTION
#----.----    ---------------                                                        :-------------------
 STRT.F       5331.500                                                               :START DEPTH
 STOP.F       350.000                                                                :STOP  DEPTH
 STEP.F       -0.500                                                                 :DEPTH STEP
 NULL.        -999.250                                                               :NULL VALUE
 COMP.        ADM                                                                    :COMPANY NAME
 WELL.        Verification Well #2                                                   :WELL NAME
 FLD.         Wildcat                                                                :FIELD NAME
 API.         12115235520000                                                         :API NUMBER
 CNTY.        Macon                                                                  :COUNTY
 STAT.        Illinois                                                               :STATE
 CTRY.        US                                                                     :COUNTRY
 LOC.         Long:-88.8924449, Lat: 39.8922313                                      :WELL SURFACE LOCATION LINE 1
 LOC2.        248' South and 233' East from the NW corner of the                     :WELL SURFACE LOCATION LINE 2
 LOC3.        NW/4, of the NE/4, of the NW/4, of Section 32                          :WELL SURFACE LOCATION LINE 3
 SECT.        32                                                                     :SECTION
 TOWN.        17 North                                                               :TOWNSHIP
 RANG.        3 East                                                                 :RANGE
 LATI.        39.892232 degrees                                                      :Latitude
 LONG.        -88.892445 degrees                                                     :Longitude
 DATE.        2012/10/08                                                             :LOGGING DATE
 SRVC.        Schlumberger                                                           :SERVICE COMPANY
~Parameter
#MNEM.UNIT    VALUE                                                                  :DESCRIPTION
#----.----    ---------------                                                        :-------------------
 APD.F        17.000                                                                 :Elevation of depth reference above permanent datum
 EDF.F        703.500                                                                :Elevation of Derrick Floor
 EGL.F        686.500                                                                :Elevation of Ground Level
 EKB.F        703.500                                                                :Elevation of Kelly Bushing
 EPD.F        686.500                                                                :Elevation of Permnaent Datum
 LMF.         KB                                                                     :Logging Measured From
 PDAT.        Ground level                                                           :Permanent Datum
 TDD.F        5316.000                                                               :Total Depth Driller
 TDL.F        5316.000                                                               :Total Depth Logger
 BS.IN        12.250                                                                 :Bit Size
 R1.                                                                                 :REMARK 1
 R2.                                                                                 :REMARK 2
 R3.                                                                                 :REMARK 3
 R4.                                                                                 :REMARK 4
 R5.                                                                                 :REMARK 5
 R6.                                                                                 :REMARK 6
 R7.                                                                                 :REMARK 7
 R8.                                                                                 :REMARK 8
 R9.                                                                                 :REMARK 9
 R10.                                                                                :REMARK 10
 DCS_CENTER.  Denver DCS                                                             :Schlumberger DCS Center
 LOG_ANALYST. Roberts                                                                :Log Analyst Name
 ENG.         Kevin Ryan                                                             :Field Engineer Name
 GF_BASELINE. GF45                                                                   :GeoFrame Baseline
~Curve
#MNEM.UNIT                                                                           :DESCRIPTION
#----.----                                                                           :--------------------------------
 DEPT.F                                                                              :Depth Index
 GR.GAPI                                                                             : 1 Gamma Ray                                                                                 
 RHOZ.G/C3                                                                           : 2 HRDD Standard Resolution Formation Density                                                
 BS.IN                                                                               : 3 Bit Size                                                                                  
 P1AZ.DEG                                                                            : 4 Pad 1 Azimuth in Horizontal Plane (0 = True North)                                        
 SDEVM.DEG                                                                           : 5 Memorized Sonde Deviation                                                                 
 HAZIM.DEG                                                                           : 6 Memorized Hole Azimuth Relative to True North                                             
 RB.DEG                                                                              : 7 Relative Bearing                                                                          
 DEVI.DEG                                                                            : 8 Hole Deviation                                                                            
 HD1_PPC1.IN                                                                         : 9 PPC1 Hole Diameter 1                                                                      
 HD2_PPC1.IN                                                                         :10 PPC1 Hole Diameter 2                                                                      
 TENS.LBS                                                                            :11 Cable Tension                                                                             
 HDAR.IN                                                                             :12 Hole Diameter from Area                                                                   
 MINXENE_OVERALL.                                                                    :13 Overall estimate of minimum cross energy                                                  
 MAXXENE_OVERALL.                                                                    :14 Overall estimate of maximum cross energy                                                  
 FSH_AZIM_OVERALL_FILT.DEG                                                           :15 Overall estimate of fast shear azimuth filtered                                           
 FSH_AZIM_OVERALL.DEG                                                                :16 Overall estimate of fast shear azimuth                                                    
 FSH_AZIM_ERR.DEG                                                                    :17 Fast shear azimuth error                                                                  
 DTSM_SLOW.US/F                                                                      :18 Shear Slowness of Slow Shear Waves                                                        
 DTSM_FAST.US/F                                                                      :19 Shear Slowness of Fast Shear Waves                                                        
 DTCO.US/F                                                                           :20 Delta-T Compressional                                                                     
 SLOANI.                                                                             :21 Slowness based anisotropy                                                                 
 TIMANI.                                                                             :22 Time based anisotropy                                                                     
 TWE.US                                                                              :23 Time window end                                                                           
 TWB.US                                                                              :24 Time window begin                                                                         
 FLAG.                                                                               :25 Shear Flag                                                                    
 FLAG.                                                                               :26 Bad Hole Flag                                                                    
~Ascii   DEPT            GR          RHOZ            BS          P1AZ         SDEVM         HAZIM            RB          DEVI      HD1_PPC1      HD2_PPC1          TENS          HDAR  MINXENE_OVER  MAXXENE_OVER  FSH_AZIM_OVE  FSH_AZIM_OVE  FSH_AZIM_ERR     DTSM_SLOW     DTSM_FAST          DTCO        SLOANI        TIMANI           TWE           TWB          FLAG          FLAG
# ...
    3340.50000      20.45366       2.34359      12.25000     314.10962       3.29979     250.52078      63.55094       3.31818      12.78726      13.52063    1929.99988      13.15394       0.96159       4.88876    -999.25000      68.51638       2.46704     144.03804     142.26816      78.69411       1.23636       0.81670    5577.49805    2577.49780    -999.25000       1.00000
    3340.00000      21.52136       2.32888      12.25000     314.41962       3.29729     250.83682      63.54497       3.31282      12.71681      13.50766    1969.36279      13.11224       0.96710       4.89181    -999.25000      68.52415       2.62550     144.16087     142.49390      79.23777       1.16306       0.82391    5576.05469    2576.05469    -999.25000       1.00000
    3339.50000      22.03253       2.32518      12.25000     316.87585       3.29637     251.12457      65.71574       3.30969      13.12042      13.79313    1954.66675      13.45677       0.98000       4.94221    -999.25000      68.37299       2.52674     144.25371     142.62029      81.12442       1.13877       0.87420    5576.49316    2576.49268    -999.25000       1.00000
    3339.00000      22.41235       2.32648      12.25000     317.35770       3.29737     251.36969      65.95270       3.30841      13.93783      14.25880    1916.99988      14.09832       0.99613       4.99058    -999.25000      68.23949       2.38246     144.26854     142.84714      83.58049       0.99012       0.90894    5578.88232    2578.88232    -999.25000       1.00000
    3338.50000      22.83889       2.32920      12.25000     319.44565       3.30055     251.54358      67.86889       3.31238      14.61115      14.51799    2043.90686      14.56457       1.01059       4.97661    -999.25000      68.29706       2.37453     144.21689     142.46274      85.46371       1.22377       0.90254    5581.33203    2581.33228    -999.25000       1.00000
    3338.00000      21.89172       2.31132      12.25000     319.87265       3.30607     251.69429      68.14540       3.31759      14.81072      14.64792    1933.94031      14.72932       1.02343       4.94559    -999.25000      68.38710       2.41660     144.01007     142.00316      85.76830       1.40337       0.89211    5580.98584    2580.98584    -999.25000       1.00000
    3337.50000      21.21178       2.31445      12.25000     320.24237       3.31398     251.79999      68.40959       3.32661      15.13571      14.90079    2060.00000      15.01825       1.02952       4.99956    -999.25000      68.34059       2.49168     143.58481     141.63664      84.32391       1.36607       0.87939    5579.17969    2579.17993    -999.25000       1.00000
    3337.00000      17.48628       2.31386      12.25000     319.31577       3.32420     251.85706      67.42451       3.33885      14.98359      14.69665    2083.33350      14.84012       1.02718       5.16543    -999.25000      68.18973       2.55880     142.90320     141.16350      80.79289       1.22485       0.87466    5576.07227    2576.07275    -999.25000       1.00000
    3336.50000      17.50435       2.32069      12.25000     318.37619       3.33653     251.88499      66.45560       3.35693      13.68708      14.05046    1900.25012      13.86877       1.02879       5.26407    -999.25000      68.10461       2.62096     141.34990     139.22203      76.54298       1.51681       0.87493    5573.06348    2573.06323    -999.25000       1.00000
    3336.00000      17.31841       2.31373      12.25000     317.19913       3.35065     251.88910      65.27280       3.37284      12.71577      13.17118    2021.66663      12.94347       1.04406       5.22080    -999.25000      68.24342       2.64971     140.18796     136.85464      73.45866       2.40635       0.88748    5572.52832    2572.52832    -999.25000    -999.25000
    3335.50000      18.48265       2.31402      12.25000     318.21652       3.36616     251.88330      66.29683       3.39318      12.28002      13.00529    2022.50000      12.64266       1.06256       5.13662    -999.25000      68.61228       2.63433     139.34962     136.20587      72.74841       2.28176       0.91325    5574.34619    2574.34619    -999.25000    -999.25000
    3335.00000      18.20565       2.32558      12.25000     318.54526       3.38258     251.83627      66.67269       3.41168      12.15080      12.82695    1986.25000      12.48887       1.07609       5.07088    -999.25000      68.76863       2.49241     139.62451     136.77798      73.51842       2.05970       0.95342    5578.83398    2578.83398    -999.25000    -999.25000
    3334.50000      17.15800       2.33322      12.25000     318.51657       3.39942     251.77113      66.70881       3.43251      11.87061      12.68429    2082.33350      12.27745       1.08203       5.10158    -999.25000      68.62270       2.31578     140.61021     137.63078      74.95345       2.14162       0.99195    5585.98096    2585.98096    -999.25000    -999.25000
    3334.00000      15.95504       2.33364      12.25000     316.92120       3.41617     251.69406      65.18833       3.45018      12.07587      12.64798    2017.75000      12.36192       1.08281       5.23142    -999.25000      68.49409       2.28556     141.33813     138.01740      75.98573       2.37743       1.01639    5591.30859    2591.30859    -999.25000    -999.25000
    3333.50000      16.02871       2.32788      12.25000     313.22867       3.43234     251.61754      61.56810       3.46756      11.79469      12.65992    1984.33325      12.22731       1.08312       5.45469    -999.25000      68.34517       2.30498     141.30272     138.19122      76.61607       2.22652       1.04387    5594.60059    2594.60083    -999.25000    -999.25000
    3333.00000      17.69716       2.32914      12.25000     312.24887       3.44750     251.52907      60.67552       3.48623      11.91386      12.66039    2021.75012      12.28713       1.08465       5.68797    -999.25000      68.27706       2.28530     141.14291     138.23643      77.20731       2.08067       1.07205    5598.54102    2598.54102    -999.25000    -999.25000
    3332.50000      20.55797       2.34215      12.25000     313.97086       3.46130     251.45047      62.47752       3.50031      11.84897      12.60015    1955.66675      12.22456       1.08667       5.87194    -999.25000      68.32670       2.18673     141.12909     138.33482      77.71395       1.99973       1.11708    5601.66895    2601.66895    -999.25000    -999.25000
    3332.00000      19.83761       2.34263      12.25000     314.05194       3.47348     251.38368      62.62527       3.51486      11.91386      12.52830    1985.33350      12.22108       1.08811       6.07228    -999.25000      68.36049       2.00308     141.09180     138.47754      77.82279       1.87020       1.17538    5604.03223    2604.03271    -999.25000    -999.25000
    3331.50000      17.10206       2.33266      12.25000     313.00079       3.48392     251.32603      61.63046       3.52415      11.95708      12.52830    1969.75000      12.24269       1.08889       6.28878    -999.25000      68.41576       1.82470     141.15475     138.87572      77.67614       1.62771       1.23383    5607.17578    2607.17627    -999.25000    -999.25000
    3331.00000      15.73500       2.31990      12.25000     311.22092       3.49262     251.27159      59.90313       3.53184      11.89224      12.58818    1967.00012      12.24021       1.08221       6.53004    -999.25000      68.44416       1.70677     141.32832     139.58662      77.58646       1.24002       1.29012    5611.62109    2611.62134    -999.25000    -999.25000
    3330.50000      17.39791       2.32813      12.25000     310.08994       3.49971     251.25140      58.79116       3.53667      11.80567      12.68380    1942.50012      12.24473       1.06555       6.85033    -999.25000      68.33404       1.64240     141.44160     140.34143      77.48894       0.78087       1.33963    5615.24316    2615.24316    -999.25000    -999.25000
    3330.00000      21.62777       2.34080      12.25000     309.06396       3.50544     251.23886      57.77672       3.53866      12.32264      12.62426    1989.00000      12.47345       1.05113       7.22511    -999.25000      68.18114       1.61068     141.54543     140.78519      77.15223       0.53854       1.38045    5616.36621    2616.36621    -999.25000    -999.25000
