~VERSION INFORMATION 
VERS  .    2.0                                     :CWLS Log ASCII Standard - VERSION 2.0
WRAP  .    NO                                      :One Line per Depth step
PROD  .    Schlumberger Technology Corp.           :LAS Producer
PROG  .    Horizon LASWriter 3.1.9755.0            :LAS Program name and version
SOURCE.    3A-Log[4]/Up                            :Run&Pass Information
CREA  .    10/30/2012                              :LAS Creation date {MM/DD/YYYY}
#--------------------------------------------------
~WELL INFORMATION 
#MNEM           .UNIT                      DATA            :DESCRIPTION
#----            ------          --------------            -----------------------------
STRT            .ft                  5150.00000            :START DEPTH
STOP            .ft                  7238.00000            :STOP DEPTH
STEP            .ft                         0.5            :STEP
NULL            .                       -999.25            :NULL VALUE
COMP            .                   ADM COMPANY            :COMPANY
WELL            .                Verification Well #2      :WELL NAME
FLD             .                       Wildcat            :FIELD NAME
RIGN            .                                          :Rig Name
RIGTYP          .                                          :Rig Type
SON             .                    C5FX-00022            :Service Order Number
SRVC            .                  Schlumberger            :SERVICE COMPANY
DATE            .                    10/30/2012            :LOG DATE(Composite Date for Composite LAP) (MM/DD/YYYY)
CLAB            .                       County:            :County Label
CNTY            .                         Macon            :COUNTY
SLAB            .                        State:            :State/Province Label
STAT            .                      Illinois            :STATE or PROVINCE
PROV            .                      Illinois            :STATE or PROVINCE
CTRY            .                                          :COUNTRY
CONT_REGION     .                    N. America            :Continent Region
SECT            .                            32            :Section
TOWN            .                      17 North            :Township
RANG            .                        3 East            :Range
API             .                  121152355200            :API NUMBER
UWI             .                                          :UNIQUE WELL ID
LUL             .                        Weston            :Logging Unit Location
LUN             .                          3149            :Logging Unit Number
LOC             .                Lat: 39.8922313 Long: -88.89244449:FIELD LOCATION
FL1             .                248' South and 233' East rom NW corner of the:Field Location Line 1
FL2             .                NW/4, of the NE/4, of the NW/4, of Section 32:Field Location Line 2
LATI            .deg                  39.892231            :LATITUDE
LONG            .deg                 -88.892444            :LONGITUDE
PDAT            .                            GL            :Local Permanent Datum
LMF             .                            KB            :Logging Measured From
APD             .ft                    17.00000            :Elevation of Depth Reference (LMF) Above Permanent Datum
EPD             .ft                   686.49998            :Elevation of Permanent Datum (PDAT) above Mean Sea Level
EKB             .ft                    17.00000            :Elevation of Kelly Bushing Above Permanent Datum
EDF             .ft                     -999.25            :Elevation of Drill Floor Above Permanent Datum
EGL             .ft                     0.00000            :Elevation of Ground Level Above Permanent Datum
ECF             .ft                     -999.25            :Elevation of Casing Flange above Permanent Datum
#--------------------------------------------------
~CURVE INFORMATION
#MNEM           .UNIT                  API CODE            :DESCRIPTION
#----            ------          --------------            -----------------------------
DEPT            .ft                                        :                                                        Depth Index
RLA4            .ohm.m                                     :        (HRLT-B)                (2in)                   Apparent Resistivity from Computed Focusing Mode 4
CALI            .in                                        :        (HDRS-H)                (1in)                   Caliper
GR              .gAPI                                      :        (EDTC-B)                (6in)                   Gamma Ray
MRES            .ohm.m                                     :        (HRLT-B)                (2in)                   Mud Resistivity
RLA2            .ohm.m                                     :        (HRLT-B)                (2in)                   Apparent Resistivity from Computed Focusing Mode 2
RLA5            .ohm.m                                     :        (HRLT-B)                (2in)                   Apparent Resistivity from Computed Focusing Mode 5
TENS            .lbf                                       :        (WLWorkflow)            (1in)                   Cable Tension
RT              .ohm.m                                     :        (HRLT-B)                (2in)                   True Resistivity
RXOZ            .ohm.m                                     :        (HDRS-H)                (2in)                   Invaded Formation Resistivity filtered at 18 inches
SP              .mV                                        :        (SPE-A)                 (6in)                   Spontaneous Potential
RLA3            .ohm.m                                     :        (HRLT-B)                (2in)                   Apparent Resistivity from Computed Focusing Mode 3
RHOZ            .g/cm3                                     :        (HDRS-H)                (2in)                   Standard Resolution Formation Density
PEFZ            .                                          :        (HDRS-H)                (2in)                   Standard Resolution Formation Photoelectric Factor
NPHI            .ft3/ft3                                   :        (HGNS-H)                (6in)                   Thermal Neutron Porosity (original Ratio Method) in Selected Lithology
DPHZ            .ft3/ft3                                   :        (HDRS-H)                (2in)                   Standard Resolution Density Porosity
HDRA            .g/cm3                                     :        (HDRS-H)                (2in)                   Density Standoff Correction
#-------------------------------------------------------------
#            DEPT         RLA4         CALI           GR         MRES         RLA2         RLA5         TENS           RT         RXOZ           SP         RLA3         RHOZ         PEFZ         NPHI         DPHZ         HDRA 
#                     (HRLT-B)     (HDRS-H)     (EDTC-B)     (HRLT-B)     (HRLT-B)     (HRLT-B)  (WLWorkflo)     (HRLT-B)     (HDRS-H)      (SPE-A)     (HRLT-B)     (HDRS-H)     (HDRS-H)     (HGNS-H)     (HDRS-H)     (HDRS-H) 
#                                                                                                                                                                                                                                 
#                        (2in)        (1in)        (6in)        (2in)        (2in)        (2in)        (1in)        (2in)        (2in)        (6in)        (2in)        (2in)        (2in)        (6in)        (2in)        (2in) 
~ASCII
# ...
       5960.00000     23.34691      8.70086     35.48438      0.20146     24.81032     21.59433   2220.00000     16.47408     48.92284   -256.41960     24.19506      2.53403      1.77241      0.09318      0.07028     -0.00744
       5960.50000     24.06324      8.70086     36.32615      0.20187     25.77720     22.17432   2220.99995     16.56958     43.95795   -256.18750     25.08187      2.52623      1.80443      0.09020      0.07501     -0.00491
       5961.00000     21.58928      8.68976     35.95937      0.20271     23.33097     19.81857   2167.00017     14.44563     39.24977   -256.49220     22.62077      2.53184      1.82668      0.08929      0.07161     -0.00424
       5961.50000     15.35660      8.67865     33.54836      0.20450     16.81476     14.06491   2168.99985      9.95450     31.86708   -256.64290     16.18624      2.53692      1.82900      0.08296      0.06853     -0.00560
       5962.00000     15.07766      8.68976     31.04322      0.20516     16.71559     13.78213   2272.00011      9.73488     28.63813   -256.86720     15.97741      2.55520      1.81692      0.08202      0.05745     -0.00561
       5962.50000     16.01410      8.67865     33.11678      0.20522     17.86039     14.59623   2297.99926     10.03632     29.27841   -257.38390     17.04610      2.56590      1.79017      0.08197      0.05097     -0.00379
       5963.00000     15.84690      8.67865     33.25934      0.20577     17.77688     14.43403   2216.99993      9.48968     30.96407   -257.85160     16.90846      2.56250      1.78057      0.08537      0.05303     -0.00106
       5963.50000     15.28597      8.65644     33.80943      0.20660     17.14288     13.91976   2267.00036      9.23302     30.53624   -258.00890     16.31368      2.54533      1.78907      0.09280      0.06344      0.00102
       5964.00000     14.11167      8.67865     33.07986      0.20767     15.76161     12.83503   2167.00017      8.64017     31.03855   -258.08590     14.98535      2.53718      1.80015      0.09661      0.06838      0.00004
       5964.50000     15.52502      8.65644     31.75435      0.20791     17.24558     14.12667   2248.00018      9.92065     34.55389   -258.24110     16.45227      2.54716      1.80143      0.09595      0.06233     -0.00031
       5965.00000     18.57016      8.63422     29.83449      0.20744     20.58132     16.84474   2270.99971     12.02929     40.74696   -257.94530     19.49914      2.56281      1.78935      0.09009      0.05284     -0.00208
       5965.50000     18.29869      8.65644     29.29237      0.20775     20.32104     16.52097   2216.49995     11.14273     31.40886   -258.06250     19.10302      2.57057      1.78966      0.08422      0.04814     -0.00139
       5966.00000     19.49288      8.63422     32.40200      0.20804     21.49389     17.56363   2248.00018     11.60023     32.63542   -258.61720     20.32563      2.58280      1.76487      0.07788      0.04072     -0.00089
       5966.50000     19.58410      8.64533     31.90674      0.20724     21.45860     17.66988   2280.00106     11.63220     39.66713   -258.50000     20.50654      2.60132      1.72264      0.07704      0.02951     -0.00037
       5967.00000     19.51047      8.65644     31.70285      0.20660     21.21632     17.66929   2328.00002     12.24918     74.05295   -257.88390     20.43903      2.61076      1.70896      0.07509      0.02378     -0.00142
       5967.50000     25.18457      8.67865     28.59279      0.20529     27.54353     22.87018   2320.99947     17.08256     92.54028   -258.02340     26.61135      2.60564      1.71049      0.07296      0.02689     -0.00402
       5968.00000     40.81176      8.65644     31.38620      0.20391     44.34634     37.24043   2270.99971     30.09808     73.67702   -258.37500     43.19305      2.59260      1.72742      0.07877      0.03479     -0.00539
       5968.50000     26.40456      8.65644     28.79033      0.20432     29.60414     24.26522   2221.99990     16.43883     61.89545   -258.67190     28.18296      2.58276      1.70675      0.08056      0.04075     -0.00373
       5969.00000     24.09528      8.63422     28.41548      0.20437     27.20560     22.26151   2224.99998     15.24145     31.98505   -259.25000     25.73908      2.55077      1.73009      0.08613      0.06014     -0.00370
       5969.50000     11.66223      8.64533     26.27809      0.20811     13.30573     10.95792   2215.99998      7.26453     13.43666   -259.85160     12.62080      2.50771      1.76416      0.09375      0.08624     -0.00537
       5970.00000      5.87285      8.61201     27.31344      0.21275      6.72142      5.50403   2243.50018      3.21804     11.31300   -260.42860      6.31589      2.47484      1.80279      0.11081      0.10616     -0.00870
       5970.50000      9.79748      8.63422     24.35123      0.20856     11.26962      9.21871   2324.00067      5.53170     12.34122   -261.17970     10.52653      2.47427      1.80648      0.11439      0.10650     -0.00891
       5971.00000     10.63918      8.61201     23.24033      0.20765     12.38179     10.02805   2279.49974      5.99602     18.13739   -261.83590     11.42604      2.48691      1.79857      0.10879      0.09884     -0.00928
       5971.50000      9.45018      8.63422     22.41470      0.20940     10.95940      8.90721   2291.00096      5.50289     19.32764   -262.03570     10.14685      2.50370      1.78452      0.09425      0.08866     -0.00921
       5972.00000     16.40858      8.63422     22.80532      0.20663     18.82207     15.42449   2238.99996     10.51298     23.64337   -261.75000     17.53547      2.52313      1.78032      0.08554      0.07689     -0.00908
       5972.50000     17.23953      8.63422     27.31375      0.20567     19.30757     16.16174   2242.99998     10.89751     28.90961   -261.82140     18.23145      2.54927      1.79164      0.07690      0.06105     -0.00709
       5973.00000     12.19365      8.65644     32.58136      0.20694     13.32265     11.38336   2281.99961      7.79137     32.78798   -261.58590     12.73700      2.55305      1.82066      0.08115      0.05876     -0.00758
       5973.50000     15.09850      8.65644     38.18042      0.20524     16.10125     13.98545   2244.00016     10.00016     32.72766   -261.78130     15.56919      2.55975      1.82039      0.08796      0.05470     -0.00554
       5974.00000     21.97165      8.65644     38.66926      0.20256     23.20079     20.11555   2224.00003     14.05515     42.88633   -262.66960     22.28029      2.55388      1.79987      0.09021      0.05826     -0.00466
       5974.50000     23.95973      8.65644     37.57219      0.20165     25.10627     21.75515   2325.00107     15.44326     42.28115   -262.62500     24.34013      2.54777      1.77100      0.08311      0.06196     -0.00368
       5975.00000     19.28109      8.67865     34.19374      0.20242     20.39835     17.44571   2342.00112     12.46205     38.12875   -262.05360     19.72666      2.53867      1.74489      0.07890      0.06747     -0.00450
       5975.50000     16.47237      8.65644     29.88369      0.20285     17.63173     14.85662   2330.99897     10.42101     34.47327   -262.22660     16.95776      2.52996      1.72252      0.08326      0.07275      0.00061
       5976.00000     17.11233      8.65644     31.35051      0.20198     18.42983     15.43059   2318.00052     10.72369     32.37492   -262.37500     17.77687      2.53405      1.71622      0.09120      0.07027      0.00298
       5976.50000     13.97336      8.61201     34.11700      0.19918     15.33490     12.58239   2215.99998      8.46488     33.31962   -262.62500     14.69413      2.52420      1.71821      0.10385      0.07624      0.00454
       5977.00000      6.39184      8.60091     34.52319      0.20459      7.33939      5.81963   2241.50006      3.77995     16.38542   -263.31250      6.80700      2.50050      1.73147      0.11700      0.09061     -0.00005
       5977.50000      2.98649      8.54537     26.83053      0.21252      3.40431      2.71201   2238.99996      1.61591      8.16502   -264.08930      3.19275      2.45564      1.74117      0.14994      0.11780     -0.00239
