~VERSION
 VERS.        2.00                                                                   :CWLS LOG ASCII STANDARD
 WRAP.        NO                                                                     :NO WRAP PERFORMED
 PROD.        Schlumberger                                                           :LAS Producer
 CREA.        11/5/2012                                         :LAS Creation Date and time
~Well
#MNEM.UNIT    VALUE                                                                   :DESCRIPTION
#----.----    ---------------                                                        :-------------------
 STRT.F       7170.000                                                               :START DEPTH
 STOP.F       5320.000                                                               :STOP  DEPTH
 STEP.F       -0.500                                                                 :DEPTH STEP
 NULL.        -999.250                                                               :NULL VALUE
 COMP.        ADM COMPANY                                       :COMPANY NAME
 WELL.        Verification Well #2                              :WELL NAME
 FLD.         Wildcat                                           :FIELD NAME
 API.         121152355200                                                           :API NUMBER
 CNTY.        Macon                                                                  :COUNTY
 STAT.        Illinois                                                               :STATE
 CTRY.        US                                                                     :COUNTRY
 LOC.         Lat: 39.8922313 Long: -88.8924449                                      :WELL SURFACE LOCATION LINE 1
 LOC2.        248' South and 233' East From NW corner of the                         :WELL SURFACE LOCATION LINE 2
 LOC3.        NW/4, of the NE/4, of the NW/4, of Section 32                          :WELL SURFACE LOCATION LINE 3
 SECT.        32                                                                     :SECTION
 TOWN.        17 North                                                               :TOWNSHIP
 RANG.        3 East                                                                 :RANGE
 LATI.        39.892231 degrees                                                      :Latitude
 LONG.        -88.892444 degrees                                                     :Longitude
 DATE.        2012/10/31                                                             :LOGGING DATE
 SRVC.        Schlumberger                                                           :SERVICE COMPANY
~Parameter
#MNEM.UNIT    VALUE                                                                  :DESCRIPTION
#----.----    ---------------                                                        :-------------------
 APD.F        17.000                                                                 :Elevation of depth reference above permanent datum
 EDF.F        -999.250                                                               :Elevation of Derrick Floor
 EGL.F        686.500                                                                :Elevation of Ground Level
 EKB.F        703.500                                                                :Elevation of Kelly Bushing
 EPD.F        686.500                                                                :Elevation of Permnaent Datum
 LMF.         Kelly Bushing                                                          :Logging Measured From
 PDAT.        Ground Level                                                           :Permanent Datum
 TDD.F        7225.000                                                               :Total Depth Driller
 TDL.F        7223.000                                                               :Total Depth Logger
 BS.IN        8.500                                                                  :Bit Size
 R1.                                                                                 :REMARK 1
 R2.                                                                                 :REMARK 2
 R3.                                                                                 :REMARK 3
 R4.                                                                                 :REMARK 4
 R5.                                                                                 :REMARK 5
 R6.                                                                                 :REMARK 6
 R7.                                                                                 :REMARK 7
 R8.                                                                                 :REMARK 8
 R9.                                                                                 :REMARK 9
 R10.                                                                                :REMARK 10
 DCS_CENTER.  Denver                                                                 :Schlumberger DCS Center
 LOG_ANALYST. Oliver                                                                 :Log Analyst Name
 ENG.         Beth DiBella                                                           :Field Engineer Name
 GF_BASELINE. 45                                                                     :GeoFrame Baseline
~Curve
#MNEM.UNIT                                                                           :DESCRIPTION
#----.----                                                                           :--------------------------------
 DEPT.F                                                                              :Depth Index
 GR.GAPI                                                                             : 1 Gamma Ray                                                                                 
 RHOZ.G/C3                                                                           : 2 HRDD Standard Resolution Formation Density                                                
 BS.IN                                                                               : 3 Bit Size                                                                                  
 P1AZ.DEG                                                                            : 4 Pad 1 Azimuth in Horizontal Plane (0 = True North)                                        
 SDEVM.DEG                                                                           : 5 Memorized Sonde Deviation                                                                 
 HAZIM.DEG                                                                           : 6 Memorized Hole Azimuth Relative to True North                                             
 RB.DEG                                                                              : 7 Relative Bearing                                                                          
 DEVI.DEG                                                                            : 8 Hole Deviation                                                                            
 HD1_PPC1.IN                                                                         : 9 PPC1 Hole Diameter 1                                                                      
 HD2_PPC1.IN                                                                         :10 PPC1 Hole Diameter 2                                                                      
 TENS.LBS                                                                            :11 Cable Tension                                                                             
 HDAR.IN                                                                             :12 Hole Diameter from Area                                                                   
 MINXENE_OVERALL.                                                                    :13 Overall estimate of minimum cross energy                                                  
 MAXXENE_OVERALL.                                                                    :14 Overall estimate of maximum cross energy                                                  
 FSH_AZIM_OVERALL_FILT.DEG                                                           :15 Overall estimate of fast shear azimuth filtered                                           
 FSH_AZIM_OVERALL.DEG                                                                :16 Overall estimate of fast shear azimuth                                                    
 FSH_AZIM_ERR.DEG                                                                    :17 Fast shear azimuth error                                                                  
 DTSM_SLOW.US/F                                                                      :18 Shear Slowness of Slow Shear Waves                                                        
 DTSM_FAST.US/F                                                                      :19 Shear Slowness of Fast Shear Waves                                                        
 DTCO.US/F                                                                           :20 Delta-T Compressional                                                                     
 SLOANI.                                                                             :21 Slowness based anisotropy                                                                 
 TIMANI.                                                                             :22 Time based anisotropy                                                                     
 TWE.US                                                                              :23 Time window end                                                                           
 TWB.US                                                                              :24 Time window begin                                                                         
~Ascii   DEPT            GR          RHOZ            BS          P1AZ         SDEVM         HAZIM            RB          DEVI      HD1_PPC1      HD2_PPC1          TENS          HDAR  MINXENE_OVER  MAXXENE_OVER  FSH_AZIM_OVE  FSH_AZIM_OVE  FSH_AZIM_ERR     DTSM_SLOW     DTSM_FAST          DTCO        SLOANI        TIMANI           TWE           TWB
# ...
    6802.00000      88.31362       2.43667      17.50000     199.32518       0.97049      64.20593     135.12335       0.94549       8.68897       8.64352    2785.66675       8.66624       0.52911       2.72415    -999.25000      64.78212       4.90747     136.84158     134.13799      75.42329       1.99543       0.47546    4756.28027    2356.28027
    6801.50000      90.21590       2.43932      17.50000     200.13756       0.96746      63.89472     136.24692       0.94162       8.73456       8.64352    2746.00000       8.68904       0.50149       2.85869    -999.25000      64.91710       4.30467     135.67644     132.88554      75.14798       2.07840       0.50391    4752.51367    2352.51367
    6801.00000      94.66322       2.44059      17.50000     201.62253       0.96422      63.58591     138.04066       0.93818       8.68982       8.61809    2821.00000       8.65396       0.46968       2.93732    -999.25000      65.37468       3.83833     134.14012     131.58110      75.21429       1.92609       0.49135    4746.45508    2346.45508
    6800.50000      94.24300       2.44810      17.50000     203.39668       0.96084      63.27908     140.12157       0.93329       8.65549       8.59265    2792.00000       8.62407       0.44415       3.01649    -999.25000      65.55542       3.53884     132.41374     130.13701      74.95047       1.73432       0.46310    4738.29102    2338.29077
    6800.00000      90.62876       2.45471      17.50000     205.69739       0.95741      62.97955     142.72169       0.92906       8.64089       8.59210    2865.01660       8.61650       0.42815       3.20553    -999.25000      65.72108       3.37340     130.66278     128.24377      73.83522       1.86863       0.46892    4729.55322    2329.55322
    6799.50000      82.84940       2.45695      17.50000     208.69907       0.95405      62.69300     146.00975       0.92533       8.59768       8.57535    2716.42236       8.58651       0.41923       3.33698    -999.25000      65.92641       3.23167     128.95116     125.82008      72.39532       2.45795       0.48374    4720.84229    2320.84229
    6799.00000      68.47073       2.45151      17.50000     210.66212       0.95085      62.41422     148.25143       0.92158       8.52661       8.52531    2783.89575       8.52596       0.41212       3.37509      65.99750      65.99750       3.14155     127.22939     123.34154      71.13277       3.10319       0.47701    4712.31152    2312.31177
    6798.50000      54.45696       2.45113      17.50000     211.69273       0.94791      62.15632     149.53984       0.91842       8.52022       8.49619    2755.34668       8.50820       0.40202       3.40328      66.05823      66.05823       3.17466     125.31496     121.16692      70.24796       3.36580       0.47514    4705.14648    2305.14648
    6798.00000      47.56503       2.45116      17.50000     212.55449       0.94534      61.92324     150.63458       0.91604       8.52101       8.47890    2825.43921       8.49996       0.40028       3.33743      66.00500      66.00500       3.06234     123.44754     119.43457      69.68545       3.30446       0.47918    4701.11572    2301.11572
    6797.50000      47.17448       2.45227      17.50000     216.79585       0.94322      61.71686     155.08197       0.91398       8.51824       8.46654    2794.26660       8.49239       0.39770       3.35770      65.95307      65.95307       2.93354     121.79257     117.78112      69.38851       3.34882       0.50124    4700.66113    2300.66089
    6797.00000      48.93213       2.44905      17.50000     220.52887       0.94161      61.52965     159.00182       0.91270       8.51838       8.43976    2688.75000       8.47907       0.39743       3.44233      66.14311      66.14311       2.96792     120.34198     116.38721      69.37317       3.34117       0.52857    4703.87939    2303.87939
    6796.50000      50.23032       2.44526      17.50000     221.06197       0.94054      61.36474     159.69974       0.91167       8.51658       8.45386    2864.70459       8.48522       0.40376       3.47201      66.67900      66.67900       2.92673     119.38959     115.61772      69.46555       3.21000       0.53266    4712.05371    2312.05371
    6796.00000      52.92935       2.44334      17.50000     221.50252       0.94002      61.22527     160.27969       0.91162       8.50938       8.45513    2990.53613       8.48225       0.39992       3.47686      67.24513      67.24513       2.89541     118.95664     115.37134      69.70397       3.06007       0.51273    4723.63135    2323.63135
    6795.50000      57.18590       2.44363      17.50000     224.90163       0.94003      61.11282     163.79086       0.91220       8.51838       8.45069    2797.33765       8.48454       0.39942       3.46362      67.53964      67.53964       2.96319     118.77335     115.31064      70.18968       2.95852       0.50363    4737.24463    2337.24463
    6795.00000      61.44225       2.44888      17.50000     227.27592       0.94047      60.99717     166.28053       0.91381       8.51783       8.46299    2752.95557       8.49041       0.41078       3.48733      68.21426      68.21426       3.16981     118.66386     115.17348      70.69839       2.98531       0.53852    4752.11182    2352.11182
    6794.50000      60.68224       2.46343      17.50000     228.69905       0.94123      60.88567     167.81497       0.91599       8.51782       8.45510    2715.28711       8.48646       0.43207       3.37257      69.20384      69.20384       3.58901     118.54765     114.99522      70.76982       3.04221       0.54441    4767.35889    2367.35889
    6794.00000      56.39926       2.47347      17.50000     230.38083       0.94213      60.75571     169.62650       0.91836       8.50836       8.46346    2806.00342       8.48591       0.45682       3.21764      69.87513      69.87513       3.92611     118.43688     114.97206      70.33666       2.96888       0.51004    4782.22656    2382.22656
    6793.50000      57.26703       2.47881      17.50000     232.95192       0.94298      60.60368     172.34927       0.92121       8.50578       8.46127    2787.00000       8.48353       0.48698       3.14895      70.69778      70.69778       4.46717     118.61029     115.10796      69.77292       2.99705       0.45395    4795.20605    2395.20630
    6793.00000      58.51711       2.46894      17.50000     234.85204       0.94356      60.42443     174.42836       0.92295       8.49670       8.46483    2787.50000       8.48076       0.52915       3.03508      71.50374      71.50374       5.14799     119.18214     115.37093      69.47557       3.24977       0.37949    4806.52393    2406.52393
    6792.50000      59.08031       2.46053      17.50000     236.27548       0.94365      60.20043     176.07558       0.92493       8.49557       8.46527    2781.83325       8.48042       0.56778       2.87850      72.34691      72.34691       5.50321     119.94277     115.91588      69.40191       3.41467       0.32411    4817.51270    2417.51221
    6792.00000      57.73971       2.45276      17.50000     238.25095       0.94306      59.93533     178.31586       0.92567       8.48810       8.47385    2750.75024       8.48097       0.60531       2.73187      73.64709      73.64709       5.90809     120.56762     116.76311      69.67652       3.20608       0.31691    4830.85303    2430.85303
    6791.50000      59.14097       2.44734      17.50000     242.20164       0.94164      59.61425     182.58705       0.92504       8.49626       8.46877    2799.58325       8.48252       0.63102       2.63509      74.78241      74.78241       6.18606     121.16785     117.85728      70.30683       2.77006       0.33506    4847.79980    2447.79980
    6791.00000      61.08145       2.45274      17.50000     244.39494       0.93933      59.24092     185.15334       0.92307       8.50124       8.47438    2778.88916       8.48781       0.64804       2.56579      75.92458      75.92458       6.28062     122.50710     119.53288      71.17712       2.45762       0.33810    4865.47559    2465.47559
