~VERSION
 VERS.        2.00                                                                   :CWLS LOG ASCII STANDARD
 WRAP.        NO                                                                     :NO WRAP PERFORMED
 PROD.        Schlumberger                                                           :LAS Producer
 CREA.        Fri Nov 16 12:50:33 2012                                               :LAS Creation Date and time
~Well
#MNEM.UNIT    VALUE                                                                   :DESCRIPTION
#----.----    ---------------                                                        :-------------------
 STRT.F       5331.500                                                               :START DEPTH
 STOP.F       350.000                                                                :STOP  DEPTH
 STEP.F       -0.500                                                                 :DEPTH STEP
 NULL.        -999.250                                                               :NULL VALUE
 COMP.        ADM                                                                    :COMPANY NAME
 WELL.        Verification Well #2                                                   :WELL NAME
 FLD.         Wildcat                                                                :FIELD NAME
 API.         12115235520000                                                         :API NUMBER
 CNTY.        Macon                                                                  :COUNTY
 STAT.        Illinois                                                               :STATE
 CTRY.        US                                                                     :COUNTRY
 LOC.         Long:-88.8924449, Lat: 39.8922313                                      :WELL SURFACE LOCATION LINE 1
 LOC2.        248' South and 233' East from the NW corner of the                     :WELL SURFACE LOCATION LINE 2
 LOC3.        NW/4, of the NE/4, of the NW/4, of Section 32                          :WELL SURFACE LOCATION LINE 3
 SECT.        32                                                                     :SECTION
 TOWN.        17 North                                                               :TOWNSHIP
 RANG.        3 East                                                                 :RANGE
 LATI.        39.892232 degrees                                                      :Latitude
 LONG.        -88.892445 degrees                                                     :Longitude
 DATE.        2012/10/08                                                             :LOGGING DATE
 SRVC.        Schlumberger                                                           :SERVICE COMPANY
~Parameter
#MNEM.UNIT    VALUE                                                                  :DESCRIPTION
#----.----    ---------------                                                        :-------------------
 APD.F        17.000                                                                 :Elevation of depth reference above permanent datum
 EDF.F        703.500                                                                :Elevation of Derrick Floor
 EGL.F        686.500                                                                :Elevation of Ground Level
 EKB.F        703.500                                                                :Elevation of Kelly Bushing
 EPD.F        686.500                                                                :Elevation of Permnaent Datum
 LMF.         KB                                                                     :Logging Measured From
 PDAT.        Ground level                                                           :Permanent Datum
 TDD.F        5316.000                                                               :Total Depth Driller
 TDL.F        5316.000                                                               :Total Depth Logger
 BS.IN        12.250                                                                 :Bit Size
 R1.                                                                                 :REMARK 1
 R2.                                                                                 :REMARK 2
 R3.                                                                                 :REMARK 3
 R4.                                                                                 :REMARK 4
 R5.                                                                                 :REMARK 5
 R6.                                                                                 :REMARK 6
 R7.                                                                                 :REMARK 7
 R8.                                                                                 :REMARK 8
 R9.                                                                                 :REMARK 9
 R10.                                                                                :REMARK 10
 DCS_CENTER.  Denver DCS                                                             :Schlumberger DCS Center
 LOG_ANALYST. Roberts                                                                :Log Analyst Name
 ENG.         Kevin Ryan                                                             :Field Engineer Name
 GF_BASELINE. GF45                                                                   :GeoFrame Baseline
~Curve
#MNEM.UNIT                                                                           :DESCRIPTION
#----.----                                                                           :--------------------------------
 DEPT.F                                                                              :Depth Index
 GR.GAPI                                                                             : 1 Gamma Ray                                                                                 
 RHOZ.G/C3                                                                           : 2 HRDD Standard Resolution Formation Density                                                
 BS.IN                                                                               : 3 Bit Size                                                                                  
 P1AZ.DEG                                                                            : 4 Pad 1 Azimuth in Horizontal Plane (0 = True North)                                        
 SDEVM.DEG                                                                           : 5 Memorized Sonde Deviation                                                                 
 HAZIM.DEG                                                                           : 6 Memorized Hole Azimuth Relative to True North                                             
 RB.DEG                                                                              : 7 Relative Bearing                                                                          
 DEVI.DEG                                                                            : 8 Hole Deviation                                                                            
 HD1_PPC1.IN                                                                         : 9 PPC1 Hole Diameter 1                                                                      
 HD2_PPC1.IN                                                                         :10 PPC1 Hole Diameter 2                                                                      
 TENS.LBS                                                                            :11 Cable Tension                                                                             
 HDAR.IN                                                                             :12 Hole Diameter from Area                                                                   
 MINXENE_OVERALL.                                                                    :13 Overall estimate of minimum cross energy                                                  
 MAXXENE_OVERALL.                                                                    :14 Overall estimate of maximum cross energy                                                  
 FSH_AZIM_OVERALL_FILT.DEG                                                           :15 Overall estimate of fast shear azimuth filtered                                           
 FSH_AZIM_OVERALL.DEG                                                                :16 Overall estimate of fast shear azimuth                                                    
 FSH_AZIM_ERR.DEG                                                                    :17 Fast shear azimuth error                                                                  
 DTSM_SLOW.US/F                                                                      :18 Shear Slowness of Slow Shear Waves                                                        
 DTSM_FAST.US/F                                                                      :19 Shear Slowness of Fast Shear Waves                                                        
 DTCO.US/F                                                                           :20 Delta-T Compressional                                                                     
 SLOANI.                                                                             :21 Slowness based anisotropy                                                                 
 TIMANI.                                                                             :22 Time based anisotropy                                                                     
 TWE.US                                                                              :23 Time window end                                                                           
 TWB.US                                                                              :24 Time window begin                                                                         
 FLAG.                                                                               :25 Shear Flag                                                                    
 FLAG.                                                                               :26 Bad Hole Flag                                                                    
~Ascii   DEPT            GR          RHOZ            BS          P1AZ         SDEVM         HAZIM            RB          DEVI      HD1_PPC1      HD2_PPC1          TENS          HDAR  MINXENE_OVER  MAXXENE_OVER  FSH_AZIM_OVE  FSH_AZIM_OVE  FSH_AZIM_ERR     DTSM_SLOW     DTSM_FAST          DTCO        SLOANI        TIMANI           TWE           TWB          FLAG          FLAG
# ...
     359.50000      48.89288       3.37747      17.50000     232.67552       0.42177     234.89458     357.78101       0.71427      12.99214      13.04100    1142.14624      13.01657       5.52803      10.33272    -999.25000      72.53123      10.86801    -999.25000    -999.25000      78.40461    -999.25000       1.09033    5747.16846    2747.16846       1.00000    -999.25000
     359.00000      53.11862       3.54606      17.50000     211.94417       0.43948     232.80051     339.14423       0.68201      12.99900      13.04108    1144.69299      13.02004       5.93695      12.39218    -999.25000      70.18825      10.89399    -999.25000    -999.25000      72.30339    -999.25000       1.20969    5698.70947    2698.70947       1.00000    -999.25000
     358.50000      57.46837       3.57134      17.50000     202.80370       0.44807     230.89157     331.91287       0.65143      12.99908      13.04098    1152.79749      13.02003       6.72487      14.73710    -999.25000      68.51773      11.51549    -999.25000    -999.25000      66.60545    -999.25000       1.23308    5647.72314    2647.72314       1.00000    -999.25000
     358.00000      60.26368       3.63422      17.50000     190.39755       0.44857     228.93047     321.46796       0.60064      12.99105      13.04098    1174.20959      13.01602       8.56076      17.45622    -999.25000      66.37488      12.04929    -999.25000    -999.25000      61.59679    -999.25000       1.27830    5599.06787    2599.06812       1.00000    -999.25000
     357.50000      64.97935       3.68270      17.50000     174.25523       0.44301     226.82452     307.43152       0.46199      12.99360      13.03831    1148.78967      13.01596      11.14823      20.33637    -999.25000      64.94505      12.43961    -999.25000    -999.25000      57.71310    -999.25000       1.38992    5550.61133    2550.61133       1.00000    -999.25000
     357.00000      83.44195       3.70597      17.50000      81.92213       0.43382     224.79355     217.12779       0.22052      13.00193      13.03209    1167.27832      13.01701      14.05918      23.68695    -999.25000      65.67395      13.25458    -999.25000    -999.25000      55.07257    -999.25000       1.50267    5502.96191    2502.96191       1.00000    -999.25000
     356.50000     110.91384       3.71209      17.50000      39.95824       0.42336     222.76463     177.19370       0.16442      13.00920      13.04098    1142.46838      13.02509      17.55997      27.41720    -999.25000      66.58323      14.06301    -999.25000    -999.25000      53.40314    -999.25000       1.63899    5446.26611    2446.26611       1.00000    -999.25000
     356.00000     136.16318       3.71193      17.50000       7.95125       0.41373     221.16476     146.78717       0.17883      13.00119      13.04098    1143.42407      13.02109      21.09662      30.82346    -999.25000      66.22906      14.80723    -999.25000    -999.25000      52.47965    -999.25000       1.81443    5386.92236    2386.92236       1.00000    -999.25000
     355.50000     139.99808       3.71246      17.50000     359.22336       0.40637     220.17839     139.04567       0.26401      13.00418      13.03768    1143.98901      13.02093      23.85310      33.38860    -999.25000      65.28575      15.57263    -999.25000    -999.25000      52.29990    -999.25000       1.84719    5340.19922    2340.19873       1.00000    -999.25000
     355.00000     125.71660       3.72001      17.50000     342.88916       0.40196     219.78004     123.10978       0.41830      13.00879      13.02913    1120.63562      13.01896      25.76696      34.79061    -999.25000      64.57561      15.69436    -999.25000    -999.25000      52.56123    -999.25000       1.70424    5299.21094    2299.21094       1.00000    -999.25000
     354.50000     101.84676       3.73455      17.50000     315.99496       0.40061     220.03896      95.95615       0.47266      12.99803      13.03271    1106.77209      13.01537      26.75438      35.20002    -999.25000      64.11760      15.54934    -999.25000    -999.25000      53.01946    -999.25000       1.63176    5260.83691    2260.83691       1.00000    -999.25000
     354.00000      77.52048       3.75375      17.50000     302.87955       0.40208     221.15434      81.72501       0.50130      12.99077      13.04098    1141.38464      13.01587      26.87535      34.81750    -999.25000      63.97559      15.62987    -999.25000    -999.25000      53.34508    -999.25000       1.70525    5229.10840    2229.10840       1.00000    -999.25000
     353.50000      54.84542       3.76730      17.50000     290.36960       0.40599     223.18236      67.18672       0.51319      12.99430      13.04098    1120.02563      13.01764      26.61076      34.17141    -999.25000      64.35272      15.64855    -999.25000    -999.25000      53.76041    -999.25000       1.65788    5204.67432    2204.67432       1.00000    -999.25000
     353.00000      39.87642       3.76450      17.50000     267.36447       0.41182     225.61244      41.75130       0.52617      13.00231      13.04093    1143.64575      13.02162      26.04391      33.37441    -999.25000      64.56965      15.33687    -999.25000    -999.25000      54.68200    -999.25000       1.54942    5188.20410    2188.20410       1.00000    -999.25000
     352.50000      32.22572       3.74574      17.50000     268.20880       0.41940     228.91260      39.29546       0.53074      12.99925      13.04090    1138.48181      13.02007      24.71136      31.67218    -999.25000      66.56619      15.03245    -999.25000    -999.25000      56.07530    -999.25000       1.53929    5183.92090    2183.92114       1.00000    -999.25000
     352.00000      29.38996       3.72455      17.50000     275.68765       0.42857     232.74855      42.93830       0.53466      12.98695      13.04098    1126.26514      13.01396      22.81274      29.65905    -999.25000      68.21159      15.01073    -999.25000    -999.25000      57.42152    -999.25000       1.46065    5196.69824    2196.69824       1.00000    -999.25000
     351.50000      28.63747       3.71318      17.50000     290.67404       0.43903     236.87053      53.80270       0.53908      12.98431      13.04098    1171.90149      13.01264      20.46955      27.37710    -999.25000      65.68683      14.84344    -999.25000    -999.25000      58.26495    -999.25000       1.33700    5221.15723    2221.15723       1.00000    -999.25000
     351.00000      28.88172       3.70959      17.50000     316.13028       0.45047     240.50710      75.62276       0.54363      12.99077      13.04098    1148.21619      13.01587      17.31367      24.09661    -999.25000      62.45370      14.30278    -999.25000    -999.25000      58.50822    -999.25000       1.24134    5235.32715    2235.32715       1.00000    -999.25000
     350.50000      28.86832       3.70649      17.50000     335.97708       0.46240     243.12769      92.84949       0.54942      12.99187      13.03612    1134.33032      13.01399      14.01090      20.52283    -999.25000      61.31200      13.54320    -999.25000    -999.25000      58.37613    -999.25000       1.13249    5235.75293    2235.75293       1.00000    -999.25000
     350.00000      28.08757       3.70136      17.50000     346.08865       0.47417     245.34703     100.74197       0.55673      12.98799      13.03399    1173.53589      13.01099      11.21641      17.69588    -999.25000      61.20706      12.67650    -999.25000    -999.25000      57.86423    -999.25000       0.94691    5248.22998    2248.22998       1.00000    -999.25000
