~VERSION
 VERS.        2.00                                                                   :CWLS LOG ASCII STANDARD
 WRAP.        NO                                                                     :NO WRAP PERFORMED
 PROD.        Schlumberger                                                           :LAS Producer
 CREA.        Fri Nov 16 12:50:33 2012                                               :LAS Creation Date and time
~Well
#MNEM.UNIT    VALUE                                                                   :DESCRIPTION
#----.----    ---------------                                                        :-------------------
 STRT.F       5331.500                                                               :START DEPTH
 STOP.F       350.000                                                                :STOP  DEPTH
 STEP.F       -0.500                                                                 :DEPTH STEP
 NULL.        -999.250                                                               :NULL VALUE
 COMP.        ADM                                                                    :COMPANY NAME
 WELL.        Verification Well #2                                                   :WELL NAME
 FLD.         Wildcat                                                                :FIELD NAME
 API.         12115235520000                                                         :API NUMBER
 CNTY.        Macon                                                                  :COUNTY
 STAT.        Illinois                                                               :STATE
 CTRY.        US                                                                     :COUNTRY
 LOC.         Long:-88.8924449, Lat: 39.8922313                                      :WELL SURFACE LOCATION LINE 1
 LOC2.        248' South and 233' East from the NW corner of the                     :WELL SURFACE LOCATION LINE 2
 LOC3.        NW/4, of the NE/4, of the NW/4, of Section 32                          :WELL SURFACE LOCATION LINE 3
 SECT.        32                                                                     :SECTION
 TOWN.        17 North                                                               :TOWNSHIP
 RANG.        3 East                                                                 :RANGE
 LATI.        39.892232 degrees                                                      :Latitude
 LONG.        -88.892445 degrees                                                     :Longitude
 DATE.        2012/10/08                                                             :LOGGING DATE
 SRVC.        Schlumberger                                                           :SERVICE COMPANY
~Parameter
#MNEM.UNIT    VALUE                                                                  :DESCRIPTION
#----.----    ---------------                                                        :-------------------
 APD.F        17.000                                                                 :Elevation of depth reference above permanent datum
 EDF.F        703.500                                                                :Elevation of Derrick Floor
 EGL.F        686.500                                                                :Elevation of Ground Level
 EKB.F        703.500                                                                :Elevation of Kelly Bushing
 EPD.F        686.500                                                                :Elevation of Permnaent Datum
 LMF.         KB                                                                     :Logging Measured From
 PDAT.        Ground level                                                           :Permanent Datum
 TDD.F        5316.000                                                               :Total Depth Driller
 TDL.F        5316.000                                                               :Total Depth Logger
 BS.IN        12.250                                                                 :Bit Size
 R1.                                                                                 :REMARK 1
 R2.                                                                                 :REMARK 2
 R3.                                                                                 :REMARK 3
 R4.                                                                                 :REMARK 4
 R5.                                                                                 :REMARK 5
 R6.                                                                                 :REMARK 6
 R7.                                                                                 :REMARK 7
 R8.                                                                                 :REMARK 8
 R9.                                                                                 :REMARK 9
 R10.                                                                                :REMARK 10
 DCS_CENTER.  Denver DCS                                                             :Schlumberger DCS Center
 LOG_ANALYST. Roberts                                                                :Log Analyst Name
 ENG.         Kevin Ryan                                                             :Field Engineer Name
 GF_BASELINE. GF45                                                                   :GeoFrame Baseline
~Curve
#MNEM.UNIT                                                                           :DESCRIPTION
#----.----                                                                           :--------------------------------
 DEPT.F                                                                              :Depth Index
 GR.GAPI                                                                             : 1 Gamma Ray                                                                                 
 RHOZ.G/C3                                                                           : 2 HRDD Standard Resolution Formation Density                                                
 BS.IN                                                                               : 3 Bit Size                                                                                  
 P1AZ.DEG                                                                            : 4 Pad 1 Azimuth in Horizontal Plane (0 = True North)                                        
 SDEVM.DEG                                                                           : 5 Memorized Sonde Deviation                                                                 
 HAZIM.DEG                                                                           : 6 Memorized Hole Azimuth Relative to True North                                             
 RB.DEG                                                                              : 7 Relative Bearing                                                                          
 DEVI.DEG                                                                            : 8 Hole Deviation                                                                            
 HD1_PPC1.IN                                                                         : 9 PPC1 Hole Diameter 1                                                                      
 HD2_PPC1.IN                                                                         :10 PPC1 Hole Diameter 2                                                                      
 TENS.LBS                                                                            :11 Cable Tension                                                                             
 HDAR.IN                                                                             :12 Hole Diameter from Area                                                                   
 MINXENE_OVERALL.                                                                    :13 Overall estimate of minimum cross energy                                                  
 MAXXENE_OVERALL.                                                                    :14 Overall estimate of maximum cross energy                                                  
 FSH_AZIM_OVERALL_FILT.DEG                                                           :15 Overall estimate of fast shear azimuth filtered                                           
 FSH_AZIM_OVERALL.DEG                                                                :16 Overall estimate of fast shear azimuth                                                    
 FSH_AZIM_ERR.DEG                                                                    :17 Fast shear azimuth error                                                                  
 DTSM_SLOW.US/F                                                                      :18 Shear Slowness of Slow Shear Waves                                                        
 DTSM_FAST.US/F                                                                      :19 Shear Slowness of Fast Shear Waves                                                        
 DTCO.US/F                                                                           :20 Delta-T Compressional                                                                     
 SLOANI.                                                                             :21 Slowness based anisotropy                                                                 
 TIMANI.                                                                             :22 Time based anisotropy                                                                     
 TWE.US                                                                              :23 Time window end                                                                           
 TWB.US                                                                              :24 Time window begin                                                                         
 FLAG.                                                                               :25 Shear Flag                                                                    
 FLAG.                                                                               :26 Bad Hole Flag                                                                    
~Ascii   DEPT            GR          RHOZ            BS          P1AZ         SDEVM         HAZIM            RB          DEVI      HD1_PPC1      HD2_PPC1          TENS          HDAR  MINXENE_OVER  MAXXENE_OVER  FSH_AZIM_OVE  FSH_AZIM_OVE  FSH_AZIM_ERR     DTSM_SLOW     DTSM_FAST          DTCO        SLOANI        TIMANI           TWE           TWB          FLAG          FLAG
# ...
    2680.50000      56.88420       2.69968      12.25000     226.60498       1.63342     240.66402     345.94644       1.65725      12.53719      12.58817    1863.00000      12.56268       1.08107       2.22804    -999.25000      67.20556       8.95149     123.05170     123.48671      59.71141      -0.35289       0.26927    5416.67773    2416.67749    -999.25000    -999.25000
    2680.00000      62.84304       2.69086      12.25000     226.59695       1.63480     240.71683     345.88565       1.65907      12.53462      12.60070    1819.33337      12.56766       0.97418       2.20228    -999.25000      67.43225       8.77006     122.93877     123.75632      62.06967      -0.66280       0.25180    5420.86230    2420.86206    -999.25000    -999.25000
    2679.50000      64.08399       2.67689      12.25000     226.28191       1.63589     240.76546     345.52209       1.66109      12.55826      12.57620    1898.25000      12.56723       0.93338       2.07473    -999.25000      67.11465       8.81940     123.32160     124.27334      65.42693      -0.76879       0.22404    5422.68848    2422.68848    -999.25000    -999.25000
    2679.00000      66.12962       2.65898      12.25000     225.91910       1.63662     240.80324     345.12167       1.66198      12.55826      12.58817    1807.00000      12.57322       0.90673       2.00464    -999.25000      65.88660       8.77710     124.71942     125.89324      67.84166      -0.93676       0.18838    5422.51074    2422.51025    -999.25000    -999.25000
    2678.50000      64.92635       2.64354      12.25000     225.48669       1.63693     240.83127     344.66138       1.66222      12.55826      12.60015    1927.00012      12.57920       0.88095       1.96625    -999.25000      63.96144       8.26058     126.17913     127.39958      68.83525      -0.96258       0.21310    5421.54883    2421.54932    -999.25000    -999.25000
    2678.00000      68.37107       2.62982      12.25000     225.12231       1.63678     240.85167     344.27673       1.66191      12.54923      12.60015    1732.07800      12.57469       0.85788       1.90913    -999.25000      61.90900       7.75901     128.57909     129.32101      69.37726      -0.57536       0.24738    5422.49316    2422.49365    -999.25000    -999.25000
    2677.50000      71.39497       2.62987      12.25000     224.62697       1.63612     240.86882     343.76443       1.66029      12.56135      12.60015    1851.23218      12.58075       0.84923       1.95509    -999.25000      60.74558       7.18805     131.17761     131.28339      70.45009      -0.08060       0.27769    5426.81152    2426.81128    -999.25000    -999.25000
    2677.00000      73.46244       2.62484      12.25000     224.01643       1.63496     240.87502     343.14789       1.65865      12.56444      12.59502    1891.73157      12.57973       0.84927       2.02998    -999.25000      60.36572       6.66189     133.22900     132.54735      71.93192       0.51295       0.27329    5434.22168    2434.22168    -999.25000    -999.25000
    2676.50000      72.26630       2.62334      12.25000     223.58685       1.63334     240.87529     342.71817       1.65688      12.55758      12.59502    1831.25195      12.57630       0.84875       2.09300    -999.25000      60.20918       6.15401     134.79224     133.32193      72.89654       1.09678       0.25695    5443.82275    2443.82275    -999.25000    -999.25000
    2676.00000      71.88388       2.63495      12.25000     223.11211       1.63131     240.87071     342.24814       1.65390      12.56564      12.60015    1902.34473      12.58289       0.84600       2.15921    -999.25000      60.12135       5.63471     135.84933     133.99350      73.00402       1.37549       0.28501    5453.72803    2453.72803    -999.25000    -999.25000
    2675.50000      72.58050       2.64659      12.25000     222.61328       1.62897     240.86540     341.75476       1.65074      12.56708      12.60062    1856.41614      12.58385       0.84134       2.22036    -999.25000      60.01646       5.32574     136.45789     134.61526      72.72664       1.35950       0.30664    5462.57764    2462.57788    -999.25000    -999.25000
    2675.00000      72.47414       2.64235      12.25000     222.11108       1.62644     240.85376     341.26434       1.64684      12.55826      12.58817    1899.00000      12.57322       0.83724       2.26811    -999.25000      59.92140       5.19193     136.90540     135.07718      72.65501       1.34436       0.31620    5470.09326    2470.09326    -999.25000    -999.25000
    2674.50000      74.65921       2.62814      12.25000     221.57483       1.62384     240.84785     340.73413       1.64347      12.55826      12.59882    1847.16675      12.57854       0.83351       2.31826    -999.25000      59.90081       5.09816     137.44928     135.54417      72.89169       1.39572       0.30160    5476.56836    2476.56812    -999.25000    -999.25000
    2674.00000      77.04359       2.60908      12.25000     221.03511       1.62133     240.84547     340.19696       1.63944      12.54849      12.59127    1850.98181      12.56988       0.82762       2.35572    -999.25000      59.75999       4.73591     137.84306     135.91791      73.43205       1.40645       0.29597    5483.22266    2483.22266    -999.25000    -999.25000
    2673.50000      80.63256       2.60314      12.25000     220.48933       1.61905     240.84369     339.65311       1.63651      12.56128      12.58039    1810.75000      12.57083       0.81632       2.36635    -999.25000      59.38657       4.41188     138.58311     137.11101      74.30148       1.06793       0.30617    5490.75781    2490.75806    -999.25000    -999.25000
    2673.00000      83.24672       2.60011      12.25000     220.07071       1.61711     240.84576     339.23251       1.63397      12.56306      12.58951    1901.84375      12.57629       0.80580       2.32279    -999.25000      58.94380       4.56785     139.75299     139.16225      75.35069       0.42360       0.28666    5497.55273    2497.55249    -999.25000    -999.25000
    2672.50000      85.02402       2.60313      12.25000     219.65042       1.61563     240.85405     338.80405       1.63146      12.55773      12.59483    1852.88879      12.57628       0.80172       2.28017    -999.25000      58.80462       4.70411     141.11774     140.84732      76.23733       0.19181       0.27503    5502.44434    2502.44409    -999.25000    -999.25000
    2672.00000      85.33521       2.60682      12.25000     219.24614       1.61467     240.87012     338.38382       1.63040      12.55395      12.58817    1769.33337      12.57106       0.79992       2.25360    -999.25000      58.86269       4.73528     142.42548     141.51987      76.77538       0.63788       0.27597    5505.98730    2505.98730    -999.25000    -999.25000
    2671.50000      82.85568       2.61517      12.25000     218.85052       1.61424     240.88853     337.96988       1.63072      12.55195      12.59096    1931.64209      12.57146       0.80041       2.20972    -999.25000      58.80836       4.78102     143.45187     142.17848      76.96266       0.89164       0.27153    5508.76660    2508.76685    -999.25000    -999.25000
    2671.00000      79.92535       2.62854      12.25000     218.50212       1.61434     240.91290     337.59723       1.63162      12.56464      12.60064    1817.94287      12.58264       0.80418       2.18421    -999.25000      58.71479       5.05615     144.00398     142.80717      76.87289       0.83456       0.26521    5511.24805    2511.24756    -999.25000    -999.25000
    2670.50000      81.71703       2.64589      12.25000     218.16415       1.61489     240.94267     337.22961       1.63332      12.54772      12.60015    1901.00000      12.57394       0.81066       2.15978    -999.25000      58.62640       5.54247     144.04980     143.03911      76.47270       0.70410       0.24278    5513.88086    2513.88037    -999.25000    -999.25000
    2670.00000      81.06164       2.64822      12.25000     217.77707       1.61581     240.97110     336.81421       1.63477      12.54542      12.58874    1838.33325      12.56708       0.81435       2.13797    -999.25000      58.52727       5.88710     144.12029     142.74110      76.00030       0.96157       0.22320    5516.81689    2516.81714    -999.25000    -999.25000
