~VERSION INFORMATION 
VERS  .    2.0                                     :CWLS Log ASCII Standard - VERSION 2.0
WRAP  .    NO                                      :One Line per Depth step
PROD  .    Schlumberger Technology Corp.           :LAS Producer
PROG  .    Horizon LASWriter 3.1.9755.0            :LAS Program name and version
SOURCE.    3A-Log[4]/Up                            :Run&Pass Information
CREA  .    10/30/2012                              :LAS Creation date {MM/DD/YYYY}
#--------------------------------------------------
~WELL INFORMATION 
#MNEM           .UNIT                      DATA            :DESCRIPTION
#----            ------          --------------            -----------------------------
STRT            .ft                  5150.00000            :START DEPTH
STOP            .ft                  7238.00000            :STOP DEPTH
STEP            .ft                         0.5            :STEP
NULL            .                       -999.25            :NULL VALUE
COMP            .                   ADM COMPANY            :COMPANY
WELL            .                Verification Well #2      :WELL NAME
FLD             .                       Wildcat            :FIELD NAME
RIGN            .                                          :Rig Name
RIGTYP          .                                          :Rig Type
SON             .                    C5FX-00022            :Service Order Number
SRVC            .                  Schlumberger            :SERVICE COMPANY
DATE            .                    10/30/2012            :LOG DATE(Composite Date for Composite LAP) (MM/DD/YYYY)
CLAB            .                       County:            :County Label
CNTY            .                         Macon            :COUNTY
SLAB            .                        State:            :State/Province Label
STAT            .                      Illinois            :STATE or PROVINCE
PROV            .                      Illinois            :STATE or PROVINCE
CTRY            .                                          :COUNTRY
CONT_REGION     .                    N. America            :Continent Region
SECT            .                            32            :Section
TOWN            .                      17 North            :Township
RANG            .                        3 East            :Range
API             .                  121152355200            :API NUMBER
UWI             .                                          :UNIQUE WELL ID
LUL             .                        Weston            :Logging Unit Location
LUN             .                          3149            :Logging Unit Number
LOC             .                Lat: 39.8922313 Long: -88.89244449:FIELD LOCATION
FL1             .                248' South and 233' East rom NW corner of the:Field Location Line 1
FL2             .                NW/4, of the NE/4, of the NW/4, of Section 32:Field Location Line 2
LATI            .deg                  39.892231            :LATITUDE
LONG            .deg                 -88.892444            :LONGITUDE
PDAT            .                            GL            :Local Permanent Datum
LMF             .                            KB            :Logging Measured From
APD             .ft                    17.00000            :Elevation of Depth Reference (LMF) Above Permanent Datum
EPD             .ft                   686.49998            :Elevation of Permanent Datum (PDAT) above Mean Sea Level
EKB             .ft                    17.00000            :Elevation of Kelly Bushing Above Permanent Datum
EDF             .ft                     -999.25            :Elevation of Drill Floor Above Permanent Datum
EGL             .ft                     0.00000            :Elevation of Ground Level Above Permanent Datum
ECF             .ft                     -999.25            :Elevation of Casing Flange above Permanent Datum
#--------------------------------------------------
~CURVE INFORMATION
#MNEM           .UNIT                  API CODE            :DESCRIPTION
#----            ------          --------------            -----------------------------
DEPT            .ft                                        :                                                        Depth Index
RLA4            .ohm.m                                     :        (HRLT-B)                (2in)                   Apparent Resistivity from Computed Focusing Mode 4
CALI            .in                                        :        (HDRS-H)                (1in)                   Caliper
GR              .gAPI                                      :        (EDTC-B)                (6in)                   Gamma Ray
MRES            .ohm.m                                     :        (HRLT-B)                (2in)                   Mud Resistivity
RLA2            .ohm.m                                     :        (HRLT-B)                (2in)                   Apparent Resistivity from Computed Focusing Mode 2
RLA5            .ohm.m                                     :        (HRLT-B)                (2in)                   Apparent Resistivity from Computed Focusing Mode 5
TENS            .lbf                                       :        (WLWorkflow)            (1in)                   Cable Tension
RT              .ohm.m                                     :        (HRLT-B)                (2in)                   True Resistivity
RXOZ            .ohm.m                                     :        (HDRS-H)                (2in)                   Invaded Formation Resistivity filtered at 18 inches
SP              .mV                                        :        (SPE-A)                 (6in)                   Spontaneous Potential
RLA3            .ohm.m                                     :        (HRLT-B)                (2in)                   Apparent Resistivity from Computed Focusing Mode 3
RHOZ            .g/cm3                                     :        (HDRS-H)                (2in)                   Standard Resolution Formation Density
PEFZ            .                                          :        (HDRS-H)                (2in)                   Standard Resolution Formation Photoelectric Factor
NPHI            .ft3/ft3                                   :        (HGNS-H)                (6in)                   Thermal Neutron Porosity (original Ratio Method) in Selected Lithology
DPHZ            .ft3/ft3                                   :        (HDRS-H)                (2in)                   Standard Resolution Density Porosity
HDRA            .g/cm3                                     :        (HDRS-H)                (2in)                   Density Standoff Correction
#-------------------------------------------------------------
#            DEPT         RLA4         CALI           GR         MRES         RLA2         RLA5         TENS           RT         RXOZ           SP         RLA3         RHOZ         PEFZ         NPHI         DPHZ         HDRA 
#                     (HRLT-B)     (HDRS-H)     (EDTC-B)     (HRLT-B)     (HRLT-B)     (HRLT-B)  (WLWorkflo)     (HRLT-B)     (HDRS-H)      (SPE-A)     (HRLT-B)     (HDRS-H)     (HDRS-H)     (HGNS-H)     (HDRS-H)     (HDRS-H) 
#                                                                                                                                                                                                                                 
#                        (2in)        (1in)        (6in)        (2in)        (2in)        (2in)        (1in)        (2in)        (2in)        (6in)        (2in)        (2in)        (2in)        (6in)        (2in)        (2in) 
~ASCII
# ...
       6770.00000      1.54711      8.50095     71.70350      0.21955      1.71471      1.43716   2421.99938      0.95444      3.36675   -269.18750      1.61760      2.22761      2.09539      0.28212      0.25600     -0.00831
       6770.50000      1.66647      8.50095     70.47405      0.22001      1.84481      1.54707   2410.99948      1.02552      3.61369   -268.88390      1.73048      2.23840      2.07641      0.27103      0.24945     -0.00668
       6771.00000      2.06178      8.50095     79.95579      0.21456      2.27707      1.91351   2381.00097      1.27196      4.36391   -268.69530      2.14063      2.26881      2.07939      0.25443      0.23102     -0.00590
       6771.50000      2.69133      8.56759     89.88545      0.20999      2.96153      2.49477   2319.00092      1.69126      5.34714   -268.30360      2.78444      2.29316      2.12627      0.24195      0.21627     -0.00490
       6772.00000      2.36101      8.67865    103.38740      0.21295      2.58964      2.19341   2358.99892      1.48884      5.88560   -267.98440      2.45428      2.30136      2.17084      0.24148      0.21130     -0.00425
       6772.50000      1.99052      8.71197    104.13100      0.21743      2.18890      1.85170   2422.50071      1.26066      5.11501   -268.19640      2.07297      2.29142      2.18074      0.25589      0.21732     -0.00092
       6773.00000      1.84006      8.78971    106.80930      0.21784      2.02425      1.71748   2382.99953      1.16906      4.81061   -268.33590      1.92135      2.29101      2.15888      0.26664      0.21757      0.00018
       6773.50000      2.10205      8.87856    100.92200      0.21131      2.33179      1.96101   2379.00017      1.29791      4.95813   -267.31250      2.20311      2.29864      2.14088      0.27586      0.21295      0.00263
       6774.00000      2.36792      8.72307     93.91696      0.20589      2.64273      2.21349   2364.00092      1.47482      5.41757   -267.12500      2.49092      2.30909      2.14600      0.28551      0.20661      0.00550
       6774.50000      1.68726      8.67865     85.08080      0.21043      1.90377      1.57994   2410.99948      1.02182      4.96922   -267.43750      1.77575      2.29769      2.12652      0.27694      0.21352      0.00814
       6775.00000      1.25477      8.76750     82.06310      0.21531      1.41992      1.17468   2390.00008      0.75821      3.67773   -267.68750      1.32184      2.27274      2.07175      0.27762      0.22864      0.00628
       6775.50000      1.29481      8.58980     74.98912      0.21217      1.46065      1.21231   2353.99917      0.77707      3.05506   -268.10940      1.36608      2.23836      2.02602      0.27548      0.24948      0.00037
       6776.00000      1.14143      8.52316     73.81278      0.21206      1.29042      1.06431   2392.99903      0.66289      2.66457   -268.27340      1.20520      2.22806      1.99382      0.30157      0.25572     -0.00196
       6776.50000      1.33584      8.54537     76.89381      0.20942      1.50762      1.24482   2399.99958      0.78947      2.88405   -268.41070      1.40731      2.23624      1.99932      0.29595      0.25076     -0.00224
       6777.00000      1.40618      8.53427     89.33244      0.20909      1.59144      1.30776   2395.49890      0.82674      3.03524   -268.67970      1.48191      2.25633      2.02750      0.28373      0.23859     -0.00134
       6777.50000      1.79841      8.52316     94.68131      0.20750      2.01358      1.66760   2465.00084      1.08450      3.74760   -268.93750      1.89652      2.26866      2.08682      0.27065      0.23111     -0.00235
       6778.00000      2.02844      8.57869    104.77510      0.20553      2.25490      1.87688   2400.99998      1.24359      4.20393   -268.47660      2.14164      2.28507      2.14276      0.27439      0.22117     -0.00258
       6778.50000      2.15670      8.58980    108.34150      0.20756      2.38716      1.98608   2326.99962      1.31752      4.95644   -268.25780      2.26715      2.30523      2.16911      0.27662      0.20895     -0.00231
       6779.00000      2.50916      8.58980    111.82650      0.20601      2.77078      2.30760   2396.00023      1.54676      5.25753   -267.93750      2.62690      2.32741      2.19598      0.25931      0.19551     -0.00212
       6779.50000      2.81650      8.58980    104.01640      0.20454      3.10858      2.58542   2379.00017      1.72238      6.02543   -267.62500      2.93465      2.33223      2.23681      0.24058      0.19259     -0.00491
       6780.00000      3.01142      8.58980     97.82258      0.20388      3.31371      2.74983   2387.99928      1.79565      6.38271   -267.65180      3.12648      2.33147      2.25456      0.24079      0.19305     -0.00771
       6780.50000      2.64376      8.58980    101.17850      0.20669      2.91684      2.41511   2454.00093      1.53054      6.28895   -268.25780      2.74250      2.31938      2.23646      0.23942      0.20037     -0.00925
       6781.00000      1.98637      8.58980    105.99170      0.21574      2.19742      1.81578   2461.99964      1.14728      5.17307   -268.07140      2.06459      2.31181      2.18530      0.25191      0.20496     -0.00994
       6781.50000      2.30533      8.60091    113.41270      0.21413      2.57552      2.10591   2465.99899      1.30659      4.72771   -267.09380      2.41036      2.32538      2.12995      0.24141      0.19674     -0.00951
       6782.00000      3.81531      8.63422    109.97090      0.20259      4.26856      3.49082   2473.50086      2.23560      5.21862   -266.96880      4.01745      2.36747      2.09919      0.23307      0.17123     -0.00757
       6782.50000      2.82969      8.63422    108.67010      0.20910      3.20087      2.58227   2396.00023      1.61614      7.52083   -266.81250      2.99248      2.40610      2.09607      0.22525      0.14782     -0.00526
       6783.00000      1.81659      8.65644    106.14400      0.21777      2.05926      1.65706   2470.00059      1.01251      6.31935   -266.95310      1.93043      2.39404      2.12971      0.23599      0.15513     -0.00611
       6783.50000      1.99085      8.65644    105.80980      0.21092      2.27338      1.81945   2342.00112      1.10416      5.40700   -267.25780      2.11857      2.35074      2.13263      0.23504      0.18137     -0.00907
       6784.00000      2.00978      8.63422     97.72807      0.20719      2.29892      1.83212   2359.99932      1.06527      4.58819   -267.43750      2.14274      2.31440      2.11507      0.23673      0.20339     -0.00939
       6784.50000      1.74894      8.61201     91.32123      0.20973      2.00591      1.58965   2407.49920      0.89202      4.66822   -267.89060      1.86405      2.30665      2.08835      0.24404      0.20809     -0.00601
       6785.00000      1.83945      8.62312     93.08261      0.20950      2.11082      1.67457   2427.99953      0.95625      4.62555   -268.46430      1.96059      2.30681      2.09318      0.25362      0.20799     -0.00197
       6785.50000      1.96822      8.63422    100.72930      0.20989      2.25433      1.78493   2399.99958      1.02888      4.60837   -268.66410      2.09195      2.31443      2.11167      0.25013      0.20338      0.00113
       6786.00000      2.22434      8.58980    105.06890      0.21207      2.52608      2.01522   2415.99923      1.19254      5.12720   -268.14290      2.36567      2.32856      2.13122      0.23924      0.19481      0.00093
       6786.50000      2.84734      8.54537    106.49070      0.21158      3.20761      2.57715   2408.00053      1.57459      5.67934   -267.95310      3.02798      2.34908      2.17583      0.23577      0.18238     -0.00243
       6787.00000      3.57539      8.56759    104.03650      0.21160      4.02608      3.22563   2396.00023      1.97618      6.94369   -267.57810      3.79914      2.37777      2.20334      0.22561      0.16499     -0.00555
       6787.50000      4.46912      8.54537     96.31888      0.21259      5.00758      4.03219   2410.99948      2.51166      8.48739   -267.28570      4.72673      2.40501      2.20417      0.21754      0.14848     -0.00643
