~VERSION
 VERS.        2.00                                                                   :CWLS LOG ASCII STANDARD
 WRAP.        NO                                                                     :NO WRAP PERFORMED
 PROD.        Schlumberger                                                           :LAS Producer
 CREA.        Fri Nov 16 12:50:33 2012                                               :LAS Creation Date and time
~Well
#MNEM.UNIT    VALUE                                                                   :DESCRIPTION
#----.----    ---------------                                                        :-------------------
 STRT.F       5331.500                                                               :START DEPTH
 STOP.F       350.000                                                                :STOP  DEPTH
 STEP.F       -0.500                                                                 :DEPTH STEP
 NULL.        -999.250                                                               :NULL VALUE
 COMP.        ADM                                                                    :COMPANY NAME
 WELL.        Verification Well #2                                                   :WELL NAME
 FLD.         Wildcat                                                                :FIELD NAME
 API.         12115235520000                                                         :API NUMBER
 CNTY.        Macon                                                                  :COUNTY
 STAT.        Illinois                                                               :STATE
 CTRY.        US                                                                     :COUNTRY
 LOC.         Long:-88.8924449, Lat: 39.8922313                                      :WELL SURFACE LOCATION LINE 1
 LOC2.        248' South and 233' East from the NW corner of the                     :WELL SURFACE LOCATION LINE 2
 LOC3.        NW/4, of the NE/4, of the NW/4, of Section 32                          :WELL SURFACE LOCATION LINE 3
 SECT.        32                                                                     :SECTION
 TOWN.        17 North                                                               :TOWNSHIP
 RANG.        3 East                                                                 :RANGE
 LATI.        39.892232 degrees                                                      :Latitude
 LONG.        -88.892445 degrees                                                     :Longitude
 DATE.        2012/10/08                                                             :LOGGING DATE
 SRVC.        Schlumberger                                                           :SERVICE COMPANY
~Parameter
#MNEM.UNIT    VALUE                                                                  :DESCRIPTION
#----.----    ---------------                                                        :-------------------
 APD.F        17.000                                                                 :Elevation of depth reference above permanent datum
 EDF.F        703.500                                                                :Elevation of Derrick Floor
 EGL.F        686.500                                                                :Elevation of Ground Level
 EKB.F        703.500                                                                :Elevation of Kelly Bushing
 EPD.F        686.500                                                                :Elevation of Permnaent Datum
 LMF.         KB                                                                     :Logging Measured From
 PDAT.        Ground level                                                           :Permanent Datum
 TDD.F        5316.000                                                               :Total Depth Driller
 TDL.F        5316.000                                                               :Total Depth Logger
 BS.IN        12.250                                                                 :Bit Size
 R1.                                                                                 :REMARK 1
 R2.                                                                                 :REMARK 2
 R3.                                                                                 :REMARK 3
 R4.                                                                                 :REMARK 4
 R5.                                                                                 :REMARK 5
 R6.                                                                                 :REMARK 6
 R7.                                                                                 :REMARK 7
 R8.                                                                                 :REMARK 8
 R9.                                                                                 :REMARK 9
 R10.                                                                                :REMARK 10
 DCS_CENTER.  Denver DCS                                                             :Schlumberger DCS Center
 LOG_ANALYST. Roberts                                                                :Log Analyst Name
 ENG.         Kevin Ryan                                                             :Field Engineer Name
 GF_BASELINE. GF45                                                                   :GeoFrame Baseline
~Curve
#MNEM.UNIT                                                                           :DESCRIPTION
#----.----                                                                           :--------------------------------
 DEPT.F                                                                              :Depth Index
 GR.GAPI                                                                             : 1 Gamma Ray                                                                                 
 RHOZ.G/C3                                                                           : 2 HRDD Standard Resolution Formation Density                                                
 BS.IN                                                                               : 3 Bit Size                                                                                  
 P1AZ.DEG                                                                            : 4 Pad 1 Azimuth in Horizontal Plane (0 = True North)                                        
 SDEVM.DEG                                                                           : 5 Memorized Sonde Deviation                                                                 
 HAZIM.DEG                                                                           : 6 Memorized Hole Azimuth Relative to True North                                             
 RB.DEG                                                                              : 7 Relative Bearing                                                                          
 DEVI.DEG                                                                            : 8 Hole Deviation                                                                            
 HD1_PPC1.IN                                                                         : 9 PPC1 Hole Diameter 1                                                                      
 HD2_PPC1.IN                                                                         :10 PPC1 Hole Diameter 2                                                                      
 TENS.LBS                                                                            :11 Cable Tension                                                                             
 HDAR.IN                                                                             :12 Hole Diameter from Area                                                                   
 MINXENE_OVERALL.                                                                    :13 Overall estimate of minimum cross energy                                                  
 MAXXENE_OVERALL.                                                                    :14 Overall estimate of maximum cross energy                                                  
 FSH_AZIM_OVERALL_FILT.DEG                                                           :15 Overall estimate of fast shear azimuth filtered                                           
 FSH_AZIM_OVERALL.DEG                                                                :16 Overall estimate of fast shear azimuth                                                    
 FSH_AZIM_ERR.DEG                                                                    :17 Fast shear azimuth error                                                                  
 DTSM_SLOW.US/F                                                                      :18 Shear Slowness of Slow Shear Waves                                                        
 DTSM_FAST.US/F                                                                      :19 Shear Slowness of Fast Shear Waves                                                        
 DTCO.US/F                                                                           :20 Delta-T Compressional                                                                     
 SLOANI.                                                                             :21 Slowness based anisotropy                                                                 
 TIMANI.                                                                             :22 Time based anisotropy                                                                     
 TWE.US                                                                              :23 Time window end                                                                           
 TWB.US                                                                              :24 Time window begin                                                                         
 FLAG.                                                                               :25 Shear Flag                                                                    
 FLAG.                                                                               :26 Bad Hole Flag                                                                    
~Ascii   DEPT            GR          RHOZ            BS          P1AZ         SDEVM         HAZIM            RB          DEVI      HD1_PPC1      HD2_PPC1          TENS          HDAR  MINXENE_OVER  MAXXENE_OVER  FSH_AZIM_OVE  FSH_AZIM_OVE  FSH_AZIM_ERR     DTSM_SLOW     DTSM_FAST          DTCO        SLOANI        TIMANI           TWE           TWB          FLAG          FLAG
# ...
    1690.50000     108.23581       2.57358      12.25000      46.72154       0.67882     249.21791     157.50505       0.66181      12.53404      12.70644    1610.83215      12.62024       1.69475       2.08507    -999.25000      17.59134      23.55289     163.86543     163.14502      85.34468       0.44061       0.27795    5880.58105    2880.58130    -999.25000    -999.25000
    1690.00000     107.97049       2.58781      12.25000      47.21262       0.67938     249.08519     158.12883       0.66183      12.54013      12.69962    1570.18201      12.61988       1.76565       2.00902    -999.25000      21.09525      24.67902     166.76462     166.03465      87.35658       0.43868       0.25419    5898.05664    2898.05664    -999.25000    -999.25000
    1689.50000     111.10590       2.59854      12.25000      48.41064       0.67996     248.93565     159.47632       0.66206      12.54159      12.70814    1562.70972      12.62487       1.72657       1.94310    -999.25000      33.74738      25.58051     169.27373     168.62141      88.99342       0.38610       0.21475    5912.74414    2912.74438    -999.25000    -999.25000
    1689.00000     114.75449       2.60736      12.25000      50.67757       0.68057     248.78059     161.89818       0.66184      12.53071      12.70789    1614.72925      12.61930       1.65360       1.92225    -999.25000      46.12905      25.63165     171.07092     170.85475      90.16830       0.12644       0.13131    5925.48730    2925.48730    -999.25000    -999.25000
    1688.50000     116.75219       2.62066      12.25000      53.49650       0.68123     248.63426     164.86327       0.66203      12.53633      12.70770    1681.99463      12.62201       1.68020       1.93151    -999.25000      49.07049      20.49598     172.46107     172.28809      90.81479       0.10036       0.11713    5936.51172    2936.51172    -999.25000    -999.25000
    1688.00000     112.10152       2.61536      12.25000      55.70792       0.68193     248.51228     167.19650       0.66181      12.53437      12.70808    1746.40955      12.62122       1.72061       1.94069    -999.25000      50.54551      16.00089     172.70198     172.82997      90.96059      -0.07408       0.14789    5945.66797    2945.66821    -999.25000    -999.25000
    1687.50000     111.96876       2.60243      12.25000      55.19287       0.68267     248.42995     166.76384       0.66209      12.53404      12.72008    1728.00000      12.62706       1.74167       1.95042    -999.25000      53.02886      16.08198     172.74219     173.12024      90.96562      -0.21861       0.15955    5953.95801    2953.95801    -999.25000    -999.25000
    1687.00000     108.67749       2.59037      12.25000      55.31001       0.68346     248.39583     166.91507       0.66238      12.53404      12.72008    1547.66663      12.62706       1.75204       1.97376    -999.25000      55.09101      15.82153     172.70633     173.24222      91.07883      -0.30981       0.18948    5961.96191    2961.96240    -999.25000    -999.25000
    1686.50000     112.79343       2.58686      12.25000      55.70023       0.68429     248.41969     167.28142       0.66285      12.53404      12.71080    1666.08569      12.62242       1.75676       1.99564    -999.25000      56.31928      15.18827     172.80360     173.31232      91.42737      -0.29396       0.22987    5969.24170    2969.24219    -999.25000    -999.25000
    1686.00000     113.45086       2.58283      12.25000      56.91755       0.68516     248.50443     168.41394       0.66410      12.53404      12.71609    1577.33325      12.62506       1.76656       2.00583    -999.25000      56.52538      14.75956     173.28383     173.33563      91.71481      -0.02989       0.25195    5975.23877    2975.23926    -999.25000    -999.25000
    1685.50000     114.15604       2.57681      12.25000      56.63035       0.68605     248.64323     167.98795       0.66558      12.53531      12.71319    1696.15088      12.62425       1.78233       2.01120    -999.25000      56.43826      14.73447     173.94987     173.53601      91.72026       0.23820       0.25436    5979.82617    2979.82617    -999.25000    -999.25000
    1685.00000     114.34599       2.58051      12.25000      54.10796       0.68697     248.83537     165.27361       0.66711      12.53531      12.70790    1618.94446      12.62160       1.79056       2.01046    -999.25000      57.83200      14.99180     174.72426     173.95947      91.51616       0.43867       0.26364    5982.66602    2982.66553    -999.25000    -999.25000
    1684.50000     113.90643       2.58778      12.25000      53.15815       0.68792     249.06790     164.09134       0.66846      12.53404      12.70417    1680.00000      12.61910       1.79584       2.00673    -999.25000      59.60867      15.30731     175.33942     174.65839      91.35300       0.38916       0.28094    5982.84668    2982.84668    -999.25000    -999.25000
    1684.00000     114.15921       2.59284      12.25000      52.65595       0.68887     249.32605     163.33104       0.67023      12.53404      12.69621    1615.70020      12.61513       1.80228       1.99950    -999.25000      61.31714      15.93798     175.74631     175.38339      91.37992       0.20671       0.29314    5980.32715    2980.32666    -999.25000    -999.25000
    1683.50000     112.70671       2.59278      12.25000      52.19040       0.68982     249.60124     162.59035       0.67117      12.53524      12.69490    1569.31995      12.61507       1.80104       1.98418    -999.25000      64.39527      17.23638     176.12752     175.92918      91.63940       0.11267       0.30462    5975.82959    2975.82959    -999.25000    -999.25000
    1683.00000     113.39730       2.59067      12.25000      51.73847       0.69074     249.87929     161.86041       0.67211      12.54485      12.68429    1626.00000      12.61457       1.78651       1.96063    -999.25000      68.09387      18.77470     176.58160     176.16180      92.05724       0.23802       0.31013    5969.44824    2969.44873    -999.25000    -999.25000
    1682.50000     113.91493       2.58599      12.25000      51.27267       0.69163     250.14832     161.12563       0.67315      12.53374      12.68429    1683.66675      12.60901       1.75804       1.94335    -999.25000      71.59705      19.71129     177.30077     176.49022      92.47638       0.45821       0.31366    5961.48779    2961.48828    -999.25000    -999.25000
    1682.00000     119.83427       2.59467      12.25000      50.75898       0.69244     250.39728     160.36304       0.67476      12.53495      12.66042    1631.25000      12.59768       1.72454       1.93973    -999.25000      74.42584      19.74310     178.04257     177.06601      92.79984       0.55001       0.31116    5952.80957    2952.80957    -999.25000    -999.25000
    1681.50000     115.35273       2.59523      12.25000      50.17430       0.69311     250.62096     159.55472       0.67608      12.52322      12.66042    1540.66675      12.59182       1.68683       1.93922    -999.25000      76.25487      19.58045     178.65291     177.62622      93.01743       0.57634       0.30249    5944.05371    2944.05371    -999.25000    -999.25000
    1681.00000     118.02919       2.58967      12.25000      49.67696       0.69359     250.80444     158.87392       0.67732      12.53404      12.67236    1572.25000      12.60320       1.63772       1.93531    -999.25000      77.13147      19.74324     179.05296     178.00911      93.10977       0.58469       0.29467    5935.30078    2935.30029    -999.25000    -999.25000
    1680.50000     119.14938       2.56972      12.25000      49.15168       0.69382     250.94106     158.21207       0.67834      12.53404      12.66042    1550.00000      12.59723       1.59236       1.91953    -999.25000      77.41228      20.89524     179.23918     178.15424      93.07419       0.60714       0.27221    5926.52197    2926.52197    -999.25000    -999.25000
    1680.00000     123.96297       2.56685      12.25000      48.51235       0.69372     251.02016     157.49368       0.67897      12.55507      12.64848    1678.00012      12.60178       1.55620       1.90171    -999.25000      77.81600      21.54723     179.04607     178.24117      92.89014       0.45056       0.25480    5917.56055    2917.56055    -999.25000    -999.25000
