~VERSION
 VERS.        2.00                                                                   :CWLS LOG ASCII STANDARD
 WRAP.        NO                                                                     :NO WRAP PERFORMED
 PROD.        Schlumberger                                                           :LAS Producer
 CREA.        Fri Nov 16 12:50:33 2012                                               :LAS Creation Date and time
~Well
#MNEM.UNIT    VALUE                                                                   :DESCRIPTION
#----.----    ---------------                                                        :-------------------
 STRT.F       5331.500                                                               :START DEPTH
 STOP.F       350.000                                                                :STOP  DEPTH
 STEP.F       -0.500                                                                 :DEPTH STEP
 NULL.        -999.250                                                               :NULL VALUE
 COMP.        ADM                                                                    :COMPANY NAME
 WELL.        Verification Well #2                                                   :WELL NAME
 FLD.         Wildcat                                                                :FIELD NAME
 API.         12115235520000                                                         :API NUMBER
 CNTY.        Macon                                                                  :COUNTY
 STAT.        Illinois                                                               :STATE
 CTRY.        US                                                                     :COUNTRY
 LOC.         Long:-88.8924449, Lat: 39.8922313                                      :WELL SURFACE LOCATION LINE 1
 LOC2.        248' South and 233' East from the NW corner of the                     :WELL SURFACE LOCATION LINE 2
 LOC3.        NW/4, of the NE/4, of the NW/4, of Section 32                          :WELL SURFACE LOCATION LINE 3
 SECT.        32                                                                     :SECTION
 TOWN.        17 North                                                               :TOWNSHIP
 RANG.        3 East                                                                 :RANGE
 LATI.        39.892232 degrees                                                      :Latitude
 LONG.        -88.892445 degrees                                                     :Longitude
 DATE.        2012/10/08                                                             :LOGGING DATE
 SRVC.        Schlumberger                                                           :SERVICE COMPANY
~Parameter
#MNEM.UNIT    VALUE                                                                  :DESCRIPTION
#----.----    ---------------                                                        :-------------------
 APD.F        17.000                                                                 :Elevation of depth reference above permanent datum
 EDF.F        703.500                                                                :Elevation of Derrick Floor
 EGL.F        686.500                                                                :Elevation of Ground Level
 EKB.F        703.500                                                                :Elevation of Kelly Bushing
 EPD.F        686.500                                                                :Elevation of Permnaent Datum
 LMF.         KB                                                                     :Logging Measured From
 PDAT.        Ground level                                                           :Permanent Datum
 TDD.F        5316.000                                                               :Total Depth Driller
 TDL.F        5316.000                                                               :Total Depth Logger
 BS.IN        12.250                                                                 :Bit Size
 R1.                                                                                 :REMARK 1
 R2.                                                                                 :REMARK 2
 R3.                                                                                 :REMARK 3
 R4.                                                                                 :REMARK 4
 R5.                                                                                 :REMARK 5
 R6.                                                                                 :REMARK 6
 R7.                                                                                 :REMARK 7
 R8.                                                                                 :REMARK 8
 R9.                                                                                 :REMARK 9
 R10.                                                                                :REMARK 10
 DCS_CENTER.  Denver DCS                                                             :Schlumberger DCS Center
 LOG_ANALYST. Roberts                                                                :Log Analyst Name
 ENG.         Kevin Ryan                                                             :Field Engineer Name
 GF_BASELINE. GF45                                                                   :GeoFrame Baseline
~Curve
#MNEM.UNIT                                                                           :DESCRIPTION
#----.----                                                                           :--------------------------------
 DEPT.F                                                                              :Depth Index
 GR.GAPI                                                                             : 1 Gamma Ray                                                                                 
 RHOZ.G/C3                                                                           : 2 HRDD Standard Resolution Formation Density                                                
 BS.IN                                                                               : 3 Bit Size                                                                                  
 P1AZ.DEG                                                                            : 4 Pad 1 Azimuth in Horizontal Plane (0 = True North)                                        
 SDEVM.DEG                                                                           : 5 Memorized Sonde Deviation                                                                 
 HAZIM.DEG                                                                           : 6 Memorized Hole Azimuth Relative to True North                                             
 RB.DEG                                                                              : 7 Relative Bearing                                                                          
 DEVI.DEG                                                                            : 8 Hole Deviation                                                                            
 HD1_PPC1.IN                                                                         : 9 PPC1 Hole Diameter 1                                                                      
 HD2_PPC1.IN                                                                         :10 PPC1 Hole Diameter 2                                                                      
 TENS.LBS                                                                            :11 Cable Tension                                                                             
 HDAR.IN                                                                             :12 Hole Diameter from Area                                                                   
 MINXENE_OVERALL.                                                                    :13 Overall estimate of minimum cross energy                                                  
 MAXXENE_OVERALL.                                                                    :14 Overall estimate of maximum cross energy                                                  
 FSH_AZIM_OVERALL_FILT.DEG                                                           :15 Overall estimate of fast shear azimuth filtered                                           
 FSH_AZIM_OVERALL.DEG                                                                :16 Overall estimate of fast shear azimuth                                                    
 FSH_AZIM_ERR.DEG                                                                    :17 Fast shear azimuth error                                                                  
 DTSM_SLOW.US/F                                                                      :18 Shear Slowness of Slow Shear Waves                                                        
 DTSM_FAST.US/F                                                                      :19 Shear Slowness of Fast Shear Waves                                                        
 DTCO.US/F                                                                           :20 Delta-T Compressional                                                                     
 SLOANI.                                                                             :21 Slowness based anisotropy                                                                 
 TIMANI.                                                                             :22 Time based anisotropy                                                                     
 TWE.US                                                                              :23 Time window end                                                                           
 TWB.US                                                                              :24 Time window begin                                                                         
 FLAG.                                                                               :25 Shear Flag                                                                    
 FLAG.                                                                               :26 Bad Hole Flag                                                                    
~Ascii   DEPT            GR          RHOZ            BS          P1AZ         SDEVM         HAZIM            RB          DEVI      HD1_PPC1      HD2_PPC1          TENS          HDAR  MINXENE_OVER  MAXXENE_OVER  FSH_AZIM_OVE  FSH_AZIM_OVE  FSH_AZIM_ERR     DTSM_SLOW     DTSM_FAST          DTCO        SLOANI        TIMANI           TWE           TWB          FLAG          FLAG
    5331.50000    -999.25000    -999.25000      12.25000    -999.25000    -999.25000    -999.25000    -999.25000    -999.25000    -999.25000    -999.25000    -999.25000    -999.25000       0.53202       1.47453    -999.25000      57.13729      11.76169    -999.25000    -999.25000      72.78973    -999.25000       0.23192    4820.67578    1820.67578       1.00000    -999.25000
    5331.00000      38.69371    -999.25000      12.25000      63.82544       0.37209     211.33258     212.49231    -999.25000       3.56709       3.34479     898.50000       3.45594       0.53202       1.47453    -999.25000      57.13729      11.76169    -999.25000    -999.25000      72.78973    -999.25000       0.23192    4820.67578    1820.67578       1.00000    -999.25000
    5330.50000      38.69371    -999.25000      12.25000      63.78865       0.37209     211.33240     212.45570    -999.25000       3.56709       3.34479     878.50000       3.45594       0.53202       1.47453    -999.25000      57.13729      11.76169    -999.25000    -999.25000      72.78973    -999.25000       0.23192    4820.67578    1820.67578       1.00000    -999.25000
    5330.00000      38.69371    -999.25000      12.25000      63.76374       0.37209     211.33255     212.43065    -999.25000       3.56709       3.34479     884.75000       3.45594       0.53202       1.47453    -999.25000      57.13729      11.76169    -999.25000    -999.25000      72.78973    -999.25000       0.23192    4820.67578    1820.67578       1.00000    -999.25000
    5329.50000      38.69371    -999.25000      12.25000      63.78891       0.37209     211.33208     212.45628       0.34115       3.56709       3.34479     892.50000       3.45594       0.53202       1.47453    -999.25000      57.13729      11.76169    -999.25000    -999.25000      72.78973    -999.25000       0.23192    4820.67578    1820.67578       1.00000    -999.25000
    5329.00000      38.69371    -999.25000      12.25000      63.70255       0.37209     211.33212     212.36989       0.33947       3.56709       3.34479     903.00000       3.45594       0.53202       1.47453    -999.25000      57.13729      11.76169    -999.25000    -999.25000      72.78973    -999.25000       0.23192    4820.67578    1820.67578       1.00000    -999.25000
    5328.50000      38.69371    -999.25000      12.25000      63.70943       0.37209     211.33228     212.37662       0.34290       3.56709       3.34479     901.00006       3.45594       0.53202       1.47453    -999.25000      57.13729      11.76169    -999.25000    -999.25000      72.78973    -999.25000       0.23192    4820.67578    1820.67578       1.00000    -999.25000
    5328.00000      38.69371    -999.25000      12.25000      63.69920       0.37209     211.33235     212.36630       0.33809       3.56709       3.34479     914.00000       3.45594       0.53202       1.47453    -999.25000      57.13729      11.76169    -999.25000    -999.25000      72.78973    -999.25000       0.23192    4820.67578    1820.67578       1.00000    -999.25000
    5327.50000      38.69371    -999.25000      12.25000      63.67486       0.37209     211.33221     212.34209       0.34137       3.56709       3.34479     903.50000       3.45594       0.53202       1.47453    -999.25000      57.13729      11.76169      96.52306    -999.25000      72.78973    -999.25000       0.23192    4820.67578    1820.67578    -999.25000    -999.25000
    5327.00000      38.69371    -999.25000      12.25000      63.59121       0.37205     211.33287     212.25778       0.33888       3.56709       3.34479     916.00000       3.45594       0.53202       1.47453    -999.25000      57.13729      11.76169      96.52306    -999.25000      72.78973    -999.25000       0.23192    4820.67578    1820.67578    -999.25000    -999.25000
    5326.50000      38.69371    -999.25000      12.25000      63.70299       0.37219     211.32289     212.37956       0.34352       3.56709       3.34479     907.00000       3.45594       0.53202       1.47453    -999.25000      57.13729      11.76169      96.52306    -999.25000      72.78973    -999.25000       0.23192    4820.67578    1820.67578    -999.25000    -999.25000
    5326.00000      38.69371    -999.25000      12.25000      63.66947       0.37251     211.29385     212.37508       0.34690       3.56709       3.34479     996.50000       3.45594       0.53202       1.47453    -999.25000      57.13729      11.76169      96.52306      97.40246      72.78973      -0.90695       0.23192    4820.67578    1820.67578    -999.25000    -999.25000
    5325.50000      38.69371    -999.25000      12.25000      63.67161       0.37293     211.22980     212.44125       0.34470       3.56709       3.34479    1056.00000       3.45594       0.53202       1.47453    -999.25000      57.13729      11.76169      96.52306      97.40246      72.78973      -0.90695       0.23192    4820.67578    1820.67578    -999.25000    -999.25000
    5325.00000      38.69371    -999.25000      12.25000      63.69756       0.37334     211.10884     212.58817       0.34611       3.56709       3.34479    1131.33337       3.45594       0.53202       1.47453    -999.25000      57.13729      11.76169      96.52306      97.40246      72.78973      -0.90695       0.23192    4820.67578    1820.67578    -999.25000    -999.25000
    5324.50000      38.69371    -999.25000      12.25000      63.31705       0.37359     210.90691     212.40959       0.34624       3.56709       3.34479    1220.50000       3.45594       0.53202       1.47453    -999.25000      57.13729      11.76169      96.52306      97.40246      72.78973      -0.90695       0.23192    4820.67578    1820.67578    -999.25000    -999.25000
    5324.00000      38.69371    -999.25000      12.25000      63.15131       0.37354     210.60591     212.54486       0.34922       3.56709       3.34479    1276.33337       3.45594       0.53202       1.47453    -999.25000      57.13729      11.76169      96.52306      97.40246      72.78973      -0.90695       0.23192    4820.67578    1820.67578    -999.25000    -999.25000
    5323.50000      38.69371    -999.25000      12.25000      63.15138       0.37306     210.19148     212.95935       0.34940       3.56709       3.34479    1347.66675       3.45594       0.53202       1.47453    -999.25000      57.13729      11.76169      96.52306      97.40246      72.78973      -0.90695       0.23192    4820.67578    1820.67578    -999.25000    -999.25000
    5323.00000      38.69371    -999.25000      12.25000      63.16411       0.37206     209.66006     213.50349       0.34876       3.56709       3.34479    1445.00000       3.45594       0.53202       1.47453    -999.25000      57.13729      11.76169      96.52306      97.40246      72.78973      -0.90695       0.23192    4820.67578    1820.67578    -999.25000    -999.25000
    5322.50000      38.69371    -999.25000      12.25000      63.18827       0.37048     209.01532     214.17239       0.34733       3.56709       3.34479    1505.25000       3.45594       0.53202       1.47453    -999.25000      57.13729      11.76169      96.52306      97.40246      72.78973      -0.90695       0.23192    4820.67578    1820.67578    -999.25000    -999.25000
    5322.00000      38.69371    -999.25000      12.25000      63.21882       0.36832     208.26906     214.94922       0.34352       3.56709       3.34479    1575.33337       3.45594       0.53202       1.47453    -999.25000      57.13729      11.76169      96.52306      97.40246      72.78973      -0.90695       0.23192    4820.67578    1820.67578    -999.25000    -999.25000
    5321.50000      38.69371    -999.25000      12.25000      63.24020       0.36563     207.43491     215.80473       0.34062       3.56709       3.34479    1673.33337       3.45594       0.53202       1.47453    -999.25000      57.13729      11.76169      96.52306      97.40246      72.78973      -0.90695       0.23192    4820.67578    1820.67578    -999.25000    -999.25000
    5321.00000      38.69371    -999.25000      12.25000      63.30461       0.36250     206.52820     216.77586       0.33646       3.56709       3.34479    1724.33337       3.45594       0.53202       1.47453    -999.25000      57.13729      11.76169      96.52306      97.40246      72.78973      -0.90695       0.23192    4820.67578    1820.67578    -999.25000    -999.25000
