~VERSION
 VERS.        2.00                                                                   :CWLS LOG ASCII STANDARD
 WRAP.        NO                                                                     :NO WRAP PERFORMED
 PROD.        Schlumberger                                                           :LAS Producer
 CREA.        11/5/2012                                         :LAS Creation Date and time
~Well
#MNEM.UNIT    VALUE                                                                   :DESCRIPTION
#----.----    ---------------                                                        :-------------------
 STRT.F       7170.000                                                               :START DEPTH
 STOP.F       5320.000                                                               :STOP  DEPTH
 STEP.F       -0.500                                                                 :DEPTH STEP
 NULL.        -999.250                                                               :NULL VALUE
 COMP.        ADM COMPANY                                       :COMPANY NAME
 WELL.        Verification Well #2                              :WELL NAME
 FLD.         Wildcat                                           :FIELD NAME
 API.         121152355200                                                           :API NUMBER
 CNTY.        Macon                                                                  :COUNTY
 STAT.        Illinois                                                               :STATE
 CTRY.        US                                                                     :COUNTRY
 LOC.         Lat: 39.8922313 Long: -88.8924449                                      :WELL SURFACE LOCATION LINE 1
 LOC2.        248' South and 233' East From NW corner of the                         :WELL SURFACE LOCATION LINE 2
 LOC3.        NW/4, of the NE/4, of the NW/4, of Section 32                          :WELL SURFACE LOCATION LINE 3
 SECT.        32                                                                     :SECTION
 TOWN.        17 North                                                               :TOWNSHIP
 RANG.        3 East                                                                 :RANGE
 LATI.        39.892231 degrees                                                      :Latitude
 LONG.        -88.892444 degrees                                                     :Longitude
 DATE.        2012/10/31                                                             :LOGGING DATE
 SRVC.        Schlumberger                                                           :SERVICE COMPANY
~Parameter
#MNEM.UNIT    VALUE                                                                  :DESCRIPTION
#----.----    ---------------                                                        :-------------------
 APD.F        17.000                                                                 :Elevation of depth reference above permanent datum
 EDF.F        -999.250                                                               :Elevation of Derrick Floor
 EGL.F        686.500                                                                :Elevation of Ground Level
 EKB.F        703.500                                                                :Elevation of Kelly Bushing
 EPD.F        686.500                                                                :Elevation of Permnaent Datum
 LMF.         Kelly Bushing                                                          :Logging Measured From
 PDAT.        Ground Level                                                           :Permanent Datum
 TDD.F        7225.000                                                               :Total Depth Driller
 TDL.F        7223.000                                                               :Total Depth Logger
 BS.IN        8.500                                                                  :Bit Size
 R1.                                                                                 :REMARK 1
 R2.                                                                                 :REMARK 2
 R3.                                                                                 :REMARK 3
 R4.                                                                                 :REMARK 4
 R5.                                                                                 :REMARK 5
 R6.                                                                                 :REMARK 6
 R7.                                                                                 :REMARK 7
 R8.                                                                                 :REMARK 8
 R9.                                                                                 :REMARK 9
 R10.                                                                                :REMARK 10
 DCS_CENTER.  Denver                                                                 :Schlumberger DCS Center
 LOG_ANALYST. Oliver                                                                 :Log Analyst Name
 ENG.         Beth DiBella                                                           :Field Engineer Name
 GF_BASELINE. 45                                                                     :GeoFrame Baseline
~Curve
#MNEM.UNIT                                                                           :DESCRIPTION
#----.----                                                                           :--------------------------------
 DEPT.F                                                                              :Depth Index
 GR.GAPI                                                                             : 1 Gamma Ray                                                                                 
 RHOZ.G/C3                                                                           : 2 HRDD Standard Resolution Formation Density                                                
 BS.IN                                                                               : 3 Bit Size                                                                                  
 P1AZ.DEG                                                                            : 4 Pad 1 Azimuth in Horizontal Plane (0 = True North)                                        
 SDEVM.DEG                                                                           : 5 Memorized Sonde Deviation                                                                 
 HAZIM.DEG                                                                           : 6 Memorized Hole Azimuth Relative to True North                                             
 RB.DEG                                                                              : 7 Relative Bearing                                                                          
 DEVI.DEG                                                                            : 8 Hole Deviation                                                                            
 HD1_PPC1.IN                                                                         : 9 PPC1 Hole Diameter 1                                                                      
 HD2_PPC1.IN                                                                         :10 PPC1 Hole Diameter 2                                                                      
 TENS.LBS                                                                            :11 Cable Tension                                                                             
 HDAR.IN                                                                             :12 Hole Diameter from Area                                                                   
 MINXENE_OVERALL.                                                                    :13 Overall estimate of minimum cross energy                                                  
 MAXXENE_OVERALL.                                                                    :14 Overall estimate of maximum cross energy                                                  
 FSH_AZIM_OVERALL_FILT.DEG                                                           :15 Overall estimate of fast shear azimuth filtered                                           
 FSH_AZIM_OVERALL.DEG                                                                :16 Overall estimate of fast shear azimuth                                                    
 FSH_AZIM_ERR.DEG                                                                    :17 Fast shear azimuth error                                                                  
 DTSM_SLOW.US/F                                                                      :18 Shear Slowness of Slow Shear Waves                                                        
 DTSM_FAST.US/F                                                                      :19 Shear Slowness of Fast Shear Waves                                                        
 DTCO.US/F                                                                           :20 Delta-T Compressional                                                                     
 SLOANI.                                                                             :21 Slowness based anisotropy                                                                 
 TIMANI.                                                                             :22 Time based anisotropy                                                                     
 TWE.US                                                                              :23 Time window end                                                                           
 TWB.US                                                                              :24 Time window begin                                                                         
~Ascii   DEPT            GR          RHOZ            BS          P1AZ         SDEVM         HAZIM            RB          DEVI      HD1_PPC1      HD2_PPC1          TENS          HDAR  MINXENE_OVER  MAXXENE_OVER  FSH_AZIM_OVE  FSH_AZIM_OVE  FSH_AZIM_ERR     DTSM_SLOW     DTSM_FAST          DTCO        SLOANI        TIMANI           TWE           TWB
# ...
    6928.50000      82.11803       2.40079      17.50000     121.62920       1.03056      78.69276      42.93181       1.03999       8.63187       8.56742    3005.50024       8.59964       0.52994       1.60325    -999.25000      68.78662       9.70719     140.74533     138.50821      78.88959       1.60222       0.06467    5069.25684    2669.25732
    6928.00000      88.53234       2.43453      17.50000     123.31279       1.02928      78.91855      44.38962       1.03774       8.63353       8.55479    2866.80444       8.59416       0.52743       1.60516    -999.25000      69.33382       9.96362     139.90137     137.88087      75.73111       1.45473       0.03379    5063.89551    2663.89526
    6927.50000      91.38048       2.44608      17.50000     123.86009       1.02787      79.14888      44.70660       1.03582       8.64384       8.55950    2861.56299       8.60167       0.52128       1.55406    -999.25000      69.98720      10.02460     138.66922     137.44757      73.60201       0.88488       0.01493    5053.25488    2653.25488
    6927.00000      95.19654       2.43142      17.50000     124.33645       1.02631      79.37147      44.96039       1.03308       8.63444       8.56963    2918.25342       8.60204       0.52756       1.54712    -999.25000      71.16879      10.13050     137.98929     137.34590      72.94279       0.46735       0.01158    5038.68311    2638.68311
    6926.50000      92.69971       2.40276      17.50000     125.70144       1.02461      79.59226      46.10460       1.03115       8.62071       8.56008    2980.34106       8.59039       0.54412       1.57069    -999.25000      72.91550      10.39331     138.34346     137.91487      73.69717       0.31028       0.02883    5021.49316    2621.49316
    6926.00000      88.94389       2.37434      17.50000     128.01869       1.02275      79.80401      48.21015       1.02828       8.67774       8.60010    2993.82788       8.63892       0.54625       1.55253    -999.25000      74.05112      10.54430     139.96152     139.68806      75.48418       0.19557       0.02888    5003.98633    2603.98608
    6925.50000      87.55972       2.35028      17.50000     128.87152       1.02071      80.00637      48.86065       1.02561       8.69062       8.61831    3001.51123       8.65447       0.54048       1.56225    -999.25000      74.53160       9.93634     141.66017     141.56842      77.47720       0.06479       0.00907    4988.85352    2588.85376
    6925.00000      83.33929       2.33580      17.50000     130.23666       1.01847      80.19630      50.03590       1.02296       8.72252       8.63992    3008.33325       8.68122       0.53684       1.60508    -999.25000      76.45962       9.36322     142.64249     142.75920      79.07670      -0.08179       0.01303    4976.54346    2576.54346
    6924.50000      86.31005       2.32378      17.50000     134.95909       1.01600      80.37221      54.58263       1.01975       8.73414       8.63091    2913.00000       8.68253       0.52184       1.61934    -999.25000      79.17075       9.16332     143.12985     143.47794      79.90019      -0.24290       0.02381    4966.84766    2566.84741
    6924.00000      81.91059       2.31821      17.50000     136.71190       1.01324      80.53421      56.17355       1.01571       8.73367       8.66536    2805.25000       8.69952       0.49966       1.63941    -999.25000      80.95636       8.57608     143.71616     144.11703      80.06589      -0.27855       0.03474    4960.39453    2560.39429
    6923.50000      78.71365       2.31630      17.50000     137.48427       1.01018      80.68887      56.79132       1.01234       8.71136       8.61447    2862.50000       8.66291       0.48968       1.67397    -999.25000      82.50970       8.31714     144.70657     144.86136      79.91100      -0.10691       0.03702    4957.83398    2557.83374
    6923.00000      68.03490       2.31596      17.50000     139.31685       1.00678      80.82333      58.48958       1.00790       8.64314       8.60362    2950.25000       8.62338       0.49600       1.70801    -999.25000      84.65843       8.61435     145.69461     145.81046      80.08267      -0.07948       0.04140    4958.43994    2558.43994
    6922.50000      65.06355       2.31531      17.50000     141.17636       1.00303      80.94579      60.22679       1.00276       8.67738       8.61831    2809.33325       8.64784       0.51087       1.77006    -999.25000      86.46179       8.80240     146.33401     146.75670      80.76767      -0.28843       0.02478    4959.56152    2559.56152
    6922.00000      64.29910       2.32578      17.50000     142.43756       0.99896      81.06193      61.37197       0.99828       8.67657       8.62709    2890.33350       8.65183       0.52337       1.85519    -999.25000      87.78026       8.58692     146.81024     147.35651      81.41512      -0.37140       0.02778    4958.51953    2558.51904
    6921.50000      70.72894       2.33372      17.50000     143.81088       0.99460      81.15588      62.65149       0.99237       8.66540       8.61447    2942.75000       8.63994       0.53275       1.90630    -999.25000      89.03521       8.32540     147.17314     147.50034      81.55964      -0.22207       0.05400    4954.75977    2554.76001
    6921.00000      77.76418       2.33656      17.50000     144.96880       0.99003      81.24844      63.71695       0.98728       8.64347       8.61831    2893.25000       8.63089       0.54180       1.92559    -999.25000       0.03751       8.17546     147.35686     147.34003      81.39169       0.01142       0.05828    4948.46387    2548.46362
    6920.50000      83.25568       2.33046      17.50000     146.82973       0.98530      81.34457      65.48196       0.98113       8.66540       8.62709    2994.75000       8.64625       0.54945       1.98015    -999.25000     -89.11221       7.93066     147.32265     146.81143      81.44980       0.34761       0.08928    4940.30176    2540.30176
    6920.00000      81.79024       2.32066      17.50000     147.45908       0.98051      81.45194      66.00401       0.97432       8.65463       8.61831    2968.50000       8.63647       0.55746       2.06190    -999.25000     -88.41978       7.76798     146.98322     146.05923      82.02344       0.63061       0.13870    4931.76221    2531.76196
    6919.50000      78.56349       2.32601      17.50000     150.06227       0.97577      81.57032      68.48912       0.96913       8.81367       8.74553    2913.33325       8.77960       0.61526       2.00938    -999.25000     -87.46971       9.00496     145.85158     144.97491      82.49460       0.60288       0.17151    4923.33008    2523.32983
    6919.00000      76.33761       2.34059      17.50000     153.85660       0.97115      81.69257      72.16164       0.96252       8.81411       8.74533    2857.66675       8.77972       0.75313       1.89045    -999.25000     -85.13501      11.69653     143.80994     143.35275      81.93371       0.31841       0.17714    4914.24658    2514.24658
    6918.50000      78.10081       2.37172      17.50000     155.37883       0.96676      81.86774      73.50888       0.95652       8.73367       8.69080    2805.00000       8.71223       0.85743       1.82787    -999.25000     -82.94313      13.84884     141.16576     141.15027      80.19687       0.01097       0.17876    4903.72070    2503.72095
    6918.00000      80.83865       2.39854      17.50000     155.91803       0.96266      82.04472      73.87115       0.95218       8.70055       8.69434    2870.66675       8.69745       0.88700       1.80326    -999.25000     -82.31784      14.60206     138.35774     138.39188      77.82481      -0.02467       0.21598    4891.87549    2491.87549
    6917.50000      89.76980       2.42141      17.50000     156.79892       0.95890      82.23926      74.55760       0.94750       8.68897       8.68175    2950.25000       8.68536       0.92903       1.76319    -999.25000     -82.58247      15.48723     135.71147     135.23399      75.55548       0.35245       0.28528    4881.26953    2481.26929
