~VERSION
 VERS.        2.00                                                                   :CWLS LOG ASCII STANDARD
 WRAP.        NO                                                                     :NO WRAP PERFORMED
 PROD.        Schlumberger                                                           :LAS Producer
 CREA.        11/5/2012                                         :LAS Creation Date and time
~Well
#MNEM.UNIT    VALUE                                                                   :DESCRIPTION
#----.----    ---------------                                                        :-------------------
 STRT.F       7170.000                                                               :START DEPTH
 STOP.F       5320.000                                                               :STOP  DEPTH
 STEP.F       -0.500                                                                 :DEPTH STEP
 NULL.        -999.250                                                               :NULL VALUE
 COMP.        ADM COMPANY                                       :COMPANY NAME
 WELL.        Verification Well #2                              :WELL NAME
 FLD.         Wildcat                                           :FIELD NAME
 API.         121152355200                                                           :API NUMBER
 CNTY.        Macon                                                                  :COUNTY
 STAT.        Illinois                                                               :STATE
 CTRY.        US                                                                     :COUNTRY
 LOC.         Lat: 39.8922313 Long: -88.8924449                                      :WELL SURFACE LOCATION LINE 1
 LOC2.        248' South and 233' East From NW corner of the                         :WELL SURFACE LOCATION LINE 2
 LOC3.        NW/4, of the NE/4, of the NW/4, of Section 32                          :WELL SURFACE LOCATION LINE 3
 SECT.        32                                                                     :SECTION
 TOWN.        17 North                                                               :TOWNSHIP
 RANG.        3 East                                                                 :RANGE
 LATI.        39.892231 degrees                                                      :Latitude
 LONG.        -88.892444 degrees                                                     :Longitude
 DATE.        2012/10/31                                                             :LOGGING DATE
 SRVC.        Schlumberger                                                           :SERVICE COMPANY
~Parameter
#MNEM.UNIT    VALUE                                                                  :DESCRIPTION
#----.----    ---------------                                                        :-------------------
 APD.F        17.000                                                                 :Elevation of depth reference above permanent datum
 EDF.F        -999.250                                                               :Elevation of Derrick Floor
 EGL.F        686.500                                                                :Elevation of Ground Level
 EKB.F        703.500                                                                :Elevation of Kelly Bushing
 EPD.F        686.500                                                                :Elevation of Permnaent Datum
 LMF.         Kelly Bushing                                                          :Logging Measured From
 PDAT.        Ground Level                                                           :Permanent Datum
 TDD.F        7225.000                                                               :Total Depth Driller
 TDL.F        7223.000                                                               :Total Depth Logger
 BS.IN        8.500                                                                  :Bit Size
 R1.                                                                                 :REMARK 1
 R2.                                                                                 :REMARK 2
 R3.                                                                                 :REMARK 3
 R4.                                                                                 :REMARK 4
 R5.                                                                                 :REMARK 5
 R6.                                                                                 :REMARK 6
 R7.                                                                                 :REMARK 7
 R8.                                                                                 :REMARK 8
 R9.                                                                                 :REMARK 9
 R10.                                                                                :REMARK 10
 DCS_CENTER.  Denver                                                                 :Schlumberger DCS Center
 LOG_ANALYST. Oliver                                                                 :Log Analyst Name
 ENG.         Beth DiBella                                                           :Field Engineer Name
 GF_BASELINE. 45                                                                     :GeoFrame Baseline
~Curve
#MNEM.UNIT                                                                           :DESCRIPTION
#----.----                                                                           :--------------------------------
 DEPT.F                                                                              :Depth Index
 GR.GAPI                                                                             : 1 Gamma Ray                                                                                 
 RHOZ.G/C3                                                                           : 2 HRDD Standard Resolution Formation Density                                                
 BS.IN                                                                               : 3 Bit Size                                                                                  
 P1AZ.DEG                                                                            : 4 Pad 1 Azimuth in Horizontal Plane (0 = True North)                                        
 SDEVM.DEG                                                                           : 5 Memorized Sonde Deviation                                                                 
 HAZIM.DEG                                                                           : 6 Memorized Hole Azimuth Relative to True North                                             
 RB.DEG                                                                              : 7 Relative Bearing                                                                          
 DEVI.DEG                                                                            : 8 Hole Deviation                                                                            
 HD1_PPC1.IN                                                                         : 9 PPC1 Hole Diameter 1                                                                      
 HD2_PPC1.IN                                                                         :10 PPC1 Hole Diameter 2                                                                      
 TENS.LBS                                                                            :11 Cable Tension                                                                             
 HDAR.IN                                                                             :12 Hole Diameter from Area                                                                   
 MINXENE_OVERALL.                                                                    :13 Overall estimate of minimum cross energy                                                  
 MAXXENE_OVERALL.                                                                    :14 Overall estimate of maximum cross energy                                                  
 FSH_AZIM_OVERALL_FILT.DEG                                                           :15 Overall estimate of fast shear azimuth filtered                                           
 FSH_AZIM_OVERALL.DEG                                                                :16 Overall estimate of fast shear azimuth                                                    
 FSH_AZIM_ERR.DEG                                                                    :17 Fast shear azimuth error                                                                  
 DTSM_SLOW.US/F                                                                      :18 Shear Slowness of Slow Shear Waves                                                        
 DTSM_FAST.US/F                                                                      :19 Shear Slowness of Fast Shear Waves                                                        
 DTCO.US/F                                                                           :20 Delta-T Compressional                                                                     
 SLOANI.                                                                             :21 Slowness based anisotropy                                                                 
 TIMANI.                                                                             :22 Time based anisotropy                                                                     
 TWE.US                                                                              :23 Time window end                                                                           
 TWB.US                                                                              :24 Time window begin                                                                         
~Ascii   DEPT            GR          RHOZ            BS          P1AZ         SDEVM         HAZIM            RB          DEVI      HD1_PPC1      HD2_PPC1          TENS          HDAR  MINXENE_OVER  MAXXENE_OVER  FSH_AZIM_OVE  FSH_AZIM_OVE  FSH_AZIM_ERR     DTSM_SLOW     DTSM_FAST          DTCO        SLOANI        TIMANI           TWE           TWB
# ...
    5456.50000     167.94533       2.57262      17.50000      78.46790       0.17113     233.21085     205.25696       0.15753      10.53336       8.94953    2665.75024       9.74144       1.75314      25.45168    -999.25000      82.91245       3.94682     128.91910     129.65408      69.47310      -0.56849       1.99513    4862.85547    2462.85547
    5456.00000     171.23564       2.56472      17.50000      77.99493       0.17149     232.70563     205.28922       0.15790      10.53239       8.95099    2720.33325       9.74169       1.86259      24.47449    -999.25000      82.60587       3.73914     131.22067     130.48340      71.17384       0.56344       1.96489    4859.72461    2459.72461
    5455.50000     167.64264       2.54837      17.50000      77.46605       0.17202     232.17564     205.29030       0.15840      10.51043       8.95121    2723.50024       9.73082       1.75582      24.28817    -999.25000      82.14407       3.43488     134.41966     132.01309      72.90518       1.80651       1.97109    4856.09961    2456.09961
    5455.00000     162.76370       2.52545      17.50000      77.27385       0.17271     231.62631     205.64745       0.15948      10.52120       8.93869    2663.25000       9.72995       1.65824      23.92099    -999.25000      81.63124       3.32693     137.71031     135.15552      73.65247       1.87256       1.97242    4851.98584    2451.98584
    5454.50000     162.47760       2.50857      17.50000      76.90018       0.17351     231.06352     205.83655       0.16054      10.47859       8.90990    2747.00000       9.69425       1.58995      22.89824    -999.25000      81.05721       3.38686     141.25345     138.08844      73.35571       2.26605       1.90580    4845.01465    2445.01465
    5454.00000     158.84048       2.49437      17.50000      76.90821       0.17441     230.48740     206.42072       0.16237      10.46738       8.90990    2710.60010       9.68864       1.50805      22.05833    -999.25000      80.53310       3.38777     142.05556     138.68582      72.98117       2.40060       1.85286    4838.20605    2438.20654
    5453.50000     156.66249       2.50376      17.50000      76.83054       0.17536     229.90717     206.92326       0.16372      10.46738       8.88460    2736.19995       9.67599       1.45754      21.49447    -999.25000      80.06698       3.39307     140.33124     137.34386      74.94759       2.15171       1.82295    4839.31689    2439.31689
    5453.00000     155.82153       2.54267      17.50000      76.73775       0.17633     229.32495     207.41269       0.16502      10.44537       8.97360    2639.75000       9.70948       1.46968      20.64579    -999.25000      79.51691       3.52070     137.82889     134.70064      78.85168       2.29571       1.74456    4846.08301    2446.08276
    5452.50000     155.19017       2.54790      17.50000      76.69450       0.17727     228.74745     207.94693       0.16626      11.14279       9.40426    2727.50000      10.27352       1.47120      19.89131    -999.25000      78.98965       3.52489     135.80927     132.44687      80.16692       2.50686       1.63489    4850.57324    2450.57373
    5452.00000     150.69911       2.53883      17.50000      76.60970       0.17816     228.17639     208.43320       0.16735      11.12152       9.31333    2747.50000      10.21742       1.43959      19.82671    -999.25000      78.61797       3.46956     133.71222     131.39642      77.31178       1.74705       1.57041    4849.89893    2449.89893
    5451.50000     154.81065       2.52706      17.50000      76.37495       0.17895     227.61917     208.75568       0.16845      10.47859       8.92265    2730.75000       9.70062       1.23233      19.74493    -999.25000      79.05179       3.08213     131.63000     131.26224      72.27925       0.27979       1.60208    4845.57666    2445.57666
    5451.00000     164.30614       2.55293      17.50000      76.47405       0.17963     227.08505     209.38887       0.17011      10.38968       8.86307    2666.50024       9.62637       0.88859      19.18805    -999.25000      79.28799       2.52567     131.07422     131.29176      67.89399      -0.16583       1.64240    4839.20020    2439.20044
    5450.50000     175.75998       2.57621      17.50000      76.55064       0.18017     226.58281     209.96771       0.17089      10.40047       8.86307    2706.00000       9.63177       0.69018      18.69316    -999.25000      78.71787       2.24902     129.92012     131.03572      66.67754      -0.85501       1.63394    4832.87109    2432.87134
    5450.00000     172.12050       2.57322      17.50000      76.79446       0.18059     226.12314     210.67119       0.17140      10.37970       8.84673    2744.50000       9.61321       0.64419      18.01735    -999.25000      78.11567       2.29445     128.92714     130.49677      68.10192      -1.21009       1.58670    4828.75098    2428.75073
    5449.50000     163.32195       2.57210      17.50000      76.86859       0.18088     225.71509     211.15337       0.17153      10.34641       8.83416    2688.25000       9.59029       0.66913      17.12969    -999.25000      77.43355       2.76243     128.48419     130.07568      69.66914      -1.23104       1.49328    4827.36523    2427.36523
    5449.00000     158.56744       2.57876      17.50000      76.95071       0.18107     225.36823     211.58235       0.17150      10.32435       8.87225    2644.50000       9.59830       0.74705      16.90823    -999.25000      77.65896       3.29147     128.50389     129.92224      69.86654      -1.09768       1.44458    4826.53906    2426.53931
    5448.50000     163.38254       2.59964      17.50000      77.39735       0.18120     225.08727     212.30997       0.17135      10.33517       8.85968    2566.00000       9.59743       0.84508      17.61771    -999.25000      78.21790       3.48676     128.70551     129.88589      69.03133      -0.91294       1.49347    4821.13037    2421.13037
    5448.00000     166.02808       2.59863      17.50000      77.62875       0.18129     224.87979     212.74883       0.17191      10.32435       8.83436    2666.25000       9.57936       0.89369      18.26028    -999.25000      78.33160       3.44977     128.91566     129.79115      68.62666      -0.67682       1.54884    4812.68359    2412.68359
    5447.50000     167.08188       2.58631      17.50000      77.79543       0.18140     224.74818     213.04712       0.17172      10.31310       8.84693    2681.00000       9.58002       0.90019      18.35525    -999.25000      78.56062       3.38659     129.16454     129.66408      69.14858      -0.38600       1.53723    4804.53271    2404.53271
    5447.00000     159.21867       2.55597      17.50000      77.83750       0.18153     224.69360     213.14377       0.17192      10.32392       8.84693    2640.75000       9.58542       0.89158      18.81677    -999.25000      78.71848       3.32760     129.50519     129.43758      70.23801       0.05222       1.51875    4798.52344    2398.52319
    5446.50000     164.23161       2.54969      17.50000      77.94759       0.18171     224.71631     213.23114       0.17206      10.30153       8.87581    2724.75000       9.58867       0.87537      19.60115    -999.25000      78.78664       3.28612     129.95732     129.40138      71.43006       0.42870       1.54451    4800.21289    2400.21289
    5446.00000     167.11755       2.55315      17.50000      78.05716       0.18192     224.81670     213.24033       0.17241      10.29060       8.87225    2632.25024       9.58142       0.87874      20.16548    -999.25000      78.90154       3.26377     130.26012     129.92595      72.33523       0.25687       1.54243    4805.66895    2405.66943
    5445.50000     173.10156       2.57440      17.50000      78.23421       0.18215     224.99164     213.24243       0.17271      10.26895       8.88480    2664.25000       9.57687       0.89468      20.63090    -999.25000      78.91283       3.29903     131.49185     131.09178      73.04202       0.30472       1.46959    4807.61523    2407.61548
