~VERSION INFORMATION 
VERS  .    2.0                                     :CWLS Log ASCII Standard - VERSION 2.0
WRAP  .    NO                                      :One Line per Depth step
PROD  .    Schlumberger Technology Corp.           :LAS Producer
PROG  .    Horizon LASWriter 3.1.9755.0            :LAS Program name and version
SOURCE.    3A-Log[4]/Up                            :Run&Pass Information
CREA  .    10/30/2012                              :LAS Creation date {MM/DD/YYYY}
#--------------------------------------------------
~WELL INFORMATION 
#MNEM           .UNIT                      DATA            :DESCRIPTION
#----            ------          --------------            -----------------------------
STRT            .ft                  5150.00000            :START DEPTH
STOP            .ft                  7238.00000            :STOP DEPTH
STEP            .ft                         0.5            :STEP
NULL            .                       -999.25            :NULL VALUE
COMP            .                   ADM COMPANY            :COMPANY
WELL            .                Verification Well #2      :WELL NAME
FLD             .                       Wildcat            :FIELD NAME
RIGN            .                                          :Rig Name
RIGTYP          .                                          :Rig Type
SON             .                    C5FX-00022            :Service Order Number
SRVC            .                  Schlumberger            :SERVICE COMPANY
DATE            .                    10/30/2012            :LOG DATE(Composite Date for Composite LAP) (MM/DD/YYYY)
CLAB            .                       County:            :County Label
CNTY            .                         Macon            :COUNTY
SLAB            .                        State:            :State/Province Label
STAT            .                      Illinois            :STATE or PROVINCE
PROV            .                      Illinois            :STATE or PROVINCE
CTRY            .                                          :COUNTRY
CONT_REGION     .                    N. America            :Continent Region
SECT            .                            32            :Section
TOWN            .                      17 North            :Township
RANG            .                        3 East            :Range
API             .                  121152355200            :API NUMBER
UWI             .                                          :UNIQUE WELL ID
LUL             .                        Weston            :Logging Unit Location
LUN             .                          3149            :Logging Unit Number
LOC             .                Lat: 39.8922313 Long: -88.89244449:FIELD LOCATION
FL1             .                248' South and 233' East rom NW corner of the:Field Location Line 1
FL2             .                NW/4, of the NE/4, of the NW/4, of Section 32:Field Location Line 2
LATI            .deg                  39.892231            :LATITUDE
LONG            .deg                 -88.892444            :LONGITUDE
PDAT            .                            GL            :Local Permanent Datum
LMF             .                            KB            :Logging Measured From
APD             .ft                    17.00000            :Elevation of Depth Reference (LMF) Above Permanent Datum
EPD             .ft                   686.49998            :Elevation of Permanent Datum (PDAT) above Mean Sea Level
EKB             .ft                    17.00000            :Elevation of Kelly Bushing Above Permanent Datum
EDF             .ft                     -999.25            :Elevation of Drill Floor Above Permanent Datum
EGL             .ft                     0.00000            :Elevation of Ground Level Above Permanent Datum
ECF             .ft                     -999.25            :Elevation of Casing Flange above Permanent Datum
#--------------------------------------------------
~CURVE INFORMATION
#MNEM           .UNIT                  API CODE            :DESCRIPTION
#----            ------          --------------            -----------------------------
DEPT            .ft                                        :                                                        Depth Index
RLA4            .ohm.m                                     :        (HRLT-B)                (2in)                   Apparent Resistivity from Computed Focusing Mode 4
CALI            .in                                        :        (HDRS-H)                (1in)                   Caliper
GR              .gAPI                                      :        (EDTC-B)                (6in)                   Gamma Ray
MRES            .ohm.m                                     :        (HRLT-B)                (2in)                   Mud Resistivity
RLA2            .ohm.m                                     :        (HRLT-B)                (2in)                   Apparent Resistivity from Computed Focusing Mode 2
RLA5            .ohm.m                                     :        (HRLT-B)                (2in)                   Apparent Resistivity from Computed Focusing Mode 5
TENS            .lbf                                       :        (WLWorkflow)            (1in)                   Cable Tension
RT              .ohm.m                                     :        (HRLT-B)                (2in)                   True Resistivity
RXOZ            .ohm.m                                     :        (HDRS-H)                (2in)                   Invaded Formation Resistivity filtered at 18 inches
SP              .mV                                        :        (SPE-A)                 (6in)                   Spontaneous Potential
RLA3            .ohm.m                                     :        (HRLT-B)                (2in)                   Apparent Resistivity from Computed Focusing Mode 3
RHOZ            .g/cm3                                     :        (HDRS-H)                (2in)                   Standard Resolution Formation Density
PEFZ            .                                          :        (HDRS-H)                (2in)                   Standard Resolution Formation Photoelectric Factor
NPHI            .ft3/ft3                                   :        (HGNS-H)                (6in)                   Thermal Neutron Porosity (original Ratio Method) in Selected Lithology
DPHZ            .ft3/ft3                                   :        (HDRS-H)                (2in)                   Standard Resolution Density Porosity
HDRA            .g/cm3                                     :        (HDRS-H)                (2in)                   Density Standoff Correction
#-------------------------------------------------------------
#            DEPT         RLA4         CALI           GR         MRES         RLA2         RLA5         TENS           RT         RXOZ           SP         RLA3         RHOZ         PEFZ         NPHI         DPHZ         HDRA 
#                     (HRLT-B)     (HDRS-H)     (EDTC-B)     (HRLT-B)     (HRLT-B)     (HRLT-B)  (WLWorkflo)     (HRLT-B)     (HDRS-H)      (SPE-A)     (HRLT-B)     (HDRS-H)     (HDRS-H)     (HGNS-H)     (HDRS-H)     (HDRS-H) 
#                                                                                                                                                                                                                                 
#                        (2in)        (1in)        (6in)        (2in)        (2in)        (2in)        (1in)        (2in)        (2in)        (6in)        (2in)        (2in)        (2in)        (6in)        (2in)        (2in) 
~ASCII
# ...
       6500.00000      4.05564      8.54537     55.41091      0.20923      4.54671      3.81893   2371.99962      2.40263      9.55241   -268.00780      4.26991      2.36412      1.88580      0.21447      0.17326     -0.00253
       6500.50000      3.97515      8.52316     61.54879      0.20997      4.46819      3.74840   2313.00077      2.37538      8.50586   -267.75000      4.18276      2.36582      1.87049      0.20582      0.17223     -0.00347
       6501.00000      3.97972      8.54537     69.83478      0.21152      4.51156      3.76069   2259.99981      2.36320      8.54457   -267.59380      4.20450      2.38896      1.86444      0.19211      0.15821     -0.00684
       6501.50000      5.33518      8.54537     68.80685      0.20876      6.07520      5.04941   2261.00021      3.21688     10.56794   -267.33590      5.65550      2.42350      1.87819      0.17874      0.13727     -0.00899
       6502.00000      6.79211      8.55648     63.28629      0.20570      7.72479      6.40896   2250.00031      4.04917     13.69709   -267.49110      7.20811      2.44696      1.89798      0.16415      0.12306     -0.00713
       6502.50000      5.09255      8.54537     51.05966      0.20953      5.79654      4.82193   2284.49949      3.02591     15.04499   -267.72660      5.40216      2.43727      1.91069      0.16508      0.12893     -0.00700
       6503.00000      3.56259      8.54537     52.34874      0.21413      4.03237      3.37390   2380.00057      2.09384     11.34981   -268.07140      3.77037      2.41600      1.89926      0.17147      0.14182     -0.00730
       6503.50000      4.06233      8.52316     55.95948      0.21087      4.58589      3.84565   2336.00097      2.39328      9.09180   -268.62500      4.29845      2.39774      1.88434      0.17567      0.15288     -0.00844
       6504.00000      4.92288      8.52316     60.02608      0.20758      5.56531      4.65472   2364.00092      2.89105      9.85157   -268.94640      5.21830      2.39348      1.88607      0.18032      0.15547     -0.00886
       6504.50000      4.67385      8.50095     58.92892      0.20944      5.29471      4.39869   2302.00086      2.75840     10.58273   -268.70310      4.94508      2.38975      1.90694      0.18946      0.15773     -0.00831
       6505.00000      4.84245      8.52316     55.59551      0.20996      5.47165      4.52892   2309.99957      2.88528     11.02483   -268.89840      5.09603      2.38030      1.93563      0.19512      0.16345     -0.00718
       6505.50000      5.72471      8.52316     56.53298      0.20883      6.41713      5.31943   2293.99991      3.44096      9.47792   -268.97320      6.00308      2.37536      1.94564      0.18796      0.16645     -0.00462
       6506.00000      5.16474      8.54537     54.66345      0.20981      5.73051      4.76894   2295.00031      3.07269     10.64936   -268.78130      5.40817      2.37557      1.93095      0.17415      0.16632     -0.00577
       6506.50000      4.72178      8.53427     51.07098      0.21066      5.21823      4.34481   2304.99981      2.80285     11.26714   -268.93750      4.94366      2.38030      1.89693      0.17923      0.16345     -0.00727
       6507.00000      4.55319      8.50095     45.28235      0.20962      5.01435      4.18118   2310.99997      2.70658     10.58131   -269.29690      4.76933      2.38013      1.85963      0.17724      0.16356     -0.00933
       6507.50000      4.45405      8.48984     45.03331      0.20903      4.91460      4.08126   2343.99967      2.65198      9.05195   -268.59820      4.67184      2.37888      1.83863      0.18351      0.16432     -0.00727
       6508.00000      4.28582      8.47874     46.10350      0.21046      4.73202      3.91563   2320.99947      2.55166      8.10196   -267.79690      4.50276      2.38456      1.81534      0.17236      0.16087     -0.00489
       6508.50000      4.73103      8.50095     47.32941      0.21011      5.26352      4.31146   2272.00011      2.79590      8.57426   -267.85710      4.98821      2.39512      1.78756      0.17078      0.15447     -0.00507
       6509.00000      6.23728      8.47874     43.74868      0.20693      7.02639      5.67072   2302.00086      3.63709     10.05827   -267.74220      6.58508      2.41252      1.76567      0.16925      0.14393     -0.00492
       6509.50000      5.46486      8.50095     40.14921      0.20805      6.17286      4.96206   2233.99998      3.11938     12.49683   -267.95310      5.76951      2.41292      1.76117      0.17262      0.14369     -0.00625
       6510.00000      3.93085      8.52316     35.16142      0.21132      4.42764      3.57510   2262.00061      2.17879     10.12132   -268.11610      4.14491      2.39962      1.75905      0.18205      0.15174     -0.00672
       6510.50000      3.59283      8.50095     31.01836      0.21065      4.02196      3.26704   2358.00077      1.97649      7.31104   -268.13280      3.79029      2.36644      1.75056      0.18299      0.17185     -0.00903
       6511.00000      3.35293      8.50095     30.43191      0.21080      3.73821      3.04734   2325.00107      1.85209      6.02983   -268.49110      3.52608      2.34859      1.75040      0.17865      0.18267     -0.00745
       6511.50000      3.33162      8.50095     37.08097      0.21207      3.72363      3.03019   2303.99942      1.83939      6.12018   -268.82030      3.51595      2.36095      1.77655      0.16762      0.17518     -0.00594
       6512.00000      4.71372      8.50095     47.24186      0.20759      5.29352      4.27775   2362.00012      2.63520      7.90417   -268.77680      4.95350      2.38750      1.83805      0.17254      0.15909     -0.00553
       6512.50000      7.70556      8.50095     58.27515      0.20460      8.67648      6.98495   2308.99917      4.39996     11.50897   -268.74220      8.13039      2.40943      1.92472      0.17438      0.14580     -0.00752
       6513.00000      7.79112      8.50095     59.26714      0.20628      8.78691      7.08142   2371.50055      4.45378     17.27939   -268.62500      8.28661      2.42398      1.97214      0.16289      0.13698     -0.00741
       6513.50000      9.31870      8.50095     54.56710      0.20554     10.49168      8.49554   2325.99922      5.47697     18.28036   -268.20540      9.92574      2.44706      1.93426      0.14294      0.12299     -0.00477
       6514.00000      7.51767      8.50095     52.18268      0.20708      8.44250      6.85423   2348.99942      4.27118     16.92950   -267.70310      8.00465      2.46110      1.88302      0.12765      0.11449     -0.00505
       6514.50000      6.79883      8.47874     62.45602      0.20787      7.63425      6.21804   2347.99902      3.80138     16.80492   -267.99110      7.20678      2.46869      1.90375      0.13315      0.10988     -0.00615
       6515.00000      7.73989      8.54537     80.21221      0.20595      8.68049      7.08280   2302.00086      4.31393     18.21480   -267.78910      8.15635      2.47578      2.01202      0.13210      0.10559     -0.00695
       6515.50000      9.32286      8.54537     89.60298      0.20448     10.43036      8.55212   2388.99968      5.36334     20.91718   -266.71430      9.78946      2.50192      2.08396      0.13851      0.08975     -0.00350
       6516.00000      9.71043      8.54537     88.79599      0.20392     10.91117      8.94128   2348.99942      5.60492     23.08796   -265.84380     10.24665      2.51303      2.10598      0.14133      0.08301     -0.00274
       6516.50000     10.51186      8.53427     81.07342      0.20304     11.88277      9.70954   2325.00107      6.09100     26.14131   -265.86720     11.15401      2.50778      2.07772      0.13819      0.08620     -0.00480
       6517.00000     12.77610      8.54537     74.26471      0.20187     14.44796     11.83534   2318.00052      7.44208     30.91060   -265.65180     13.61444      2.50934      2.02972      0.13131      0.08525     -0.00611
       6517.50000     15.39879      8.53427     68.12032      0.20122     17.37569     14.29020   2237.00006      9.17365     37.02835   -265.94530     16.39599      2.52337      1.96760      0.12118      0.07674     -0.00490
