~VERSION INFORMATION 
VERS  .    2.0                                     :CWLS Log ASCII Standard - VERSION 2.0
WRAP  .    NO                                      :One Line per Depth step
PROD  .    Schlumberger Technology Corp.           :LAS Producer
PROG  .    Horizon LASWriter 3.1.9755.0            :LAS Program name and version
SOURCE.    3A-Log[4]/Up                            :Run&Pass Information
CREA  .    10/30/2012                              :LAS Creation date {MM/DD/YYYY}
#--------------------------------------------------
~WELL INFORMATION 
#MNEM           .UNIT                      DATA            :DESCRIPTION
#----            ------          --------------            -----------------------------
STRT            .ft                  5150.00000            :START DEPTH
STOP            .ft                  7238.00000            :STOP DEPTH
STEP            .ft                         0.5            :STEP
NULL            .                       -999.25            :NULL VALUE
COMP            .                   ADM COMPANY            :COMPANY
WELL            .                Verification Well #2      :WELL NAME
FLD             .                       Wildcat            :FIELD NAME
RIGN            .                                          :Rig Name
RIGTYP          .                                          :Rig Type
SON             .                    C5FX-00022            :Service Order Number
SRVC            .                  Schlumberger            :SERVICE COMPANY
DATE            .                    10/30/2012            :LOG DATE(Composite Date for Composite LAP) (MM/DD/YYYY)
CLAB            .                       County:            :County Label
CNTY            .                         Macon            :COUNTY
SLAB            .                        State:            :State/Province Label
STAT            .                      Illinois            :STATE or PROVINCE
PROV            .                      Illinois            :STATE or PROVINCE
CTRY            .                                          :COUNTRY
CONT_REGION     .                    N. America            :Continent Region
SECT            .                            32            :Section
TOWN            .                      17 North            :Township
RANG            .                        3 East            :Range
API             .                  121152355200            :API NUMBER
UWI             .                                          :UNIQUE WELL ID
LUL             .                        Weston            :Logging Unit Location
LUN             .                          3149            :Logging Unit Number
LOC             .                Lat: 39.8922313 Long: -88.89244449:FIELD LOCATION
FL1             .                248' South and 233' East rom NW corner of the:Field Location Line 1
FL2             .                NW/4, of the NE/4, of the NW/4, of Section 32:Field Location Line 2
LATI            .deg                  39.892231            :LATITUDE
LONG            .deg                 -88.892444            :LONGITUDE
PDAT            .                            GL            :Local Permanent Datum
LMF             .                            KB            :Logging Measured From
APD             .ft                    17.00000            :Elevation of Depth Reference (LMF) Above Permanent Datum
EPD             .ft                   686.49998            :Elevation of Permanent Datum (PDAT) above Mean Sea Level
EKB             .ft                    17.00000            :Elevation of Kelly Bushing Above Permanent Datum
EDF             .ft                     -999.25            :Elevation of Drill Floor Above Permanent Datum
EGL             .ft                     0.00000            :Elevation of Ground Level Above Permanent Datum
ECF             .ft                     -999.25            :Elevation of Casing Flange above Permanent Datum
#--------------------------------------------------
~CURVE INFORMATION
#MNEM           .UNIT                  API CODE            :DESCRIPTION
#----            ------          --------------            -----------------------------
DEPT            .ft                                        :                                                        Depth Index
RLA4            .ohm.m                                     :        (HRLT-B)                (2in)                   Apparent Resistivity from Computed Focusing Mode 4
CALI            .in                                        :        (HDRS-H)                (1in)                   Caliper
GR              .gAPI                                      :        (EDTC-B)                (6in)                   Gamma Ray
MRES            .ohm.m                                     :        (HRLT-B)                (2in)                   Mud Resistivity
RLA2            .ohm.m                                     :        (HRLT-B)                (2in)                   Apparent Resistivity from Computed Focusing Mode 2
RLA5            .ohm.m                                     :        (HRLT-B)                (2in)                   Apparent Resistivity from Computed Focusing Mode 5
TENS            .lbf                                       :        (WLWorkflow)            (1in)                   Cable Tension
RT              .ohm.m                                     :        (HRLT-B)                (2in)                   True Resistivity
RXOZ            .ohm.m                                     :        (HDRS-H)                (2in)                   Invaded Formation Resistivity filtered at 18 inches
SP              .mV                                        :        (SPE-A)                 (6in)                   Spontaneous Potential
RLA3            .ohm.m                                     :        (HRLT-B)                (2in)                   Apparent Resistivity from Computed Focusing Mode 3
RHOZ            .g/cm3                                     :        (HDRS-H)                (2in)                   Standard Resolution Formation Density
PEFZ            .                                          :        (HDRS-H)                (2in)                   Standard Resolution Formation Photoelectric Factor
NPHI            .ft3/ft3                                   :        (HGNS-H)                (6in)                   Thermal Neutron Porosity (original Ratio Method) in Selected Lithology
DPHZ            .ft3/ft3                                   :        (HDRS-H)                (2in)                   Standard Resolution Density Porosity
HDRA            .g/cm3                                     :        (HDRS-H)                (2in)                   Density Standoff Correction
#-------------------------------------------------------------
#            DEPT         RLA4         CALI           GR         MRES         RLA2         RLA5         TENS           RT         RXOZ           SP         RLA3         RHOZ         PEFZ         NPHI         DPHZ         HDRA 
#                     (HRLT-B)     (HDRS-H)     (EDTC-B)     (HRLT-B)     (HRLT-B)     (HRLT-B)  (WLWorkflo)     (HRLT-B)     (HDRS-H)      (SPE-A)     (HRLT-B)     (HDRS-H)     (HDRS-H)     (HGNS-H)     (HDRS-H)     (HDRS-H) 
#                                                                                                                                                                                                                                 
#                        (2in)        (1in)        (6in)        (2in)        (2in)        (2in)        (1in)        (2in)        (2in)        (6in)        (2in)        (2in)        (2in)        (6in)        (2in)        (2in) 
~ASCII
# ...
       7040.00000     23.89427      8.67865    127.72810      0.19399     24.24969     21.79839   2526.00049     19.97687     29.55901   -260.14290     24.88675      2.58401      2.18932      0.14525      0.03999      0.01316
       7040.50000     19.72725      8.65644    130.03500      0.19502     19.65238     17.98258   2508.00004     16.98103     22.17800   -260.13280     20.31239      2.58097      2.21761      0.14920      0.04184      0.01285
       7041.00000     12.58361      8.67865    114.30380      0.19644     12.93323     11.40723   2509.00044      9.89610     19.19717   -260.15180     12.82488      2.56674      2.22749      0.16440      0.05046      0.00097
       7041.50000     15.37727      8.67865     88.50370      0.19470     15.92272     13.94895   2481.00049     11.47433     14.56858   -260.39060     15.58773      2.55870      2.18029      0.16140      0.05534     -0.00374
       7042.00000     25.34081      8.65644     77.66811      0.19179     26.01108     23.07071   2505.99924     19.99254     15.81444   -260.73210     25.82035      2.56983      2.08816      0.16254      0.04859     -0.00071
       7042.50000     16.91614      8.65644     69.65440      0.19298     17.78572     15.50287   2549.99885     12.73949     16.69728   -261.00000     17.51867      2.57234      2.05337      0.15503      0.04707     -0.00077
       7043.00000     11.20714      8.67865     65.03987      0.19563     12.18102     10.36663   2551.99965      8.54658     15.98973   -261.07140     11.66382      2.56128      2.07027      0.15820      0.05377     -0.00266
       7043.50000     14.18697      8.70086     64.34816      0.19499     15.55217     13.24605   2572.99905     11.28122     12.58878   -261.00000     14.95894      2.55326      2.10469      0.16168      0.05863     -0.00312
       7044.00000     27.32722      8.67865     74.95848      0.19185     29.07738     25.52221   2518.99994     23.39781     13.99150   -260.80360     28.59963      2.57112      2.11938      0.15978      0.04781      0.00050
       7044.50000     23.71973      8.67865     83.33176      0.19167     25.60462     22.09631   2572.00090     18.26506     18.42206   -260.46090     24.64407      2.58309      2.11575      0.16171      0.04055      0.00327
       7045.00000     11.41398      8.67865     90.16353      0.19468     12.37824     10.78257   2565.00035      8.36785     16.93434   -260.31250     11.85896      2.56410      2.13736      0.16716      0.05206      0.00256
       7045.50000      9.41059      8.67865     87.93835      0.19612     10.05482      8.88332   2539.99935      6.85904     12.26950   -260.48440      9.66702      2.53270      2.12959      0.17820      0.07109     -0.00047
       7046.00000     16.09052      8.67865     94.09291      0.19346     16.76225     15.16633   2548.00030     12.58448     12.30855   -259.94640     16.43248      2.53064      2.11889      0.17471      0.07234     -0.00190
       7046.50000     24.02177      8.67865     96.20970      0.19325     24.44291     23.24257   2528.99945     21.21323     17.41986   -258.91410     24.32268      2.55149      2.10660      0.16195      0.05970     -0.00281
       7047.00000     15.25055      8.67865    103.10440      0.19583     15.86407     14.70441   2521.00074     12.52713     20.45033   -258.99220     15.50869      2.57470      2.08415      0.15601      0.04564     -0.00358
       7047.50000     28.18351      8.70086     96.82165      0.19423     28.76475     27.29446   2571.00050     26.95395     22.39063   -259.15180     28.36726      2.57716      2.05186      0.15443      0.04415     -0.00018
       7048.00000     18.86599      8.67865     87.27735      0.19418     19.09612     18.36151   2560.00060     17.44893     19.41564   -259.95310     19.04544      2.57449      2.00226      0.15048      0.04576      0.00170
       7048.50000     16.97368      8.67865     69.64226      0.19410     17.22831     16.64094   2527.49997     16.07142     24.53138   -260.28910     17.16150      2.55139      1.97070      0.14808      0.05976     -0.00078
       7049.00000     12.56973      8.67865     60.97458      0.19423     12.91832     12.37384   2568.99970     11.52631     18.42124   -260.67860     12.90010      2.52140      1.94396      0.16052      0.07794     -0.00769
       7049.50000     10.03664      8.67865     57.47461      0.19525     10.35855      9.79632   2532.49972      8.89573     15.51602   -261.31250     10.31707      2.48790      1.90797      0.18004      0.09824     -0.01177
       7050.00000     10.72077      8.67865     58.75822      0.19510     11.04402     10.37572   2562.99955      9.68512     12.84306   -261.57140     10.94120      2.47266      1.87918      0.19584      0.10748     -0.01141
       7050.50000     12.45416      8.70086     60.85541      0.19492     12.96984     11.97994   2576.00025     11.41066     13.28583   -261.75780     12.64701      2.48637      1.88009      0.19074      0.09917     -0.00770
       7051.00000     12.73660      8.70086     71.10104      0.19583     13.11824     12.17490   2544.00095     11.64148     14.92187   -261.83930     12.83643      2.49700      1.92937      0.18885      0.09273     -0.00557
       7051.50000     14.86736      8.68976     69.23900      0.19570     15.13871     14.17954   2469.49926     13.50183     18.14749   -261.84380     14.99724      2.50625      1.95379      0.17151      0.08712     -0.00250
       7052.00000     14.37120      8.70086     61.93763      0.19569     14.40307     13.69030   2512.99979     13.00366     20.77281   -261.75890     14.52153      2.49517      1.93339      0.16426      0.09384     -0.00245
       7052.50000     12.15065      8.67865     53.51168      0.19733     12.00745     11.61920   2481.00049     11.17101     21.27388   -261.81250     12.24656      2.49006      1.86795      0.16256      0.09693     -0.00198
       7053.00000     11.62918      8.67865     64.76334      0.19655     11.33686     11.12820   2566.99890     10.70751     20.72861   -262.26790     11.66445      2.50082      1.83453      0.15531      0.09041     -0.00517
       7053.50000     24.86593      8.68976     85.25892      0.19276     23.15828     23.87651   2537.00040     24.23056     23.88298   -262.07810     24.36223      2.53422      1.86370      0.15441      0.07017     -0.00975
       7054.00000     15.51138      8.70086     92.36406      0.19335     14.73609     14.78999   2582.00040     15.02630     18.34765   -261.02680     15.28514      2.55646      1.93178      0.14780      0.05669     -0.00864
       7054.50000     12.41505      8.70086     84.30020      0.19417     12.21119     11.74839   2613.99971     12.09858     14.53834   -260.68750     12.11299      2.54818      2.00156      0.16368      0.06171     -0.00649
       7055.00000     10.40479      8.72307     70.01656      0.19373     10.47753      9.82205   2595.00110      9.76858     10.50758   -260.69640     10.13634      2.52668      2.01573      0.17951      0.07474     -0.00100
       7055.50000      9.56110      8.73418     63.10567      0.19335      9.77624      9.06490   2539.00120      8.22133      9.98378   -260.69530      9.48572      2.51561      2.00454      0.18480      0.08145     -0.00085
       7056.00000     10.66842      8.72307     64.20339      0.19247     10.92796     10.22108   2508.49912      9.49349      9.63720   -260.94640     10.82485      2.51422      2.00024      0.18616      0.08229     -0.00022
       7056.50000     10.65118      8.72307     65.77899      0.19378     11.06671     10.24383   2525.00009      9.89764      9.79481   -261.21880     10.99087      2.51773      2.00627      0.18873      0.08017     -0.00085
       7057.00000     10.45968      8.72307     71.60746      0.19610     10.82908     10.10577   2537.00040     10.38315      9.85205   -261.67970     10.90736      2.53479      2.00521      0.18089      0.06982     -0.00163
       7057.50000     19.38118      8.74529     83.69471      0.19433     19.43500     18.66843   2549.99885     19.28210     11.74376   -262.00890     20.17346      2.56524      2.01971      0.17788      0.05137     -0.00278
