~VERSION INFORMATION 
VERS  .    2.0                                     :CWLS Log ASCII Standard - VERSION 2.0
WRAP  .    NO                                      :One Line per Depth step
PROD  .    Schlumberger Technology Corp.           :LAS Producer
PROG  .    Horizon LASWriter 3.1.9755.0            :LAS Program name and version
SOURCE.    3A-Log[4]/Up                            :Run&Pass Information
CREA  .    10/30/2012                              :LAS Creation date {MM/DD/YYYY}
#--------------------------------------------------
~WELL INFORMATION 
#MNEM           .UNIT                      DATA            :DESCRIPTION
#----            ------          --------------            -----------------------------
STRT            .ft                  5150.00000            :START DEPTH
STOP            .ft                  7238.00000            :STOP DEPTH
STEP            .ft                         0.5            :STEP
NULL            .                       -999.25            :NULL VALUE
COMP            .                   ADM COMPANY            :COMPANY
WELL            .                Verification Well #2      :WELL NAME
FLD             .                       Wildcat            :FIELD NAME
RIGN            .                                          :Rig Name
RIGTYP          .                                          :Rig Type
SON             .                    C5FX-00022            :Service Order Number
SRVC            .                  Schlumberger            :SERVICE COMPANY
DATE            .                    10/30/2012            :LOG DATE(Composite Date for Composite LAP) (MM/DD/YYYY)
CLAB            .                       County:            :County Label
CNTY            .                         Macon            :COUNTY
SLAB            .                        State:            :State/Province Label
STAT            .                      Illinois            :STATE or PROVINCE
PROV            .                      Illinois            :STATE or PROVINCE
CTRY            .                                          :COUNTRY
CONT_REGION     .                    N. America            :Continent Region
SECT            .                            32            :Section
TOWN            .                      17 North            :Township
RANG            .                        3 East            :Range
API             .                  121152355200            :API NUMBER
UWI             .                                          :UNIQUE WELL ID
LUL             .                        Weston            :Logging Unit Location
LUN             .                          3149            :Logging Unit Number
LOC             .                Lat: 39.8922313 Long: -88.89244449:FIELD LOCATION
FL1             .                248' South and 233' East rom NW corner of the:Field Location Line 1
FL2             .                NW/4, of the NE/4, of the NW/4, of Section 32:Field Location Line 2
LATI            .deg                  39.892231            :LATITUDE
LONG            .deg                 -88.892444            :LONGITUDE
PDAT            .                            GL            :Local Permanent Datum
LMF             .                            KB            :Logging Measured From
APD             .ft                    17.00000            :Elevation of Depth Reference (LMF) Above Permanent Datum
EPD             .ft                   686.49998            :Elevation of Permanent Datum (PDAT) above Mean Sea Level
EKB             .ft                    17.00000            :Elevation of Kelly Bushing Above Permanent Datum
EDF             .ft                     -999.25            :Elevation of Drill Floor Above Permanent Datum
EGL             .ft                     0.00000            :Elevation of Ground Level Above Permanent Datum
ECF             .ft                     -999.25            :Elevation of Casing Flange above Permanent Datum
#--------------------------------------------------
~CURVE INFORMATION
#MNEM           .UNIT                  API CODE            :DESCRIPTION
#----            ------          --------------            -----------------------------
DEPT            .ft                                        :                                                        Depth Index
RLA4            .ohm.m                                     :        (HRLT-B)                (2in)                   Apparent Resistivity from Computed Focusing Mode 4
CALI            .in                                        :        (HDRS-H)                (1in)                   Caliper
GR              .gAPI                                      :        (EDTC-B)                (6in)                   Gamma Ray
MRES            .ohm.m                                     :        (HRLT-B)                (2in)                   Mud Resistivity
RLA2            .ohm.m                                     :        (HRLT-B)                (2in)                   Apparent Resistivity from Computed Focusing Mode 2
RLA5            .ohm.m                                     :        (HRLT-B)                (2in)                   Apparent Resistivity from Computed Focusing Mode 5
TENS            .lbf                                       :        (WLWorkflow)            (1in)                   Cable Tension
RT              .ohm.m                                     :        (HRLT-B)                (2in)                   True Resistivity
RXOZ            .ohm.m                                     :        (HDRS-H)                (2in)                   Invaded Formation Resistivity filtered at 18 inches
SP              .mV                                        :        (SPE-A)                 (6in)                   Spontaneous Potential
RLA3            .ohm.m                                     :        (HRLT-B)                (2in)                   Apparent Resistivity from Computed Focusing Mode 3
RHOZ            .g/cm3                                     :        (HDRS-H)                (2in)                   Standard Resolution Formation Density
PEFZ            .                                          :        (HDRS-H)                (2in)                   Standard Resolution Formation Photoelectric Factor
NPHI            .ft3/ft3                                   :        (HGNS-H)                (6in)                   Thermal Neutron Porosity (original Ratio Method) in Selected Lithology
DPHZ            .ft3/ft3                                   :        (HDRS-H)                (2in)                   Standard Resolution Density Porosity
HDRA            .g/cm3                                     :        (HDRS-H)                (2in)                   Density Standoff Correction
#-------------------------------------------------------------
#            DEPT         RLA4         CALI           GR         MRES         RLA2         RLA5         TENS           RT         RXOZ           SP         RLA3         RHOZ         PEFZ         NPHI         DPHZ         HDRA 
#                     (HRLT-B)     (HDRS-H)     (EDTC-B)     (HRLT-B)     (HRLT-B)     (HRLT-B)  (WLWorkflo)     (HRLT-B)     (HDRS-H)      (SPE-A)     (HRLT-B)     (HDRS-H)     (HDRS-H)     (HGNS-H)     (HDRS-H)     (HDRS-H) 
#                                                                                                                                                                                                                                 
#                        (2in)        (1in)        (6in)        (2in)        (2in)        (2in)        (1in)        (2in)        (2in)        (6in)        (2in)        (2in)        (2in)        (6in)        (2in)        (2in) 
~ASCII
# ...
       5834.00000      9.10012      8.41210     28.66053      0.20862     10.48289      8.38329   2167.99990      4.85913     17.45118   -265.36720      9.76198      2.52363      1.78056      0.10512      0.07659      0.00041
       5834.50000      8.16869      8.43431     32.53157      0.20899      9.45236      7.52229   2186.00012      4.39572     16.09527   -265.91070      8.77419      2.50426      1.76302      0.10910      0.08833     -0.00319
       5835.00000      7.66901      8.45652     36.68699      0.20970      8.88263      7.07086   2119.99981      4.23357     14.96764   -266.83590      8.26198      2.49808      1.77166      0.11749      0.09207     -0.00490
       5835.50000      7.66051      8.48984     37.63748      0.20933      8.86255      7.08617   2161.00002      4.29463     13.91787   -266.55360      8.26166      2.49178      1.80245      0.12230      0.09589     -0.00670
       5836.00000      8.05069      8.47874     31.85609      0.20795      9.29730      7.48591   2188.99997      4.61245     13.60276   -266.39840      8.69338      2.49208      1.80083      0.11772      0.09571     -0.00792
       5836.50000      7.99397      8.44542     26.75159      0.20687      9.21772      7.43145   2178.00007      4.59120     13.80223   -266.62500      8.60523      2.49218      1.77588      0.10748      0.09565     -0.00923
       5837.00000      7.25473      8.43431     24.94890      0.20763      8.35317      6.76953   2196.00007      4.18028     13.11466   -266.19640      7.79486      2.49658      1.75137      0.10690      0.09298     -0.00811
       5837.50000      6.14603      8.45652     24.25577      0.20961      7.01834      5.74922   2199.49990      3.57822     12.15579   -266.01560      6.56687      2.49772      1.73949      0.11031      0.09229     -0.00643
       5838.00000      5.55015      8.50095     23.88526      0.21123      6.30925      5.22536   2170.99997      3.27619     11.04654   -266.39290      5.91056      2.50717      1.70755      0.11493      0.08656     -0.00328
       5838.50000      5.51240      8.45652     23.12034      0.21200      6.25821      5.21606   2160.50005      3.29655     10.96625   -266.42190      5.85559      2.50102      1.68396      0.11450      0.09029     -0.00464
       5839.00000      5.71647      8.47874     23.19481      0.21007      6.48933      5.42653   2172.99987      3.46520     10.84627   -265.54460      6.05883      2.49752      1.67259      0.11665      0.09242     -0.00546
       5839.50000      5.66451      8.46763     26.28180      0.20902      6.36573      5.39477   2182.50007      3.59480     11.70117   -264.90630      5.97608      2.49266      1.69184      0.11602      0.09536     -0.00603
       5840.00000      4.42120      8.45652     32.07336      0.20979      4.95168      4.23614   2154.00014      2.86695     12.08070   -264.80360      4.65795      2.48580      1.71289      0.13042      0.09951     -0.00626
       5840.50000      3.95694      8.47874     39.62730      0.20927      4.39531      3.80533   2195.00012      2.64369      9.99213   -264.50000      4.14817      2.46738      1.74850      0.14615      0.11068     -0.00691
       5841.00000      3.67628      8.45652     38.84006      0.20795      4.05306      3.54695   2126.99992      2.51606      7.64016   -264.82140      3.83054      2.43734      1.79958      0.16548      0.12888     -0.00799
       5841.50000      3.57949      8.46763     34.90512      0.20699      3.91175      3.46936   2160.00007      2.54588      6.64966   -265.04690      3.69155      2.41823      1.83071      0.16681      0.14047     -0.00730
       5842.00000      3.19030      8.45652     28.31230      0.20822      3.46082      3.11854   2141.00012      2.35764      6.21633   -265.49110      3.28462      2.41822      1.81684      0.16390      0.14047     -0.00566
       5842.50000      2.89431      8.45652     27.09610      0.21031      3.11810      2.83560   2205.00008      2.18724      6.02913   -266.07810      2.97329      2.42813      1.76154      0.15684      0.13447     -0.00500
       5843.00000      2.74041      8.43431     25.27931      0.21164      2.94092      2.67253   2197.00003      2.09390      5.53000   -266.69640      2.82252      2.43514      1.70691      0.15794      0.13022     -0.00569
       5843.50000      2.56576      8.42320     25.76794      0.21377      2.74744      2.49702   2155.00009      1.98551      5.43604   -266.73440      2.65089      2.44692      1.66779      0.15502      0.12308     -0.00447
       5844.00000      2.40903      8.41210     24.04882      0.21602      2.56976      2.33464   2172.99987      1.87636      5.85169   -266.42860      2.48818      2.45588      1.65254      0.16199      0.11765     -0.00343
       5844.50000      2.39669      8.44542     23.43860      0.21555      2.55847      2.31928   2152.99997      1.89154      6.06000   -267.07810      2.46915      2.46391      1.65023      0.15865      0.11278     -0.00244
       5845.00000      2.19360      8.45652     22.94015      0.21662      2.33671      2.11378   2166.00000      1.74253      5.97457   -266.81250      2.24785      2.45293      1.65699      0.16113      0.11944     -0.00540
       5845.50000      1.53647      8.43431     24.63663      0.22422      1.62027      1.46556   2160.00007      1.20032      4.96219   -266.58590      1.56961      2.44253      1.66499      0.15626      0.12574     -0.00660
       5846.00000      1.46564      8.52316     26.67227      0.22506      1.52577      1.38938   2179.49977      1.15253      4.19495   -266.77680      1.48367      2.43305      1.67366      0.15867      0.13148     -0.00589
       5846.50000      1.46476      8.51206     27.29583      0.22302      1.52047      1.37982   2175.00000      1.15308      3.77379   -266.72660      1.47510      2.42626      1.68318      0.17274      0.13560     -0.00449
       5847.00000      1.39175      8.54537     28.11604      0.22724      1.44311      1.30436   2152.99997      1.09647      3.57192   -265.81250      1.39728      2.41688      1.69935      0.18333      0.14128     -0.00456
       5847.50000      1.50857      8.53427     27.53717      0.22559      1.55662      1.40260   2142.00007      1.17956      3.80459   -264.91410      1.50598      2.40773      1.71393      0.18237      0.14683     -0.00647
       5848.00000      2.09340      8.54537     27.30153      0.21760      2.13750      1.94131   2193.99995      1.67290      4.08778   -264.92190      2.08049      2.41275      1.72720      0.17133      0.14379     -0.00533
       5848.50000      1.93814      8.52316     25.05799      0.22142      1.97235      1.79725   2135.99992      1.54516      4.41671   -264.54460      1.93684      2.41608      1.72608      0.16229      0.14177     -0.00477
       5849.00000      1.79809      8.54537     25.80534      0.22499      1.83618      1.68105   2061.00006      1.45983      3.91525   -264.82810      1.82658      2.42264      1.71779      0.17199      0.13779     -0.00256
       5849.50000      2.30816      8.53427     25.30564      0.21972      2.35528      2.17965   2159.00012      1.92046      3.82679   -264.87500      2.37347      2.41324      1.72823      0.17307      0.14349     -0.00320
       5850.00000      2.36032      8.54537     30.40144      0.21943      2.46540      2.23486   2127.99987      1.90415      3.91527   -265.00780      2.42425      2.40513      1.75836      0.16685      0.14841     -0.00286
       5850.50000      2.41304      8.54537     36.52672      0.22041      2.58523      2.29493   2167.00017      1.89562      4.41090   -265.41070      2.48174      2.39484      1.78667      0.16434      0.15464     -0.00444
       5851.00000      2.34819      8.52316     40.52016      0.22134      2.55468      2.25289   2125.00002      1.82110      4.44589   -266.25000      2.41424      2.39867      1.78442      0.16343      0.15232     -0.00496
       5851.50000      2.21110      8.50095     36.99847      0.22267      2.41171      2.13692   2143.99997      1.66768      4.65246   -265.80360      2.27296      2.40144      1.76545      0.17371      0.15064     -0.00701
