~VERSION INFORMATION 
VERS  .    2.0                                     :CWLS Log ASCII Standard - VERSION 2.0
WRAP  .    NO                                      :One Line per Depth step
PROD  .    Schlumberger Technology Corp.           :LAS Producer
PROG  .    Horizon LASWriter 3.1.9755.0            :LAS Program name and version
SOURCE.    3A-Log[4]/Up                            :Run&Pass Information
CREA  .    10/30/2012                              :LAS Creation date {MM/DD/YYYY}
#--------------------------------------------------
~WELL INFORMATION 
#MNEM           .UNIT                      DATA            :DESCRIPTION
#----            ------          --------------            -----------------------------
STRT            .ft                  5150.00000            :START DEPTH
STOP            .ft                  7238.00000            :STOP DEPTH
STEP            .ft                         0.5            :STEP
NULL            .                       -999.25            :NULL VALUE
COMP            .                   ADM COMPANY            :COMPANY
WELL            .                Verification Well #2      :WELL NAME
FLD             .                       Wildcat            :FIELD NAME
RIGN            .                                          :Rig Name
RIGTYP          .                                          :Rig Type
SON             .                    C5FX-00022            :Service Order Number
SRVC            .                  Schlumberger            :SERVICE COMPANY
DATE            .                    10/30/2012            :LOG DATE(Composite Date for Composite LAP) (MM/DD/YYYY)
CLAB            .                       County:            :County Label
CNTY            .                         Macon            :COUNTY
SLAB            .                        State:            :State/Province Label
STAT            .                      Illinois            :STATE or PROVINCE
PROV            .                      Illinois            :STATE or PROVINCE
CTRY            .                                          :COUNTRY
CONT_REGION     .                    N. America            :Continent Region
SECT            .                            32            :Section
TOWN            .                      17 North            :Township
RANG            .                        3 East            :Range
API             .                  121152355200            :API NUMBER
UWI             .                                          :UNIQUE WELL ID
LUL             .                        Weston            :Logging Unit Location
LUN             .                          3149            :Logging Unit Number
LOC             .                Lat: 39.8922313 Long: -88.89244449:FIELD LOCATION
FL1             .                248' South and 233' East rom NW corner of the:Field Location Line 1
FL2             .                NW/4, of the NE/4, of the NW/4, of Section 32:Field Location Line 2
LATI            .deg                  39.892231            :LATITUDE
LONG            .deg                 -88.892444            :LONGITUDE
PDAT            .                            GL            :Local Permanent Datum
LMF             .                            KB            :Logging Measured From
APD             .ft                    17.00000            :Elevation of Depth Reference (LMF) Above Permanent Datum
EPD             .ft                   686.49998            :Elevation of Permanent Datum (PDAT) above Mean Sea Level
EKB             .ft                    17.00000            :Elevation of Kelly Bushing Above Permanent Datum
EDF             .ft                     -999.25            :Elevation of Drill Floor Above Permanent Datum
EGL             .ft                     0.00000            :Elevation of Ground Level Above Permanent Datum
ECF             .ft                     -999.25            :Elevation of Casing Flange above Permanent Datum
#--------------------------------------------------
~CURVE INFORMATION
#MNEM           .UNIT                  API CODE            :DESCRIPTION
#----            ------          --------------            -----------------------------
DEPT            .ft                                        :                                                        Depth Index
RLA4            .ohm.m                                     :        (HRLT-B)                (2in)                   Apparent Resistivity from Computed Focusing Mode 4
CALI            .in                                        :        (HDRS-H)                (1in)                   Caliper
GR              .gAPI                                      :        (EDTC-B)                (6in)                   Gamma Ray
MRES            .ohm.m                                     :        (HRLT-B)                (2in)                   Mud Resistivity
RLA2            .ohm.m                                     :        (HRLT-B)                (2in)                   Apparent Resistivity from Computed Focusing Mode 2
RLA5            .ohm.m                                     :        (HRLT-B)                (2in)                   Apparent Resistivity from Computed Focusing Mode 5
TENS            .lbf                                       :        (WLWorkflow)            (1in)                   Cable Tension
RT              .ohm.m                                     :        (HRLT-B)                (2in)                   True Resistivity
RXOZ            .ohm.m                                     :        (HDRS-H)                (2in)                   Invaded Formation Resistivity filtered at 18 inches
SP              .mV                                        :        (SPE-A)                 (6in)                   Spontaneous Potential
RLA3            .ohm.m                                     :        (HRLT-B)                (2in)                   Apparent Resistivity from Computed Focusing Mode 3
RHOZ            .g/cm3                                     :        (HDRS-H)                (2in)                   Standard Resolution Formation Density
PEFZ            .                                          :        (HDRS-H)                (2in)                   Standard Resolution Formation Photoelectric Factor
NPHI            .ft3/ft3                                   :        (HGNS-H)                (6in)                   Thermal Neutron Porosity (original Ratio Method) in Selected Lithology
DPHZ            .ft3/ft3                                   :        (HDRS-H)                (2in)                   Standard Resolution Density Porosity
HDRA            .g/cm3                                     :        (HDRS-H)                (2in)                   Density Standoff Correction
#-------------------------------------------------------------
#            DEPT         RLA4         CALI           GR         MRES         RLA2         RLA5         TENS           RT         RXOZ           SP         RLA3         RHOZ         PEFZ         NPHI         DPHZ         HDRA 
#                     (HRLT-B)     (HDRS-H)     (EDTC-B)     (HRLT-B)     (HRLT-B)     (HRLT-B)  (WLWorkflo)     (HRLT-B)     (HDRS-H)      (SPE-A)     (HRLT-B)     (HDRS-H)     (HDRS-H)     (HGNS-H)     (HDRS-H)     (HDRS-H) 
#                                                                                                                                                                                                                                 
#                        (2in)        (1in)        (6in)        (2in)        (2in)        (2in)        (1in)        (2in)        (2in)        (6in)        (2in)        (2in)        (2in)        (6in)        (2in)        (2in) 
~ASCII
# ...
       6230.00000      8.94392      8.50095     79.62902      0.20694      9.94609      8.29104   2217.99988      5.56163     18.07439   -268.98440      9.39343      2.51233      1.99016      0.12057      0.08344     -0.00419
       6230.50000     12.12544      8.52316     73.94711      0.20447     13.46024     11.26600   2268.00076      7.44446     22.08089   -268.30470     12.72703      2.51262      2.04099      0.12869      0.08326     -0.00398
       6231.00000     10.25297      8.52316     61.57798      0.20561     11.45675      9.51863   2308.99917      6.04841     24.15224   -267.57140     10.77079      2.50737      2.02322      0.11857      0.08644     -0.00139
       6231.50000      8.91442      8.50095     60.38963      0.20583      9.94363      8.27330   2309.99957      5.17317     20.36677   -267.71090      9.39267      2.49563      1.98336      0.11753      0.09356     -0.00062
       6232.00000      8.63974      8.50095     64.34113      0.20483      9.65014      7.99155   2258.99941      4.93994     18.01450   -267.32140      9.09617      2.47901      1.97681      0.11807      0.10363     -0.00296
       6232.50000      9.86044      8.52316     70.70690      0.20300     11.07189      9.11703   2213.00013      5.71342     19.32229   -267.25780     10.39685      2.48139      1.97621      0.12019      0.10219     -0.00284
       6233.00000      9.96533      8.52316     74.72491      0.20240     11.24474      9.21792   2215.99998      5.86544     20.29696   -267.59820     10.52864      2.49236      1.96015      0.11700      0.09554     -0.00246
       6233.50000      9.57284      8.52316     81.39768      0.20138     10.77387      8.81828   2313.99892      5.59750     20.64161   -267.94530     10.11481      2.51463      1.94282      0.11415      0.08204     -0.00015
       6234.00000     11.12254      8.50095     82.29387      0.19892     12.44920     10.25484   2291.00096      6.62794     22.93314   -268.28570     11.74889      2.52309      1.95331      0.12739      0.07691      0.00091
       6234.50000      8.22095      8.52316     81.47496      0.19968      9.22452      7.56856   2313.99892      4.78085     20.31547   -269.21090      8.70641      2.50375      1.99938      0.14461      0.08863      0.00107
       6235.00000      5.80112      8.51206     76.66580      0.20282      6.49149      5.33231   2356.49905      3.30403     14.92857   -269.44640      6.12725      2.47488      2.01657      0.15548      0.10613      0.00132
       6235.50000      6.42422      8.50095     73.17738      0.20154      7.17939      5.85848   2226.99988      3.59686     13.90878   -269.23440      6.76331      2.44995      2.02914      0.15130      0.12124     -0.00012
       6236.00000      9.01415      8.46763     75.62307      0.19988     10.05225      8.18770   2240.49988      5.10569     15.35390   -269.13280      9.46367      2.45335      2.01006      0.13423      0.11918     -0.00181
       6236.50000      9.03775      8.47874     85.67128      0.20199     10.06107      8.14864   2244.00016      5.13336     22.12475   -269.22320      9.49372      2.46665      2.00260      0.11833      0.11112     -0.00465
       6237.00000      8.84144      8.50095     90.98356      0.20607      9.85302      7.96633   2264.99956      5.12946     20.45195   -268.80470      9.32091      2.48001      2.01574      0.11940      0.10303     -0.00613
       6237.50000      7.98618      8.50095     83.99522      0.20983      8.93160      7.20423   2266.49904      4.58246     21.41015   -269.16960      8.49799      2.48812      2.02788      0.11984      0.09811     -0.00626
       6238.00000      7.80304      8.52316     67.29690      0.21199      8.76066      7.05954   2325.00107      4.42950     19.59669   -269.39840      8.34794      2.49790      1.99931      0.11839      0.09218     -0.00455
       6238.50000      8.50322      8.54537     60.26413      0.21236      9.61843      7.67720   2337.50044      4.67794     19.68720   -268.27340      9.09537      2.50186      1.92879      0.10397      0.08978     -0.00448
       6239.00000     10.11870      8.50095     55.33754      0.21215     11.51760      9.12280   2258.99941      5.57720     19.62317   -267.40180     10.72715      2.49528      1.88599      0.09954      0.09377     -0.00601
       6239.50000      8.89306      8.47874     53.54887      0.21317     10.10766      8.01340   2297.99926      4.77261     19.51567   -267.60160      9.38592      2.48466      1.88579      0.09928      0.10021     -0.00796
       6240.00000      9.83590      8.47874     46.14729      0.21305     11.10558      8.91894   2191.00010      5.41022     18.96675   -267.38390     10.40768      2.48007      1.90920      0.10198      0.10299     -0.00762
       6240.50000      9.67357      8.47874     50.36510      0.21296     10.90857      8.79683   2233.00003      5.32782     18.18495   -267.66410     10.24711      2.48836      1.89414      0.10074      0.09797     -0.00507
       6241.00000     10.04703      8.45652     67.27246      0.21320     11.29788      9.19266   2179.99997      5.70415     17.90825   -267.70540     10.65408      2.49297      1.89738      0.09497      0.09517     -0.00604
       6241.50000     16.10462      8.45652    103.55850      0.21134     17.98361     14.81357   2303.99942      9.94902     19.05930   -267.76560     17.03764      2.52496      1.94792      0.11250      0.07578     -0.00547
       6242.00000     22.88733      8.56759    127.93590      0.21009     25.67252     20.99794   2298.99966     15.09363     27.39823   -267.89290     24.34279      2.56133      2.09511      0.15028      0.05374     -0.00525
       6242.50000     12.82248      8.65644    121.71140      0.21184     14.79588     11.70868   2238.99996      7.12650     41.23944   -268.29690     13.76725      2.59324      2.21577      0.16391      0.03440     -0.00123
       6243.00000      9.33894      8.52316     93.66270      0.21180     10.87665      8.51454   2315.50064      4.68711     35.01945   -268.38280     10.02343      2.56724      2.24597      0.15537      0.05016     -0.00221
       6243.50000      7.92717      8.52316     72.28230      0.20927      9.24824      7.23728   2209.00010      3.75097     23.71968   -268.21430      8.48719      2.51675      2.20014      0.13598      0.08076     -0.00463
       6244.00000      7.00807      8.58980     68.39787      0.20893      8.15630      6.40724   2216.49995      3.33066     18.03295   -268.33590      7.49294      2.47976      2.14653      0.14918      0.10318     -0.00582
       6244.50000      6.74948      8.57869     70.83452      0.20972      7.86246      6.16683   2214.00008      3.26518     15.98334   -268.46430      7.22925      2.46869      2.12293      0.14692      0.10989     -0.00528
       6245.00000      9.54802      8.58980     65.62971      0.20734     11.03514      8.73004   2289.00016      4.98883     15.86440   -268.00780     10.27002      2.48166      2.06152      0.13422      0.10203     -0.00317
       6245.50000     13.29245      8.56759     56.17664      0.20541     15.22001     12.13039   2263.00101      7.32492     19.04560   -268.08040     14.30987      2.49582      1.95793      0.10595      0.09345     -0.00348
       6246.00000     16.97641      8.54537     42.83740      0.20496     19.18637     15.44851   2295.00031      9.84813     28.23988   -268.56250     18.17679      2.51123      1.85300      0.08903      0.08410     -0.00476
       6246.50000     19.64204      8.56759     38.60644      0.20335     21.93173     17.90709   2326.99962     11.81425     36.95044   -267.90180     20.89794      2.52862      1.77777      0.07081      0.07356     -0.00459
       6247.00000     18.37353      8.54537     48.10483      0.20246     20.31464     16.81156   2257.99901     11.22980     42.26785   -267.13280     19.50803      2.54237      1.74907      0.06571      0.06523     -0.00297
       6247.50000     11.04243      8.56759     60.05463      0.20274     12.22920     10.13196   2278.00026      6.37013     37.02554   -267.33930     11.69351      2.54752      1.76309      0.07798      0.06211     -0.00064
