~VERSION
 VERS.        2.00                                                                   :CWLS LOG ASCII STANDARD
 WRAP.        NO                                                                     :NO WRAP PERFORMED
 PROD.        Schlumberger                                                           :LAS Producer
 CREA.        11/5/2012                                         :LAS Creation Date and time
~Well
#MNEM.UNIT    VALUE                                                                   :DESCRIPTION
#----.----    ---------------                                                        :-------------------
 STRT.F       7170.000                                                               :START DEPTH
 STOP.F       5320.000                                                               :STOP  DEPTH
 STEP.F       -0.500                                                                 :DEPTH STEP
 NULL.        -999.250                                                               :NULL VALUE
 COMP.        ADM COMPANY                                       :COMPANY NAME
 WELL.        Verification Well #2                              :WELL NAME
 FLD.         Wildcat                                           :FIELD NAME
 API.         121152355200                                                           :API NUMBER
 CNTY.        Macon                                                                  :COUNTY
 STAT.        Illinois                                                               :STATE
 CTRY.        US                                                                     :COUNTRY
 LOC.         Lat: 39.8922313 Long: -88.8924449                                      :WELL SURFACE LOCATION LINE 1
 LOC2.        248' South and 233' East From NW corner of the                         :WELL SURFACE LOCATION LINE 2
 LOC3.        NW/4, of the NE/4, of the NW/4, of Section 32                          :WELL SURFACE LOCATION LINE 3
 SECT.        32                                                                     :SECTION
 TOWN.        17 North                                                               :TOWNSHIP
 RANG.        3 East                                                                 :RANGE
 LATI.        39.892231 degrees                                                      :Latitude
 LONG.        -88.892444 degrees                                                     :Longitude
 DATE.        2012/10/31                                                             :LOGGING DATE
 SRVC.        Schlumberger                                                           :SERVICE COMPANY
~Parameter
#MNEM.UNIT    VALUE                                                                  :DESCRIPTION
#----.----    ---------------                                                        :-------------------
 APD.F        17.000                                                                 :Elevation of depth reference above permanent datum
 EDF.F        -999.250                                                               :Elevation of Derrick Floor
 EGL.F        686.500                                                                :Elevation of Ground Level
 EKB.F        703.500                                                                :Elevation of Kelly Bushing
 EPD.F        686.500                                                                :Elevation of Permnaent Datum
 LMF.         Kelly Bushing                                                          :Logging Measured From
 PDAT.        Ground Level                                                           :Permanent Datum
 TDD.F        7225.000                                                               :Total Depth Driller
 TDL.F        7223.000                                                               :Total Depth Logger
 BS.IN        8.500                                                                  :Bit Size
 R1.                                                                                 :REMARK 1
 R2.                                                                                 :REMARK 2
 R3.                                                                                 :REMARK 3
 R4.                                                                                 :REMARK 4
 R5.                                                                                 :REMARK 5
 R6.                                                                                 :REMARK 6
 R7.                                                                                 :REMARK 7
 R8.                                                                                 :REMARK 8
 R9.                                                                                 :REMARK 9
 R10.                                                                                :REMARK 10
 DCS_CENTER.  Denver                                                                 :Schlumberger DCS Center
 LOG_ANALYST. Oliver                                                                 :Log Analyst Name
 ENG.         Beth DiBella                                                           :Field Engineer Name
 GF_BASELINE. 45                                                                     :GeoFrame Baseline
~Curve
#MNEM.UNIT                                                                           :DESCRIPTION
#----.----                                                                           :--------------------------------
 DEPT.F                                                                              :Depth Index
 GR.GAPI                                                                             : 1 Gamma Ray                                                                                 
 RHOZ.G/C3                                                                           : 2 HRDD Standard Resolution Formation Density                                                
 BS.IN                                                                               : 3 Bit Size                                                                                  
 P1AZ.DEG                                                                            : 4 Pad 1 Azimuth in Horizontal Plane (0 = True North)                                        
 SDEVM.DEG                                                                           : 5 Memorized Sonde Deviation                                                                 
 HAZIM.DEG                                                                           : 6 Memorized Hole Azimuth Relative to True North                                             
 RB.DEG                                                                              : 7 Relative Bearing                                                                          
 DEVI.DEG                                                                            : 8 Hole Deviation                                                                            
 HD1_PPC1.IN                                                                         : 9 PPC1 Hole Diameter 1                                                                      
 HD2_PPC1.IN                                                                         :10 PPC1 Hole Diameter 2                                                                      
 TENS.LBS                                                                            :11 Cable Tension                                                                             
 HDAR.IN                                                                             :12 Hole Diameter from Area                                                                   
 MINXENE_OVERALL.                                                                    :13 Overall estimate of minimum cross energy                                                  
 MAXXENE_OVERALL.                                                                    :14 Overall estimate of maximum cross energy                                                  
 FSH_AZIM_OVERALL_FILT.DEG                                                           :15 Overall estimate of fast shear azimuth filtered                                           
 FSH_AZIM_OVERALL.DEG                                                                :16 Overall estimate of fast shear azimuth                                                    
 FSH_AZIM_ERR.DEG                                                                    :17 Fast shear azimuth error                                                                  
 DTSM_SLOW.US/F                                                                      :18 Shear Slowness of Slow Shear Waves                                                        
 DTSM_FAST.US/F                                                                      :19 Shear Slowness of Fast Shear Waves                                                        
 DTCO.US/F                                                                           :20 Delta-T Compressional                                                                     
 SLOANI.                                                                             :21 Slowness based anisotropy                                                                 
 TIMANI.                                                                             :22 Time based anisotropy                                                                     
 TWE.US                                                                              :23 Time window end                                                                           
 TWB.US                                                                              :24 Time window begin                                                                         
~Ascii   DEPT            GR          RHOZ            BS          P1AZ         SDEVM         HAZIM            RB          DEVI      HD1_PPC1      HD2_PPC1          TENS          HDAR  MINXENE_OVER  MAXXENE_OVER  FSH_AZIM_OVE  FSH_AZIM_OVE  FSH_AZIM_ERR     DTSM_SLOW     DTSM_FAST          DTCO        SLOANI        TIMANI           TWE           TWB
# ...
    7043.50000      65.50522       2.58698      17.50000     130.40651       1.35046      85.18887      45.20967       1.35748       8.70055       8.64810    2993.00806       8.67433       0.67024       1.51261    -999.25000      77.69502      10.63987     102.82886     100.75681      62.87364       2.03556       0.33469    4360.37695    1960.37695
    7043.00000      72.49973       2.60364      17.50000     131.48396       1.34927      85.37541      46.10061       1.35538       8.69548       8.66195    2901.80737       8.67871       0.71537       1.50434    -999.25000      78.99786      12.13361     102.33569     100.73933      63.10117       1.57219       0.34199    4367.01563    1967.01575
    7042.50000      87.89438       2.61417      17.50000     134.05759       1.34800      85.55452      48.49519       1.35288       8.68896       8.66000    2883.99048       8.67448       0.78724       1.52084    -999.25000      79.90028      13.17590     102.47992     100.98881      62.99783       1.46569       0.32388    4372.20654    1972.20642
    7042.00000     107.83617       2.61151      17.50000     136.39539       1.34666      85.73276      50.65487       1.35052       8.67463       8.64680    2942.31006       8.66072       0.89537       1.52923    -999.25000      81.04028      14.40462     103.34505     101.49069      62.57296       1.81058       0.28661    4376.11133    1976.11084
    7041.50000     122.85975       2.58865      17.50000     138.74051       1.34527      85.91973      52.81318       1.34832       8.68320       8.65268    2874.34302       8.66794       0.95337       1.50676    -999.25000      82.65517      16.12543     104.25952     101.89736      61.95248       2.29161       0.26072    4378.73877    1978.73865
    7041.00000     120.22293       2.58699      17.50000     141.37560       1.34386      86.10942      55.25880       1.34581       8.69823       8.64270    2959.98511       8.67046       0.98119       1.48173      82.88214      82.88214      17.10227     104.75011     102.03349      61.41656       2.62750       0.25491    4381.05469    1981.05444
    7040.50000     105.31718       2.58906      17.50000     143.36812       1.34245      86.29314      57.06780       1.34333       8.71105       8.64317    2920.67358       8.67711       1.06710       1.76302      82.56039      82.56039      17.73977     105.00707     101.95322      61.49807       2.95115       0.21994    4384.71582    1984.71606
    7040.00000      88.68099       2.58973      17.50000     144.69308       1.34106      86.51715      58.16890       1.34105       8.72371       8.64329    3025.66675       8.68350       1.15047       2.22134       0.03903       0.03903      20.01317     105.17516     102.07083      62.44443       2.99579       0.20120    4390.51367    1990.51392
    7039.50000      76.17594       2.58269      17.50000     145.93817       1.33974      86.73551      59.19578       1.33892       8.73591       8.64468    3001.68652       8.69029       1.25527       2.41622     -82.25566     -82.25566      21.25394     105.25661     102.28867      64.27830       2.86004       0.22814    4398.79443    1998.79431
    7039.00000      67.76721       2.56847      17.50000     146.66620       1.33849      86.94518      59.71421       1.33706       8.74846       8.65400    2879.17749       8.70123       1.52855       2.52033     -82.24376     -82.24376      21.08124     105.28515     102.55049      65.93925       2.63156       0.17597    4410.00293    2010.00256
    7038.50000      67.47389       2.56257      17.50000     149.06154       1.33731      87.08256      61.97251       1.33504       8.75737       8.64598    2873.67798       8.70168       1.90767       2.89702     -77.55901     -77.55901      22.51642     105.27190     102.73495      65.94724       2.43930       0.10895    4424.89453    2024.89453
    7038.00000      72.60674       2.56296      17.50000     152.30351       1.33621      87.33295      64.96459       1.33386       8.75711       8.64926    2933.71973       8.70318       2.23707       3.88148     -22.66586     -22.66586      22.77788     105.23798     102.82510      64.33232       2.31937       0.21350    4444.76367    2044.76343
    7037.50000      77.03724       2.58664      17.50000     153.40889       1.33518      87.49216      65.91093       1.33205       8.75251       8.65508    3024.87280       8.70379       2.46202       5.91288    -999.25000      27.88024      20.89273     105.21441     102.90842      62.71809       2.21598       0.49204    4469.94434    2069.94409
    7037.00000      80.81348       2.60257      17.50000     154.22607       1.33420      87.66232      66.55809       1.33096       8.75211       8.66687    2996.53979       8.70949       2.66685       8.52970    -999.25000      28.74497      18.45540     105.34655     103.09023      62.81339       2.16499       0.79902    4501.03027    2101.03027
    7036.50000      86.32902       2.60846      17.50000     155.96011       1.33325      87.82867      68.12608       1.32980       8.77840       8.65712    3019.24414       8.71776       2.90667      10.34028    -999.25000      29.67944      17.17181     105.72061     103.42295      64.66657       2.19721       0.98952    4541.16309    2141.16309
    7036.00000      87.83808       2.59244      17.50000     156.90967       1.33234      87.91920      68.98528       1.32847       8.79123       8.64598    3034.99365       8.71860       3.18288      11.08753      29.61916      29.61916      16.87897     106.30386     103.89857      67.01700       2.28854       0.98977    4590.87012    2190.86987
    7035.50000      83.16006       2.57306      17.50000     156.25826       1.33144      87.99298      68.25995       1.32686       8.80998       8.65400    3017.13696       8.73199       3.50323      11.70024      28.79255      28.79255      15.46830     107.05449     104.54257      68.84483       2.37425       0.84521    4645.89355    2245.89355
    7035.00000      75.89418       2.55127      17.50000     156.57809       1.33055      88.01757      68.55527       1.32583       8.81411       8.64468    3011.86108       8.72940       3.85929      12.97919      30.00685      30.00685      13.47655     107.92172     105.41386      69.71428       2.35109       0.67538    4701.68115    2301.68115
    7034.50000      79.58434       2.52998      17.50000     157.15584       1.32967      87.98638      69.16433       1.32427       8.82567       8.65612    3068.33350       8.74089       4.40174      16.04616    -999.25000      32.70869      12.14353     109.34661     107.12254      69.62950       2.05486       0.86275    4760.52734    2360.52734
    7034.00000      81.50844       2.51908      17.50000     160.63611       1.32875      87.99612      72.63560       1.32309       8.80298       8.66871    3105.00000       8.73584       5.10222      20.17354    -999.25000      34.50042      10.69519     110.32996     108.23542      68.76799       1.91662       1.20335    4812.75000    2412.75024
    7033.50000      82.18143       2.53000      17.50000     160.20908       1.32776      87.91014      72.29447       1.32194       8.81479       8.69809    2928.33350       8.75644       5.94421      23.49650    -999.25000      35.20207       9.36784     111.27901     108.76781      67.76839       2.28242       1.21978    4852.40039    2452.40015
    7033.00000      78.74727       2.54656      17.50000     160.41922       1.32663      87.87144      72.54337       1.32100       8.79142       8.69434    2928.00024       8.74288       7.05444      25.78108      35.97313      35.97313       9.41295     111.91175     109.24593      67.09680       2.41079       1.00458    4886.59863    2486.59863
    7032.50000      73.27538       2.56588      17.50000     161.32060       1.32528      87.82353      73.49289       1.31956       8.82524       8.65634    3035.75000       8.74079       8.06384      25.99193      36.80066      36.80066      10.89678     112.76357     110.04617      66.68577       2.43920       0.54822    4918.80615    2518.80615
