~VERSION INFORMATION 
VERS  .    2.0                                     :CWLS Log ASCII Standard - VERSION 2.0
WRAP  .    NO                                      :One Line per Depth step
PROD  .    Schlumberger Technology Corp.           :LAS Producer
PROG  .    Horizon LASWriter 3.1.9755.0            :LAS Program name and version
SOURCE.    3A-Log[4]/Up                            :Run&Pass Information
CREA  .    10/30/2012                              :LAS Creation date {MM/DD/YYYY}
#--------------------------------------------------
~WELL INFORMATION 
#MNEM           .UNIT                      DATA            :DESCRIPTION
#----            ------          --------------            -----------------------------
STRT            .ft                  5150.00000            :START DEPTH
STOP            .ft                  7238.00000            :STOP DEPTH
STEP            .ft                         0.5            :STEP
NULL            .                       -999.25            :NULL VALUE
COMP            .                   ADM COMPANY            :COMPANY
WELL            .                Verification Well #2      :WELL NAME
FLD             .                       Wildcat            :FIELD NAME
RIGN            .                                          :Rig Name
RIGTYP          .                                          :Rig Type
SON             .                    C5FX-00022            :Service Order Number
SRVC            .                  Schlumberger            :SERVICE COMPANY
DATE            .                    10/30/2012            :LOG DATE(Composite Date for Composite LAP) (MM/DD/YYYY)
CLAB            .                       County:            :County Label
CNTY            .                         Macon            :COUNTY
SLAB            .                        State:            :State/Province Label
STAT            .                      Illinois            :STATE or PROVINCE
PROV            .                      Illinois            :STATE or PROVINCE
CTRY            .                                          :COUNTRY
CONT_REGION     .                    N. America            :Continent Region
SECT            .                            32            :Section
TOWN            .                      17 North            :Township
RANG            .                        3 East            :Range
API             .                  121152355200            :API NUMBER
UWI             .                                          :UNIQUE WELL ID
LUL             .                        Weston            :Logging Unit Location
LUN             .                          3149            :Logging Unit Number
LOC             .                Lat: 39.8922313 Long: -88.89244449:FIELD LOCATION
FL1             .                248' South and 233' East rom NW corner of the:Field Location Line 1
FL2             .                NW/4, of the NE/4, of the NW/4, of Section 32:Field Location Line 2
LATI            .deg                  39.892231            :LATITUDE
LONG            .deg                 -88.892444            :LONGITUDE
PDAT            .                            GL            :Local Permanent Datum
LMF             .                            KB            :Logging Measured From
APD             .ft                    17.00000            :Elevation of Depth Reference (LMF) Above Permanent Datum
EPD             .ft                   686.49998            :Elevation of Permanent Datum (PDAT) above Mean Sea Level
EKB             .ft                    17.00000            :Elevation of Kelly Bushing Above Permanent Datum
EDF             .ft                     -999.25            :Elevation of Drill Floor Above Permanent Datum
EGL             .ft                     0.00000            :Elevation of Ground Level Above Permanent Datum
ECF             .ft                     -999.25            :Elevation of Casing Flange above Permanent Datum
#--------------------------------------------------
~CURVE INFORMATION
#MNEM           .UNIT                  API CODE            :DESCRIPTION
#----            ------          --------------            -----------------------------
DEPT            .ft                                        :                                                        Depth Index
RLA4            .ohm.m                                     :        (HRLT-B)                (2in)                   Apparent Resistivity from Computed Focusing Mode 4
CALI            .in                                        :        (HDRS-H)                (1in)                   Caliper
GR              .gAPI                                      :        (EDTC-B)                (6in)                   Gamma Ray
MRES            .ohm.m                                     :        (HRLT-B)                (2in)                   Mud Resistivity
RLA2            .ohm.m                                     :        (HRLT-B)                (2in)                   Apparent Resistivity from Computed Focusing Mode 2
RLA5            .ohm.m                                     :        (HRLT-B)                (2in)                   Apparent Resistivity from Computed Focusing Mode 5
TENS            .lbf                                       :        (WLWorkflow)            (1in)                   Cable Tension
RT              .ohm.m                                     :        (HRLT-B)                (2in)                   True Resistivity
RXOZ            .ohm.m                                     :        (HDRS-H)                (2in)                   Invaded Formation Resistivity filtered at 18 inches
SP              .mV                                        :        (SPE-A)                 (6in)                   Spontaneous Potential
RLA3            .ohm.m                                     :        (HRLT-B)                (2in)                   Apparent Resistivity from Computed Focusing Mode 3
RHOZ            .g/cm3                                     :        (HDRS-H)                (2in)                   Standard Resolution Formation Density
PEFZ            .                                          :        (HDRS-H)                (2in)                   Standard Resolution Formation Photoelectric Factor
NPHI            .ft3/ft3                                   :        (HGNS-H)                (6in)                   Thermal Neutron Porosity (original Ratio Method) in Selected Lithology
DPHZ            .ft3/ft3                                   :        (HDRS-H)                (2in)                   Standard Resolution Density Porosity
HDRA            .g/cm3                                     :        (HDRS-H)                (2in)                   Density Standoff Correction
#-------------------------------------------------------------
#            DEPT         RLA4         CALI           GR         MRES         RLA2         RLA5         TENS           RT         RXOZ           SP         RLA3         RHOZ         PEFZ         NPHI         DPHZ         HDRA 
#                     (HRLT-B)     (HDRS-H)     (EDTC-B)     (HRLT-B)     (HRLT-B)     (HRLT-B)  (WLWorkflo)     (HRLT-B)     (HDRS-H)      (SPE-A)     (HRLT-B)     (HDRS-H)     (HDRS-H)     (HGNS-H)     (HDRS-H)     (HDRS-H) 
#                                                                                                                                                                                                                                 
#                        (2in)        (1in)        (6in)        (2in)        (2in)        (2in)        (1in)        (2in)        (2in)        (6in)        (2in)        (2in)        (2in)        (6in)        (2in)        (2in) 
~ASCII
# ...
       6644.00000      2.36725      8.43431     51.25065      0.20533      2.66874      2.17611   2355.99997      1.33244      5.10606   -269.41960      2.49541      2.30950      1.86611      0.24936      0.20636     -0.00296
       6644.50000      2.55119      8.43431     50.99622      0.20539      2.88450      2.35110   2348.99942      1.44813      5.50922   -269.85940      2.69211      2.32152      1.88287      0.23759      0.19908     -0.00409
       6645.00000      2.56210      8.43431     53.08606      0.20554      2.88929      2.36548   2364.00092      1.45237      5.95698   -269.92860      2.70028      2.32150      1.91264      0.24104      0.19909     -0.00580
       6645.50000      2.55832      8.44542     57.70837      0.20665      2.87439      2.36517   2312.00037      1.45676      5.90677   -269.79690      2.69060      2.32921      1.89935      0.23201      0.19442     -0.00506
       6646.00000      2.57075      8.41210     62.94654      0.20670      2.87566      2.37217   2371.99962      1.47638      6.04790   -269.68750      2.70294      2.33491      1.88716      0.22711      0.19096     -0.00437
       6646.50000      2.57832      8.43431     61.29177      0.20757      2.89153      2.37848   2364.00092      1.46522      5.89233   -269.15180      2.70886      2.34230      1.88173      0.23428      0.18648     -0.00394
       6647.00000      2.63890      8.43431     55.51233      0.20792      2.96196      2.43020   2342.00112      1.49501      6.20249   -268.89060      2.77088      2.34782      1.89348      0.21602      0.18314     -0.00448
       6647.50000      3.20248      8.43431     56.29032      0.20450      3.59633      2.95198   2355.99997      1.82651      6.68495   -269.40180      3.37292      2.35361      1.90778      0.21501      0.17963     -0.00459
       6648.00000      3.12969      8.43431     59.71647      0.20519      3.53269      2.88361   2336.00097      1.77247      6.75462   -269.21880      3.31705      2.35440      1.91090      0.20717      0.17915     -0.00494
       6648.50000      2.81660      8.43431     65.25508      0.20689      3.19890      2.60538   2382.99953      1.56832      6.69383   -268.32810      2.99376      2.33882      1.93600      0.21729      0.18859     -0.00694
       6649.00000      2.63018      8.43431     60.35027      0.20782      3.00843      2.43255   2437.00088      1.45082      5.93766   -268.13390      2.80328      2.32316      1.94739      0.23346      0.19808     -0.00905
       6649.50000      2.40283      8.45652     57.97776      0.20828      2.75927      2.21610   2458.00029      1.28713      5.66303   -268.20310      2.56273      2.32291      1.93846      0.24486      0.19824     -0.00907
       6650.00000      2.59439      8.45652     57.39111      0.20600      2.97678      2.38789   2394.99983      1.37025      5.65705   -268.10710      2.75960      2.33493      1.92623      0.24413      0.19095     -0.00706
       6650.50000      2.56946      8.43431     59.01406      0.20524      2.93495      2.35551   2364.00092      1.33715      5.99245   -268.26560      2.71941      2.34485      1.92452      0.23935      0.18494     -0.00481
       6651.00000      2.46339      8.44542     62.67151      0.20595      2.80223      2.25289   2328.00002      1.29491      5.88166   -268.47660      2.59929      2.34153      1.92782      0.22469      0.18695     -0.00435
       6651.50000      2.27448      8.45652     62.84901      0.21064      2.57866      2.07511   2403.00078      1.21689      5.18589   -268.78570      2.39382      2.33516      1.93144      0.22997      0.19081     -0.00608
       6652.00000      2.48311      8.46763     69.22068      0.20973      2.80376      2.26162   2381.50005      1.32033      5.01044   -269.31250      2.61462      2.34594      1.93209      0.21634      0.18428     -0.00830
       6652.50000      4.49089      8.45652     72.25572      0.20184      5.01575      4.08242   2370.00107      2.50043      6.40689   -269.45540      4.72946      2.38627      1.93838      0.20953      0.15984     -0.00631
       6653.00000      4.36413      8.50095     79.70218      0.20420      4.86263      3.94846   2375.00082      2.43890      9.00296   -269.70310      4.59767      2.42295      1.95186      0.19954      0.13761     -0.00370
       6653.50000      3.66676      8.52316     80.83897      0.20902      4.09734      3.30105   2347.00087      2.02868      9.79244   -269.19530      3.87208      2.43697      1.97509      0.20165      0.12911     -0.00161
       6654.00000      3.87373      8.52316     72.85754      0.20580      4.35127      3.48598   2334.00017      2.10761      8.88937   -269.48210      4.10571      2.41708      1.98937      0.19754      0.14117     -0.00127
       6654.50000      3.42567      8.50095     60.00459      0.20491      3.87600      3.08013   2387.99928      1.79875      7.92730   -269.41410      3.63121      2.38382      1.97152      0.19600      0.16132     -0.00406
       6655.00000      2.27551      8.50095     52.00859      0.20812      2.59828      2.05190   2409.00093      1.15701      6.12607   -269.70540      2.41803      2.34425      1.90878      0.20863      0.18530     -0.00672
       6655.50000      1.96905      8.46763     51.28766      0.20740      2.25943      1.77783   2404.00118      0.98806      4.50319   -270.16410      2.09274      2.31402      1.85032      0.23869      0.20362     -0.00774
       6656.00000      1.72321      8.45652     53.13024      0.20675      1.98530      1.55931   2404.99933      0.84567      3.82867   -269.55360      1.83753      2.29404      1.82347      0.27096      0.21573     -0.00566
       6656.50000      1.73073      8.45652     51.27617      0.20569      1.99806      1.56832   2439.99983      0.84906      3.62572   -268.64060      1.84843      2.29368      1.82875      0.28485      0.21595     -0.00269
       6657.00000      1.72750      8.45652     50.34649      0.20690      1.99811      1.56779   2454.00093      0.85799      3.74955   -268.53910      1.85233      2.29991      1.84741      0.26907      0.21218     -0.00409
       6657.50000      1.90497      8.45652     52.60921      0.20857      2.20809      1.72682   2449.99934      0.94987      4.05939   -268.09820      2.03591      2.32410      1.89296      0.24661      0.19752     -0.00447
       6658.00000      2.68671      8.45652     61.65748      0.20474      3.09730      2.44434   2411.99988      1.39459      5.10597   -268.21090      2.87072      2.35883      1.94772      0.21176      0.17647     -0.00418
       6658.50000      3.38571      8.43431     70.19951      0.20337      3.86140      3.08749   2402.00038      1.81994      6.97269   -268.22320      3.61140      2.38484      2.02183      0.19994      0.16071     -0.00385
       6659.00000      3.34349      8.45652     72.68376      0.20781      3.78755      3.06099   2424.00018      1.84121      7.74983   -268.44530      3.56108      2.38622      2.07562      0.18528      0.15987     -0.00609
       6659.50000      3.45297      8.45652     73.46439      0.20988      3.87104      3.16436   2410.99948      1.94799      7.57812   -268.66070      3.65708      2.38042      2.10294      0.18828      0.16338     -0.00842
       6660.00000      4.09607      8.47874     70.38435      0.20868      4.56444      3.76092   2409.99908      2.30991      8.15531   -269.21090      4.31512      2.39217      2.08101      0.17372      0.15626     -0.00962
       6660.50000      5.03766      8.47874     71.12446      0.20666      5.62446      4.63134   2413.49936      2.84550      9.98473   -269.19530      5.28266      2.42309      2.03841      0.16036      0.13752     -0.00909
       6661.00000      5.62223      8.52316     73.54520      0.20590      6.31390      5.17659   2416.99963      3.16602     12.65495   -269.13390      5.88634      2.45558      2.01525      0.15636      0.11783     -0.00692
       6661.50000      4.82949      8.52316     78.63994      0.20657      5.45947      4.46736   2380.00057      2.67291     11.58349   -269.30470      5.06436      2.46728      2.02123      0.16126      0.11074     -0.00454
