~VERSION
 VERS.        2.00                                                                   :CWLS LOG ASCII STANDARD
 WRAP.        NO                                                                     :NO WRAP PERFORMED
 PROD.        Schlumberger                                                           :LAS Producer
 CREA.        Fri Nov 16 12:50:33 2012                                               :LAS Creation Date and time
~Well
#MNEM.UNIT    VALUE                                                                   :DESCRIPTION
#----.----    ---------------                                                        :-------------------
 STRT.F       5331.500                                                               :START DEPTH
 STOP.F       350.000                                                                :STOP  DEPTH
 STEP.F       -0.500                                                                 :DEPTH STEP
 NULL.        -999.250                                                               :NULL VALUE
 COMP.        ADM                                                                    :COMPANY NAME
 WELL.        Verification Well #2                                                   :WELL NAME
 FLD.         Wildcat                                                                :FIELD NAME
 API.         12115235520000                                                         :API NUMBER
 CNTY.        Macon                                                                  :COUNTY
 STAT.        Illinois                                                               :STATE
 CTRY.        US                                                                     :COUNTRY
 LOC.         Long:-88.8924449, Lat: 39.8922313                                      :WELL SURFACE LOCATION LINE 1
 LOC2.        248' South and 233' East from the NW corner of the                     :WELL SURFACE LOCATION LINE 2
 LOC3.        NW/4, of the NE/4, of the NW/4, of Section 32                          :WELL SURFACE LOCATION LINE 3
 SECT.        32                                                                     :SECTION
 TOWN.        17 North                                                               :TOWNSHIP
 RANG.        3 East                                                                 :RANGE
 LATI.        39.892232 degrees                                                      :Latitude
 LONG.        -88.892445 degrees                                                     :Longitude
 DATE.        2012/10/08                                                             :LOGGING DATE
 SRVC.        Schlumberger                                                           :SERVICE COMPANY
~Parameter
#MNEM.UNIT    VALUE                                                                  :DESCRIPTION
#----.----    ---------------                                                        :-------------------
 APD.F        17.000                                                                 :Elevation of depth reference above permanent datum
 EDF.F        703.500                                                                :Elevation of Derrick Floor
 EGL.F        686.500                                                                :Elevation of Ground Level
 EKB.F        703.500                                                                :Elevation of Kelly Bushing
 EPD.F        686.500                                                                :Elevation of Permnaent Datum
 LMF.         KB                                                                     :Logging Measured From
 PDAT.        Ground level                                                           :Permanent Datum
 TDD.F        5316.000                                                               :Total Depth Driller
 TDL.F        5316.000                                                               :Total Depth Logger
 BS.IN        12.250                                                                 :Bit Size
 R1.                                                                                 :REMARK 1
 R2.                                                                                 :REMARK 2
 R3.                                                                                 :REMARK 3
 R4.                                                                                 :REMARK 4
 R5.                                                                                 :REMARK 5
 R6.                                                                                 :REMARK 6
 R7.                                                                                 :REMARK 7
 R8.                                                                                 :REMARK 8
 R9.                                                                                 :REMARK 9
 R10.                                                                                :REMARK 10
 DCS_CENTER.  Denver DCS                                                             :Schlumberger DCS Center
 LOG_ANALYST. Roberts                                                                :Log Analyst Name
 ENG.         Kevin Ryan                                                             :Field Engineer Name
 GF_BASELINE. GF45                                                                   :GeoFrame Baseline
~Curve
#MNEM.UNIT                                                                           :DESCRIPTION
#----.----                                                                           :--------------------------------
 DEPT.F                                                                              :Depth Index
 GR.GAPI                                                                             : 1 Gamma Ray                                                                                 
 RHOZ.G/C3                                                                           : 2 HRDD Standard Resolution Formation Density                                                
 BS.IN                                                                               : 3 Bit Size                                                                                  
 P1AZ.DEG                                                                            : 4 Pad 1 Azimuth in Horizontal Plane (0 = True North)                                        
 SDEVM.DEG                                                                           : 5 Memorized Sonde Deviation                                                                 
 HAZIM.DEG                                                                           : 6 Memorized Hole Azimuth Relative to True North                                             
 RB.DEG                                                                              : 7 Relative Bearing                                                                          
 DEVI.DEG                                                                            : 8 Hole Deviation                                                                            
 HD1_PPC1.IN                                                                         : 9 PPC1 Hole Diameter 1                                                                      
 HD2_PPC1.IN                                                                         :10 PPC1 Hole Diameter 2                                                                      
 TENS.LBS                                                                            :11 Cable Tension                                                                             
 HDAR.IN                                                                             :12 Hole Diameter from Area                                                                   
 MINXENE_OVERALL.                                                                    :13 Overall estimate of minimum cross energy                                                  
 MAXXENE_OVERALL.                                                                    :14 Overall estimate of maximum cross energy                                                  
 FSH_AZIM_OVERALL_FILT.DEG                                                           :15 Overall estimate of fast shear azimuth filtered                                           
 FSH_AZIM_OVERALL.DEG                                                                :16 Overall estimate of fast shear azimuth                                                    
 FSH_AZIM_ERR.DEG                                                                    :17 Fast shear azimuth error                                                                  
 DTSM_SLOW.US/F                                                                      :18 Shear Slowness of Slow Shear Waves                                                        
 DTSM_FAST.US/F                                                                      :19 Shear Slowness of Fast Shear Waves                                                        
 DTCO.US/F                                                                           :20 Delta-T Compressional                                                                     
 SLOANI.                                                                             :21 Slowness based anisotropy                                                                 
 TIMANI.                                                                             :22 Time based anisotropy                                                                     
 TWE.US                                                                              :23 Time window end                                                                           
 TWB.US                                                                              :24 Time window begin                                                                         
 FLAG.                                                                               :25 Shear Flag                                                                    
 FLAG.                                                                               :26 Bad Hole Flag                                                                    
~Ascii   DEPT            GR          RHOZ            BS          P1AZ         SDEVM         HAZIM            RB          DEVI      HD1_PPC1      HD2_PPC1          TENS          HDAR  MINXENE_OVER  MAXXENE_OVER  FSH_AZIM_OVE  FSH_AZIM_OVE  FSH_AZIM_ERR     DTSM_SLOW     DTSM_FAST          DTCO        SLOANI        TIMANI           TWE           TWB          FLAG          FLAG
# ...
    4341.50000      23.79966       2.73333      12.25000      83.43552       0.60126     215.81133     227.62262       0.57520      12.84155      12.84814    2131.00220      12.84484       3.00939       6.58880    -999.25000      74.27225      17.09006      94.05762      93.61918      48.54943       0.46724       0.93356    4874.89648    1874.89673    -999.25000    -999.25000
    4341.00000      23.63475       2.73579      12.25000      84.36213       0.60612     215.51949     228.84105       0.58207      12.87158      12.79672    2148.18286      12.83415       2.83783       5.57962    -999.25000      69.79300      18.22108      93.59307      92.82586      48.63472       0.82311       0.87769    4870.94629    1870.94580    -999.25000    -999.25000
    4340.50000      24.92048       2.73177      12.25000      86.71361       0.61106     215.19612     231.51590       0.58773      12.88844      12.73834    2182.30029      12.81339       2.69389       5.13362    -999.25000      66.97400      19.10276      93.44924      91.76585      48.65282       1.81777       0.82400    4867.61719    1867.61719    -999.25000    -999.25000
    4340.00000      27.12949       2.74462      12.25000      87.91648       0.61597     214.84962     233.06526       0.59495      12.88462      12.68999    2163.02905      12.78731       2.68115       4.97124    -999.25000      67.00358      19.35638      93.26540      90.94788      48.71703       2.51613       0.77455    4864.96094    1864.96094    -999.25000    -999.25000
    4339.50000      28.68225       2.75687      12.25000      88.99107       0.62071     214.48849     234.50098       0.60051      12.83364      12.67334    2134.06104      12.75349       2.72913       4.75824      67.36929      67.36929      19.52567      93.09626      90.54267      48.95882       2.78110       0.75632    4863.67480    1863.67456    -999.25000    -999.25000
    4339.00000      29.61887       2.75989      12.25000      90.40523       0.62516     214.12045     236.28320       0.60559      12.79209      12.74401    2165.42529      12.76805       2.81126       4.57537    -999.25000      68.35916      19.27255      93.09211      90.65037      49.33903       2.65779       0.75583    4864.54297    1864.54297    -999.25000    -999.25000
    4338.50000      31.13776       2.74925      12.25000      92.43677       0.62917     213.75275     238.68250       0.61311      12.78362      12.84873    2164.97852      12.81617       2.91640       4.43716    -999.25000      70.01477      18.76455      92.95650      90.83099      49.88024       2.31301       0.72986    4868.50879    1868.50903    -999.25000    -999.25000
    4338.00000      32.10012       2.73797      12.25000      94.60825       0.63260     213.39111     241.21567       0.61469      12.76775      12.87473    2100.60815      12.82124       3.01056       4.33817    -999.25000      70.67255      18.68491      93.38957      91.33519      50.56048       2.22426       0.68634    4874.19727    1874.19727    -999.25000    -999.25000
    4337.50000      30.69347       2.74067      12.25000      95.55781       0.63531     213.04094     242.51543       0.61905      12.75815      12.97387    2156.06860      12.86601       3.01922       4.30378    -999.25000      71.05685      18.75175      93.24255      92.32436      51.11439       0.98961       0.84774    4879.32666    1879.32666    -999.25000    -999.25000
    4337.00000      29.14864       2.74230      12.25000      97.00248       0.63719     212.70654     244.29456       0.62338      12.73934      13.00152    2115.29053      12.87043       2.97253       4.29533    -999.25000      72.79725      18.21041      94.11148      93.20573      51.21604       0.96707       1.01423    4884.05859    1884.05859    -999.25000    -999.25000
    4336.50000      28.96540       2.74866      12.25000      98.25912       0.63811     212.38943     245.86835       0.62445      12.69571      12.97604    2190.00586      12.83588       2.95342       4.25034    -999.25000      74.96751      17.10438      95.68793      94.07892      51.03444       1.69577       0.98041    4890.83594    1890.83557    -999.25000    -999.25000
    4336.00000      27.82104       2.73899      12.25000     100.85358       0.63799     212.09393     248.75845       0.62513      12.64268      12.94998    2143.55542      12.79633       2.88009       4.18359    -999.25000      75.87675      15.99809      97.34483      94.69027      51.00031       2.76466       0.97314    4899.43066    1899.43091    -999.25000    -999.25000
    4335.50000      26.99968       2.74755      12.25000     103.12601       0.63677     211.82031     251.30461       0.62458      12.64532      13.00210    2123.83423      12.82371       2.73790       4.17797      76.59845      76.59845      15.06033      98.33182      94.68040      51.32325       3.78361       1.00871    4907.23438    1907.23413    -999.25000    -999.25000
    4335.00000      24.68464       2.76511      12.25000     103.71010       0.63444     211.57285     252.13623       0.62171      13.31654      13.19677    2171.08618      13.25666       2.57671       4.22794      77.88139      77.88139      14.47929     101.03240      95.26024      51.98099       5.88118       1.05760    4913.55957    1913.55957    -999.25000    -999.25000
    4334.50000      24.32094       2.77940      12.25000     105.00362       0.63103     211.35167     253.65102       0.61835      15.65034      13.84643    2133.57153      14.74839       2.40594       4.35269      78.58881      78.58881      13.74647     106.48695      98.60759      52.49507       7.68364       1.12572    4918.51367    1918.51343    -999.25000       1.00000
    4334.00000      23.12950       2.76624      12.25000     105.95380       0.62662     211.15813     254.79478       0.61259      15.09847      13.96638    2075.38623      14.53243       2.25382       4.56066      78.32699      78.32699      12.79167     108.12613     102.99734      52.61823       4.85856       1.20750    4922.58984    1922.58984    -999.25000       1.00000
    4333.50000      24.89709       2.72803      12.25000     106.56828       0.62137     210.99271     255.57477       0.60716      12.92467      13.43027    2079.82300      13.17747       2.12894       4.81007      77.47426      77.47426      12.59185     104.56741     102.73423      52.37593       1.76861       1.29597    4925.94629    1925.94653    -999.25000    -999.25000
    4333.00000      23.92133       2.73181      12.25000     107.13468       0.61552     210.85568     256.27823       0.60128      12.70426      13.00119    2163.45972      12.85273       1.99467       5.17260      76.52585      76.52585      12.06374      98.89975      95.23513      51.55074       3.77533       1.41031    4928.21436    1928.21436    -999.25000    -999.25000
    4332.50000      24.30575       2.75679      12.25000     108.00256       0.60939     210.74347     257.25839       0.59151      12.68954      12.88622    2205.15161      12.78788       1.93217       5.63309      75.30867      75.30867      10.69592      92.28310      88.64236      50.06842       4.02458       1.54478    4930.33105    1930.33081    -999.25000    -999.25000
    4332.00000      23.76595       2.80034      12.25000     109.25368       0.60336     210.65036     258.60272       0.58371      12.70968      12.88385    2150.34668      12.79677       1.98757       6.34638    -999.25000      74.01533       9.87107      89.50271      88.61510      48.39474       0.99665       1.51289    4933.24121    1933.24097    -999.25000    -999.25000
    4331.50000      27.20212       2.81088      12.25000     109.90955       0.59789     210.56822     259.34076       0.57484      12.74807      12.85192    2168.10181      12.79999       2.03011       7.56829    -999.25000      73.75897       9.38366      92.20818      90.84132      47.56345       1.49342       1.39498    4936.78516    1936.78516    -999.25000    -999.25000
    4331.00000      29.74805       2.79650      12.25000     110.01822       0.59341     210.48804     259.52963       0.56762      12.72863      12.87338    2176.34961      12.80101       2.20724       8.78559      74.38960      74.38960       9.09766      95.80873      92.29637      47.81969       3.73447       1.41545    4940.10254    1940.10254    -999.25000    -999.25000
