~VERSION INFORMATION 
VERS  .    2.0                                     :CWLS Log ASCII Standard - VERSION 2.0
WRAP  .    NO                                      :One Line per Depth step
PROD  .    Schlumberger Technology Corp.           :LAS Producer
PROG  .    Horizon LASWriter 3.1.9755.0            :LAS Program name and version
SOURCE.    3A-Log[4]/Up                            :Run&Pass Information
CREA  .    10/30/2012                              :LAS Creation date {MM/DD/YYYY}
#--------------------------------------------------
~WELL INFORMATION 
#MNEM           .UNIT                      DATA            :DESCRIPTION
#----            ------          --------------            -----------------------------
STRT            .ft                  5150.00000            :START DEPTH
STOP            .ft                  7238.00000            :STOP DEPTH
STEP            .ft                         0.5            :STEP
NULL            .                       -999.25            :NULL VALUE
COMP            .                   ADM COMPANY            :COMPANY
WELL            .                Verification Well #2      :WELL NAME
FLD             .                       Wildcat            :FIELD NAME
RIGN            .                                          :Rig Name
RIGTYP          .                                          :Rig Type
SON             .                    C5FX-00022            :Service Order Number
SRVC            .                  Schlumberger            :SERVICE COMPANY
DATE            .                    10/30/2012            :LOG DATE(Composite Date for Composite LAP) (MM/DD/YYYY)
CLAB            .                       County:            :County Label
CNTY            .                         Macon            :COUNTY
SLAB            .                        State:            :State/Province Label
STAT            .                      Illinois            :STATE or PROVINCE
PROV            .                      Illinois            :STATE or PROVINCE
CTRY            .                                          :COUNTRY
CONT_REGION     .                    N. America            :Continent Region
SECT            .                            32            :Section
TOWN            .                      17 North            :Township
RANG            .                        3 East            :Range
API             .                  121152355200            :API NUMBER
UWI             .                                          :UNIQUE WELL ID
LUL             .                        Weston            :Logging Unit Location
LUN             .                          3149            :Logging Unit Number
LOC             .                Lat: 39.8922313 Long: -88.89244449:FIELD LOCATION
FL1             .                248' South and 233' East rom NW corner of the:Field Location Line 1
FL2             .                NW/4, of the NE/4, of the NW/4, of Section 32:Field Location Line 2
LATI            .deg                  39.892231            :LATITUDE
LONG            .deg                 -88.892444            :LONGITUDE
PDAT            .                            GL            :Local Permanent Datum
LMF             .                            KB            :Logging Measured From
APD             .ft                    17.00000            :Elevation of Depth Reference (LMF) Above Permanent Datum
EPD             .ft                   686.49998            :Elevation of Permanent Datum (PDAT) above Mean Sea Level
EKB             .ft                    17.00000            :Elevation of Kelly Bushing Above Permanent Datum
EDF             .ft                     -999.25            :Elevation of Drill Floor Above Permanent Datum
EGL             .ft                     0.00000            :Elevation of Ground Level Above Permanent Datum
ECF             .ft                     -999.25            :Elevation of Casing Flange above Permanent Datum
#--------------------------------------------------
~CURVE INFORMATION
#MNEM           .UNIT                  API CODE            :DESCRIPTION
#----            ------          --------------            -----------------------------
DEPT            .ft                                        :                                                        Depth Index
RLA4            .ohm.m                                     :        (HRLT-B)                (2in)                   Apparent Resistivity from Computed Focusing Mode 4
CALI            .in                                        :        (HDRS-H)                (1in)                   Caliper
GR              .gAPI                                      :        (EDTC-B)                (6in)                   Gamma Ray
MRES            .ohm.m                                     :        (HRLT-B)                (2in)                   Mud Resistivity
RLA2            .ohm.m                                     :        (HRLT-B)                (2in)                   Apparent Resistivity from Computed Focusing Mode 2
RLA5            .ohm.m                                     :        (HRLT-B)                (2in)                   Apparent Resistivity from Computed Focusing Mode 5
TENS            .lbf                                       :        (WLWorkflow)            (1in)                   Cable Tension
RT              .ohm.m                                     :        (HRLT-B)                (2in)                   True Resistivity
RXOZ            .ohm.m                                     :        (HDRS-H)                (2in)                   Invaded Formation Resistivity filtered at 18 inches
SP              .mV                                        :        (SPE-A)                 (6in)                   Spontaneous Potential
RLA3            .ohm.m                                     :        (HRLT-B)                (2in)                   Apparent Resistivity from Computed Focusing Mode 3
RHOZ            .g/cm3                                     :        (HDRS-H)                (2in)                   Standard Resolution Formation Density
PEFZ            .                                          :        (HDRS-H)                (2in)                   Standard Resolution Formation Photoelectric Factor
NPHI            .ft3/ft3                                   :        (HGNS-H)                (6in)                   Thermal Neutron Porosity (original Ratio Method) in Selected Lithology
DPHZ            .ft3/ft3                                   :        (HDRS-H)                (2in)                   Standard Resolution Density Porosity
HDRA            .g/cm3                                     :        (HDRS-H)                (2in)                   Density Standoff Correction
#-------------------------------------------------------------
#            DEPT         RLA4         CALI           GR         MRES         RLA2         RLA5         TENS           RT         RXOZ           SP         RLA3         RHOZ         PEFZ         NPHI         DPHZ         HDRA 
#                     (HRLT-B)     (HDRS-H)     (EDTC-B)     (HRLT-B)     (HRLT-B)     (HRLT-B)  (WLWorkflo)     (HRLT-B)     (HDRS-H)      (SPE-A)     (HRLT-B)     (HDRS-H)     (HDRS-H)     (HGNS-H)     (HDRS-H)     (HDRS-H) 
#                                                                                                                                                                                                                                 
#                        (2in)        (1in)        (6in)        (2in)        (2in)        (2in)        (1in)        (2in)        (2in)        (6in)        (2in)        (2in)        (2in)        (6in)        (2in)        (2in) 
~ASCII
# ...
       5420.00000     20.57305      9.94476    196.78910      0.20908     21.98727     19.80313   2118.00014     13.56907     25.22183   -247.46090     21.16493      2.57646      3.36644      0.14240      0.04457     -0.00196
       5420.50000     18.74721      9.92255    194.61350      0.20937     20.07651     18.12514   2109.00014     12.27578     25.90552   -247.09380     19.30521      2.57207      3.27506      0.13519      0.04723     -0.00178
       5421.00000     18.48826      9.90033    193.59950      0.20945     19.70947     17.91555   2069.00011     12.07414     26.42395   -247.17190     18.99949      2.56134      3.25438      0.13696      0.05373     -0.00454
       5421.50000     21.49955      9.87812    193.70220      0.20974     22.76186     20.83121   2127.99987     14.57140     24.55401   -246.10710     21.93518      2.57506      3.25627      0.16273      0.04542     -0.00555
       5422.00000     21.76384      9.87812    203.62050      0.21040     22.93135     21.07780   2088.50004     14.91585     24.79544   -245.66410     22.05382      2.58747      3.32623      0.19089      0.03790     -0.00758
       5422.50000     23.77113      9.90033    211.31350      0.21116     24.71426     22.99938   2117.00019     17.16777     25.21369   -245.36610     23.91924      2.59380      3.35981      0.19667      0.03406     -0.00783
       5423.00000     18.55136      9.87812    213.84860      0.21264     19.31412     17.89512   2150.00012     13.08551     23.38575   -245.85940     18.78310      2.57879      3.38157      0.18623      0.04316     -0.00177
       5423.50000     17.59491      9.87812    207.54300      0.21300     18.32713     16.92866   2156.00004     12.54105     23.79128   -245.92860     17.88631      2.56424      3.39851      0.16135      0.05198      0.00402
       5424.00000     22.08312      9.87812    205.01470      0.21267     22.82932     21.24620   2156.00004     16.73170     25.76074   -244.58590     22.53120      2.56802      3.41008      0.16969      0.04968      0.00543
       5424.50000     21.45041      9.87812    199.69790      0.21293     22.30901     20.56227   2142.00007     15.80572     33.31511   -243.50780     21.93312      2.57113      3.44348      0.16615      0.04780      0.00060
       5425.00000     24.65660      9.85591    197.85620      0.21287     25.75503     23.62130   2125.99997     18.76060     35.28266   -243.64290     25.26743      2.57251      3.42271      0.16445      0.04696     -0.00563
       5425.50000     18.60458      9.87812    189.32500      0.21325     19.67860     17.75520   2151.00007     13.35669     31.90558   -243.25000     19.18811      2.56737      3.38621      0.15615      0.05008     -0.00652
       5426.00000     17.69036      9.87812    188.50920      0.21351     18.65480     16.87930   2162.00020     12.88612     26.38832   -243.35710     18.29417      2.56478      3.34475      0.15849      0.05165     -0.00863
       5426.50000     16.20454      9.87812    185.59450      0.21372     17.04656     15.46097   2122.99989     11.92786     25.04396   -243.66410     16.76579      2.56065      3.31233      0.17090      0.05415     -0.00748
       5427.00000     13.93778      9.90033    181.61950      0.21421     14.77199     13.27336   2137.50007      9.88029     21.11591   -244.13280     14.35051      2.55674      3.28298      0.16496      0.05652     -0.00611
       5427.50000     14.44757      9.94476    179.85130      0.21409     15.36986     13.77470   2110.00009     10.05782     19.17162   -244.55360     14.83026      2.56440      3.27179      0.16215      0.05188     -0.00447
       5428.00000     16.20718      9.90033    182.48740      0.21364     17.26555     15.44190   2108.49994     11.32506     17.73237   -244.91410     16.58569      2.57621      3.33720      0.16195      0.04472     -0.00455
       5428.50000     17.16597      9.92255    193.53130      0.21295     18.22985     16.35791   2138.99999     11.97533     18.65766   -244.80360     17.56743      2.58776      3.40449      0.16187      0.03772     -0.00408
       5429.00000     16.61228      9.87812    193.21740      0.21345     17.57923     15.83878   2121.99994     11.54499     18.10777   -245.13280     17.02699      2.59483      3.37788      0.16431      0.03344     -0.00273
       5429.50000     17.63587      9.90033    199.86810      0.21363     18.65557     16.81330   2133.00007     12.19811     19.68366   -244.33590     18.09564      2.59790      3.30525      0.15988      0.03158     -0.00140
       5430.00000     19.53512      9.87812    209.06120      0.21389     20.45450     18.63615   2106.00006     13.60256     21.90943   -244.16070     20.07162      2.59589      3.27754      0.16101      0.03280     -0.00234
       5430.50000     24.33115      9.90033    218.00860      0.21358     25.42602     23.29527   2051.50008     17.71660     28.54909   -243.96090     24.99360      2.58759      3.32820      0.15801      0.03782     -0.00389
       5431.00000     21.33763      9.87812    213.82030      0.21427     22.55834     20.38374   2112.00021     14.88984     25.53574   -244.21430     21.95569      2.57002      3.36204      0.15294      0.04847      0.00024
       5431.50000     15.95665      9.87812    202.87090      0.21521     17.09998     15.25210   2119.00009     10.33788     23.39159   -244.63280     16.43552      2.55183      3.31440      0.14790      0.05950      0.00538
       5432.00000     16.64026      9.87812    200.66290      0.21527     17.87229     15.90772   2127.99987     10.63164     22.02152   -244.18750     17.11272      2.53715      3.23372      0.14252      0.06839      0.00428
       5432.50000     18.85932      9.88923    209.31010      0.21484     20.16216     18.03676   2149.00017     12.26597     25.71717   -243.12500     19.35869      2.53961      3.19102      0.15646      0.06691     -0.00214
       5433.00000     20.96127      9.87812    211.86970      0.21431     22.29429     20.09679   2138.99999     14.35178     28.77975   -243.19530     21.49150      2.55225      3.24357      0.16119      0.05924     -0.00805
       5433.50000     18.12547      9.87812    213.20450      0.21426     19.36702     17.37823   2171.99992     12.35847     25.72149   -242.93750     18.57633      2.56968      3.33571      0.17981      0.04868     -0.00702
       5434.00000     16.89690      9.90033    200.07230      0.21463     17.93239     16.27206   2164.00010     11.64461     22.88495   -242.84380     17.29509      2.59507      3.39511      0.18635      0.03329     -0.00189
       5434.50000     17.73743      9.90033    192.00200      0.21450     18.75011     17.09842   2167.00017     11.97386     22.65035   -242.98210     18.18950      2.61043      3.40529      0.19049      0.02398      0.00185
       5435.00000     19.44233      9.90033    188.26210      0.21445     20.56345     18.70971   2165.00005     13.05005     23.41710   -243.11720     20.03375      2.60245      3.43458      0.17071      0.02882      0.00492
       5435.50000     18.77435      9.87812    189.86610      0.21517     19.82032     18.03032   2168.50010     12.65567     23.63411   -243.59380     19.17749      2.58469      3.44319      0.16087      0.03958      0.00000
       5436.00000     18.92702      9.87812    193.96150      0.21618     19.98872     18.22927   2127.99987     13.31134     22.42622   -244.23210     19.27029      2.56973      3.43608      0.16088      0.04865     -0.00150
       5436.50000     18.84477      9.87812    187.37480      0.21696     19.83525     18.11946   2168.99985     13.18452     22.86910   -244.96090     19.19931      2.56746      3.39440      0.17234      0.05002     -0.00228
       5437.00000     19.29699      9.87812    180.35570      0.21740     20.20679     18.53622   2125.00002     13.61402     22.23491   -245.38280     19.69666      2.57128      3.32790      0.16481      0.04771     -0.00045
       5437.50000     18.89361      9.87812    179.06060      0.21755     19.68891     18.11978   2143.99997     13.79541     21.48710   -245.20540     19.25714      2.57814      3.25250      0.16346      0.04355     -0.00025
