~VERSION INFORMATION 
VERS  .    2.0                                     :CWLS Log ASCII Standard - VERSION 2.0
WRAP  .    NO                                      :One Line per Depth step
PROD  .    Schlumberger Technology Corp.           :LAS Producer
PROG  .    Horizon LASWriter 3.1.9755.0            :LAS Program name and version
SOURCE.    3A-Log[4]/Up                            :Run&Pass Information
CREA  .    10/30/2012                              :LAS Creation date {MM/DD/YYYY}
#--------------------------------------------------
~WELL INFORMATION 
#MNEM           .UNIT                      DATA            :DESCRIPTION
#----            ------          --------------            -----------------------------
STRT            .ft                  5150.00000            :START DEPTH
STOP            .ft                  7238.00000            :STOP DEPTH
STEP            .ft                         0.5            :STEP
NULL            .                       -999.25            :NULL VALUE
COMP            .                   ADM COMPANY            :COMPANY
WELL            .                Verification Well #2      :WELL NAME
FLD             .                       Wildcat            :FIELD NAME
RIGN            .                                          :Rig Name
RIGTYP          .                                          :Rig Type
SON             .                    C5FX-00022            :Service Order Number
SRVC            .                  Schlumberger            :SERVICE COMPANY
DATE            .                    10/30/2012            :LOG DATE(Composite Date for Composite LAP) (MM/DD/YYYY)
CLAB            .                       County:            :County Label
CNTY            .                         Macon            :COUNTY
SLAB            .                        State:            :State/Province Label
STAT            .                      Illinois            :STATE or PROVINCE
PROV            .                      Illinois            :STATE or PROVINCE
CTRY            .                                          :COUNTRY
CONT_REGION     .                    N. America            :Continent Region
SECT            .                            32            :Section
TOWN            .                      17 North            :Township
RANG            .                        3 East            :Range
API             .                  121152355200            :API NUMBER
UWI             .                                          :UNIQUE WELL ID
LUL             .                        Weston            :Logging Unit Location
LUN             .                          3149            :Logging Unit Number
LOC             .                Lat: 39.8922313 Long: -88.89244449:FIELD LOCATION
FL1             .                248' South and 233' East rom NW corner of the:Field Location Line 1
FL2             .                NW/4, of the NE/4, of the NW/4, of Section 32:Field Location Line 2
LATI            .deg                  39.892231            :LATITUDE
LONG            .deg                 -88.892444            :LONGITUDE
PDAT            .                            GL            :Local Permanent Datum
LMF             .                            KB            :Logging Measured From
APD             .ft                    17.00000            :Elevation of Depth Reference (LMF) Above Permanent Datum
EPD             .ft                   686.49998            :Elevation of Permanent Datum (PDAT) above Mean Sea Level
EKB             .ft                    17.00000            :Elevation of Kelly Bushing Above Permanent Datum
EDF             .ft                     -999.25            :Elevation of Drill Floor Above Permanent Datum
EGL             .ft                     0.00000            :Elevation of Ground Level Above Permanent Datum
ECF             .ft                     -999.25            :Elevation of Casing Flange above Permanent Datum
#--------------------------------------------------
~CURVE INFORMATION
#MNEM           .UNIT                  API CODE            :DESCRIPTION
#----            ------          --------------            -----------------------------
DEPT            .ft                                        :                                                        Depth Index
RLA4            .ohm.m                                     :        (HRLT-B)                (2in)                   Apparent Resistivity from Computed Focusing Mode 4
CALI            .in                                        :        (HDRS-H)                (1in)                   Caliper
GR              .gAPI                                      :        (EDTC-B)                (6in)                   Gamma Ray
MRES            .ohm.m                                     :        (HRLT-B)                (2in)                   Mud Resistivity
RLA2            .ohm.m                                     :        (HRLT-B)                (2in)                   Apparent Resistivity from Computed Focusing Mode 2
RLA5            .ohm.m                                     :        (HRLT-B)                (2in)                   Apparent Resistivity from Computed Focusing Mode 5
TENS            .lbf                                       :        (WLWorkflow)            (1in)                   Cable Tension
RT              .ohm.m                                     :        (HRLT-B)                (2in)                   True Resistivity
RXOZ            .ohm.m                                     :        (HDRS-H)                (2in)                   Invaded Formation Resistivity filtered at 18 inches
SP              .mV                                        :        (SPE-A)                 (6in)                   Spontaneous Potential
RLA3            .ohm.m                                     :        (HRLT-B)                (2in)                   Apparent Resistivity from Computed Focusing Mode 3
RHOZ            .g/cm3                                     :        (HDRS-H)                (2in)                   Standard Resolution Formation Density
PEFZ            .                                          :        (HDRS-H)                (2in)                   Standard Resolution Formation Photoelectric Factor
NPHI            .ft3/ft3                                   :        (HGNS-H)                (6in)                   Thermal Neutron Porosity (original Ratio Method) in Selected Lithology
DPHZ            .ft3/ft3                                   :        (HDRS-H)                (2in)                   Standard Resolution Density Porosity
HDRA            .g/cm3                                     :        (HDRS-H)                (2in)                   Density Standoff Correction
#-------------------------------------------------------------
#            DEPT         RLA4         CALI           GR         MRES         RLA2         RLA5         TENS           RT         RXOZ           SP         RLA3         RHOZ         PEFZ         NPHI         DPHZ         HDRA 
#                     (HRLT-B)     (HDRS-H)     (EDTC-B)     (HRLT-B)     (HRLT-B)     (HRLT-B)  (WLWorkflo)     (HRLT-B)     (HDRS-H)      (SPE-A)     (HRLT-B)     (HDRS-H)     (HDRS-H)     (HGNS-H)     (HDRS-H)     (HDRS-H) 
#                                                                                                                                                                                                                                 
#                        (2in)        (1in)        (6in)        (2in)        (2in)        (2in)        (1in)        (2in)        (2in)        (6in)        (2in)        (2in)        (2in)        (6in)        (2in)        (2in) 
~ASCII
# ...
       5294.00000      0.02567      8.81193     37.74666      0.05884      0.02841      0.02725   2084.99998      0.02725      0.03000   -170.38940      0.02683      4.01961     10.00000      0.22823     -0.83007      1.30048
       5294.50000      0.02584      8.81933     37.22788      0.05908      0.02858      0.02745   2102.50024      0.02745      0.03000   -170.94710      0.02696      4.01636     10.00000      0.22514     -0.82810      1.28910
       5295.00000      0.02791      8.82673     41.36498      0.05932      0.03085      0.02969   2152.00002      0.02969      0.03000   -170.70540      0.02912      3.99740     10.00000      0.23449     -0.81661      1.28547
       5295.50000      0.02480      8.82673     46.51797      0.05947      0.02731      0.02676   2101.00009      0.02676      0.03147   -171.17310      0.02577      3.97563     10.00000      0.24050     -0.80341      1.27643
       5296.00000      0.02560      8.81193     47.72673      0.05955      0.02831      0.02740   2075.00026      0.02740      0.03147   -171.76920      0.02668      3.96056     10.00000      0.21435     -0.79428      1.26768
       5296.50000      0.02480      8.82303     60.27220      0.05942      0.02710      0.02670   2133.50004      0.02670      0.03109   -172.38460      0.02577      3.94887     10.00000      0.22805     -0.78719      1.25655
       5297.00000      0.02504      8.82673     80.83757      0.05946      0.02739      0.02702   2075.66659      0.02702      0.03109   -172.90870      0.02604      3.93653     10.00000      0.27616     -0.77972      1.25483
       5297.50000      0.02741      8.81193    104.66280      0.05956      0.03051      0.02932   2065.99981      0.02932      0.03222   -173.41830      0.02861      3.92987     10.00000      0.31201     -0.77568      1.26298
       5298.00000      0.02793      8.82303    117.43880      0.05961      0.03098      0.02964   2120.99999      0.02964      0.03257   -173.50480      0.02921      3.93515     10.00000      0.33961     -0.77888      1.28306
       5298.50000      0.02647      8.82303    114.27430      0.05973      0.02938      0.02831   2094.50019      0.02831      0.03257   -173.90380      0.02760      3.94801     10.00000      0.35817     -0.78667      1.28210
       5299.00000      0.02666      8.81193    107.36130      0.05962      0.02952      0.02854   2048.50000      0.02854      0.03000   -174.37950      0.02781      3.95881     10.00000      0.40439     -0.79322      1.27774
       5299.50000      0.02568      8.82303     94.27121      0.05949      0.02844      0.02779   2057.99998      0.02779      0.03000   -174.46630      0.02675      3.96805     10.00000      0.39805     -0.79882      1.27908
       5300.00000      0.02543      8.81193     80.28602      0.05952      0.02789      0.02789   2058.49996      0.02789      0.03000   -174.52880      0.02636      3.97991     10.00000      0.39662     -0.80601      1.30386
       5300.50000      0.02639      8.83414     66.41907      0.05942      0.02915      0.02863   2089.99996      0.02863      0.03000   -174.74040      0.02744      3.99230     10.00000      0.33887     -0.81351      1.31805
       5301.00000      0.02695      8.82303     62.60969      0.05926      0.02973      0.02929   2050.49991      0.02929      0.03000   -175.46630      0.02808      4.00022     10.00000      0.32510     -0.81831      1.31380
       5301.50000      0.02587      8.82303     73.13177      0.05888      0.02834      0.02891   2018.00018      0.02891      0.03000   -175.46630      0.02682      4.00426     10.00000      0.28921     -0.82077      1.30607
       5302.00000      0.02700      8.81193     83.71883      0.05840      0.02968      0.03054   2060.66666      0.03054      0.03000   -175.09130      0.02804      4.00912     10.00000      0.33823     -0.82371      1.30915
       5302.50000      0.02457      8.81193    103.85650      0.05825      0.02679      0.02818   2084.66682      0.02818      0.03000   -175.50000      0.02544      4.01639     10.00000      0.34614     -0.82812      1.31989
       5303.00000      0.02686      8.81193    113.15910      0.05815      0.02978      0.03020   2064.00013      0.03020      0.03000   -175.53370      0.02802      4.01811     10.00000      0.40765     -0.82915      1.31802
       5303.50000      0.02764      8.83414    114.50140      0.05814      0.03074      0.03121   2080.49998      0.03121      0.03000   -176.39420      0.02898      4.01755     10.00000      0.40920     -0.82882      1.31303
       5304.00000      0.02723      8.81193     94.78841      0.05816      0.03018      0.03207   1985.49977      0.03207      0.03000   -176.99520      0.02845      4.01338     10.00000      0.38976     -0.82629      1.29794
       5304.50000      0.02611      8.82303     74.24294      0.05794      0.02869      0.03269   2067.00021      0.03269      0.03000   -177.82210      0.02712      4.00854     10.00000      0.31996     -0.82336      1.28080
       5305.00000      0.02513      8.83414     66.12296      0.05772      0.02769      0.03387   2077.00016      0.03387      0.03000   -178.64420      0.02618      4.00062     10.00000      0.25455     -0.81856      1.26395
       5305.50000      0.02647      8.82303     76.65569      0.05750      0.02943      0.03661   2020.99980      0.03661      0.03000   -179.51920      0.02778      3.99360     10.00000      0.25817     -0.81431      1.24404
       5306.00000      0.02681      8.81193     94.96152      0.05715      0.02983      0.03659   2089.99996      0.03659      0.03000   -180.03570      0.02812      3.99393     10.00000      0.28798     -0.81450      1.23050
       5306.50000      0.02542      8.82303    109.09260      0.05693      0.02796      0.03482   2089.49999      0.03482      0.03000   -179.70190      0.02646      3.99975     10.00000      0.29938     -0.81803      1.22099
       5307.00000      0.02455      8.81933    112.31340      0.05657      0.02681      0.03346   2103.49996      0.03346      0.03000   -179.62020      0.02549      4.00740     10.00000      0.28213     -0.82267      1.21163
       5307.50000      0.02677      8.81933    110.05910      0.05625      0.02941      0.03489   2063.49993      0.03489      0.03000   -179.32690      0.02788      4.01270     10.00000      0.28147     -0.82588      1.20161
       5308.00000      0.02574      8.82303    102.18030      0.05606      0.02819      0.03346   2072.49993      0.03346      0.03000   -179.19710      0.02676      4.01514     10.00000      0.28799     -0.82736      1.17291
       5308.50000      0.02406      8.82303     92.04135      0.05598      0.02605      0.03125   2119.00009      0.03125      0.03000   -179.68270      0.02482      4.00852     10.00000      0.29208     -0.82334      1.15662
       5309.00000      0.02644      8.81933     83.95351      0.05585      0.02879      0.03288   2121.49996      0.03288      0.03000   -180.47120      0.02745      3.98963     10.00000      0.30740     -0.81190      1.15753
       5309.50000      0.02665      8.82673     79.44801      0.05591      0.02893      0.03216   2050.49991      0.03216      0.03000   -180.64420      0.02755      3.96699     10.00000      0.36281     -0.79818      1.16931
       5310.00000      0.02607      8.83414     68.15091      0.05618      0.02788      0.02937   2081.99991      0.02936      0.03000   -180.15380      0.02667      3.95442     10.00000      0.39411     -0.79056      1.15392
       5310.50000      0.02512      8.83414     56.86171      0.05640      0.02640      0.02739   2086.50013      0.02739      0.03000   -179.74520      0.02547      3.95551     10.00000      0.31550     -0.79122      1.12728
       5311.00000      0.02782      8.82303     53.69363      0.05669      0.02963      0.02941   2101.00009      0.02941      0.03000   -180.00480      0.02838      3.96266     10.00000      0.26460     -0.79555      1.11893
       5311.50000      0.02855      8.83414     62.12139      0.05701      0.03048      0.03010   2101.00009      0.03010      0.03000   -180.40380      0.02923      3.97249     10.00000      0.25819     -0.80151      1.14570
