~VERSION
 VERS.        2.00                                                                   :CWLS LOG ASCII STANDARD
 WRAP.        NO                                                                     :NO WRAP PERFORMED
 PROD.        Schlumberger                                                           :LAS Producer
 CREA.        Fri Nov 16 12:50:33 2012                                               :LAS Creation Date and time
~Well
#MNEM.UNIT    VALUE                                                                   :DESCRIPTION
#----.----    ---------------                                                        :-------------------
 STRT.F       5331.500                                                               :START DEPTH
 STOP.F       350.000                                                                :STOP  DEPTH
 STEP.F       -0.500                                                                 :DEPTH STEP
 NULL.        -999.250                                                               :NULL VALUE
 COMP.        ADM                                                                    :COMPANY NAME
 WELL.        Verification Well #2                                                   :WELL NAME
 FLD.         Wildcat                                                                :FIELD NAME
 API.         12115235520000                                                         :API NUMBER
 CNTY.        Macon                                                                  :COUNTY
 STAT.        Illinois                                                               :STATE
 CTRY.        US                                                                     :COUNTRY
 LOC.         Long:-88.8924449, Lat: 39.8922313                                      :WELL SURFACE LOCATION LINE 1
 LOC2.        248' South and 233' East from the NW corner of the                     :WELL SURFACE LOCATION LINE 2
 LOC3.        NW/4, of the NE/4, of the NW/4, of Section 32                          :WELL SURFACE LOCATION LINE 3
 SECT.        32                                                                     :SECTION
 TOWN.        17 North                                                               :TOWNSHIP
 RANG.        3 East                                                                 :RANGE
 LATI.        39.892232 degrees                                                      :Latitude
 LONG.        -88.892445 degrees                                                     :Longitude
 DATE.        2012/10/08                                                             :LOGGING DATE
 SRVC.        Schlumberger                                                           :SERVICE COMPANY
~Parameter
#MNEM.UNIT    VALUE                                                                  :DESCRIPTION
#----.----    ---------------                                                        :-------------------
 APD.F        17.000                                                                 :Elevation of depth reference above permanent datum
 EDF.F        703.500                                                                :Elevation of Derrick Floor
 EGL.F        686.500                                                                :Elevation of Ground Level
 EKB.F        703.500                                                                :Elevation of Kelly Bushing
 EPD.F        686.500                                                                :Elevation of Permnaent Datum
 LMF.         KB                                                                     :Logging Measured From
 PDAT.        Ground level                                                           :Permanent Datum
 TDD.F        5316.000                                                               :Total Depth Driller
 TDL.F        5316.000                                                               :Total Depth Logger
 BS.IN        12.250                                                                 :Bit Size
 R1.                                                                                 :REMARK 1
 R2.                                                                                 :REMARK 2
 R3.                                                                                 :REMARK 3
 R4.                                                                                 :REMARK 4
 R5.                                                                                 :REMARK 5
 R6.                                                                                 :REMARK 6
 R7.                                                                                 :REMARK 7
 R8.                                                                                 :REMARK 8
 R9.                                                                                 :REMARK 9
 R10.                                                                                :REMARK 10
 DCS_CENTER.  Denver DCS                                                             :Schlumberger DCS Center
 LOG_ANALYST. Roberts                                                                :Log Analyst Name
 ENG.         Kevin Ryan                                                             :Field Engineer Name
 GF_BASELINE. GF45                                                                   :GeoFrame Baseline
~Curve
#MNEM.UNIT                                                                           :DESCRIPTION
#----.----                                                                           :--------------------------------
 DEPT.F                                                                              :Depth Index
 GR.GAPI                                                                             : 1 Gamma Ray                                                                                 
 RHOZ.G/C3                                                                           : 2 HRDD Standard Resolution Formation Density                                                
 BS.IN                                                                               : 3 Bit Size                                                                                  
 P1AZ.DEG                                                                            : 4 Pad 1 Azimuth in Horizontal Plane (0 = True North)                                        
 SDEVM.DEG                                                                           : 5 Memorized Sonde Deviation                                                                 
 HAZIM.DEG                                                                           : 6 Memorized Hole Azimuth Relative to True North                                             
 RB.DEG                                                                              : 7 Relative Bearing                                                                          
 DEVI.DEG                                                                            : 8 Hole Deviation                                                                            
 HD1_PPC1.IN                                                                         : 9 PPC1 Hole Diameter 1                                                                      
 HD2_PPC1.IN                                                                         :10 PPC1 Hole Diameter 2                                                                      
 TENS.LBS                                                                            :11 Cable Tension                                                                             
 HDAR.IN                                                                             :12 Hole Diameter from Area                                                                   
 MINXENE_OVERALL.                                                                    :13 Overall estimate of minimum cross energy                                                  
 MAXXENE_OVERALL.                                                                    :14 Overall estimate of maximum cross energy                                                  
 FSH_AZIM_OVERALL_FILT.DEG                                                           :15 Overall estimate of fast shear azimuth filtered                                           
 FSH_AZIM_OVERALL.DEG                                                                :16 Overall estimate of fast shear azimuth                                                    
 FSH_AZIM_ERR.DEG                                                                    :17 Fast shear azimuth error                                                                  
 DTSM_SLOW.US/F                                                                      :18 Shear Slowness of Slow Shear Waves                                                        
 DTSM_FAST.US/F                                                                      :19 Shear Slowness of Fast Shear Waves                                                        
 DTCO.US/F                                                                           :20 Delta-T Compressional                                                                     
 SLOANI.                                                                             :21 Slowness based anisotropy                                                                 
 TIMANI.                                                                             :22 Time based anisotropy                                                                     
 TWE.US                                                                              :23 Time window end                                                                           
 TWB.US                                                                              :24 Time window begin                                                                         
 FLAG.                                                                               :25 Shear Flag                                                                    
 FLAG.                                                                               :26 Bad Hole Flag                                                                    
~Ascii   DEPT            GR          RHOZ            BS          P1AZ         SDEVM         HAZIM            RB          DEVI      HD1_PPC1      HD2_PPC1          TENS          HDAR  MINXENE_OVER  MAXXENE_OVER  FSH_AZIM_OVE  FSH_AZIM_OVE  FSH_AZIM_ERR     DTSM_SLOW     DTSM_FAST          DTCO        SLOANI        TIMANI           TWE           TWB          FLAG          FLAG
# ...
    3670.50000      29.69865       2.75160      12.25000     329.39377       2.17402     248.33971      81.04771       2.19302      12.51497      12.63602    2041.25000      12.57550       0.77592       1.17680      64.55515      64.55515      13.96885      95.91705      93.03548      51.09689       3.05005       0.04281    4904.64258    1904.64233    -999.25000    -999.25000
    3670.00000      35.49657       2.76251      12.25000     329.11826       2.17546     248.42026      80.69141       2.19552      12.51497      12.58818    2097.75000      12.55158       0.71749       1.17066      65.41597      65.41597      12.59332      96.20106      93.15224      51.47912       3.22024       0.07433    4901.27441    1901.27441    -999.25000    -999.25000
    3669.50000      36.96747       2.76424      12.25000     328.68896       2.17644     248.50407      80.17796       2.19712      12.52550      12.61211    2068.66675      12.56880       0.65730       1.16154      66.28140      66.28140      10.95732      96.17615      93.69017      52.43467       2.61866       0.09238    4898.06934    1898.06934    -999.25000    -999.25000
    3669.00000      41.93916       2.76906      12.25000     328.52328       2.17688     248.57649      79.93967       2.19924      12.55768      12.60015    2023.00012      12.57891       0.59709       1.15465      67.52123      67.52123       9.39980      96.66678      94.06932      53.25949       2.72361       0.11673    4895.37695    1895.37695    -999.25000    -999.25000
    3668.50000      41.60175       2.75656      12.25000     328.18033       2.17672     248.64035      79.53261       2.19859      12.52550      12.60015    2097.66650      12.56283       0.54058       1.14953    -999.25000      68.66450       8.60559      96.92500      94.71252      53.63913       2.30902       0.13470    4893.42676    1893.42676    -999.25000    -999.25000
    3668.00000      41.87223       2.73862      12.25000     327.64310       2.17591     248.68619      78.94914       2.19952      12.54686      12.62405    2103.00000      12.58545       0.48917       1.12948    -999.25000      69.58582       8.14362      96.90650      95.66174      53.74723       1.29280       0.13752    4892.27344    1892.27344    -999.25000    -999.25000
    3667.50000      39.22958       2.73509      12.25000     327.16516       2.17444     248.71625      78.44083       2.19759      12.55768      12.62405    2042.00000      12.59087       0.44944       1.08959    -999.25000      70.01942       7.57316      96.66087      96.58649      53.67176       0.07698       0.14900    4891.75342    1891.75354    -999.25000    -999.25000
    3667.00000      38.27376       2.74021      12.25000     326.53461       2.17236     248.72572      77.80037       2.19466      12.57902      12.61208    2043.33325      12.59555       0.42424       1.05693    -999.25000      69.75873       7.38362      96.32371      96.56107      53.19077      -0.24612       0.15783    4890.97070    1890.97070    -999.25000    -999.25000
    3666.50000      35.05441       2.76100      12.25000     326.37308       2.16977     248.70818      77.65633       2.18939      12.55768      12.60013    2106.00000      12.57891       0.40775       1.04259    -999.25000      69.47064       7.51777      95.79537      96.06805      52.10773      -0.28425       0.16177    4890.51367    1890.51367    -999.25000    -999.25000
    3666.00000      30.85965       2.78844      12.25000     327.39520       2.16685     248.66994      78.71742       2.18585      12.58954      12.61211    2057.00000      12.60082       0.39857       1.03454    -999.25000      69.15826       7.74869      95.09740      95.36285      50.83044      -0.27875       0.16929    4890.85693    1890.85706    -999.25000    -999.25000
    3665.50000      28.58660       2.80615      12.25000     328.22348       2.16379     248.60759      79.60865       2.18134      12.51497      12.60015    2059.00000      12.55756       0.39385       1.03020    -999.25000      68.68983       7.88871      94.76077      95.17097      50.37177      -0.43194       0.17966    4891.85303    1891.85303    -999.25000    -999.25000
    3665.00000      28.47506       2.77281      12.25000     328.48996       2.16082     248.51646      79.96651       2.17461      12.48277      12.52832    2038.74988      12.50554       0.39193       1.03395    -999.25000      68.34021       7.84519      94.77267      95.02294      50.84322      -0.26373       0.18939    4893.08398    1893.08423    -999.25000    -999.25000
    3664.50000      29.23323       2.71079      12.25000     328.27698       2.15812     248.43120      79.83872       2.17182      12.38664      12.49236    2098.25000      12.43950       0.39201       1.03838    -999.25000      68.26521       7.91455      95.02872      94.98901      52.39787       0.04180       0.20515    4893.65332    1893.65320    -999.25000    -999.25000
    3664.00000      29.81565       2.66815      12.25000     327.97482       2.15583     248.31985      79.64780       2.17030      12.38664      12.54029    2050.00000      12.46346       0.39313       1.04412    -999.25000      68.32503       8.36198      95.30515      94.86561      53.79227       0.46226       0.22908    4893.50342    1893.50342    -999.25000    -999.25000
    3663.50000      31.20164       2.66353      12.25000     327.61792       2.15405     248.20160      79.40900       2.16801      12.48277      12.45639    2054.00000      12.46958       0.39561       1.05915    -999.25000      68.27060       8.86719      95.43221      94.67218      54.23004       0.79960       0.25415    4892.51563    1892.51563    -999.25000    -999.25000
    3663.00000      31.93957       2.68682      12.25000     327.57938       2.15280     248.07025      79.50188       2.16922      12.50444      12.58818    2045.33325      12.54631       0.40035       1.08601    -999.25000      68.04283       9.11378      95.39962      94.53262      54.19197       0.91295       0.27696    4890.84375    1890.84399    -999.25000    -999.25000
    3662.50000      33.96245       2.69784      12.25000     327.48129       2.15204     247.94109      79.53299       2.16926      12.50444      12.62405    2049.66650      12.56425       0.40807       1.12629    -999.25000      67.90369       9.34102      95.28433      94.08857      54.07990       1.26287       0.30343    4889.05420    1889.05420    -999.25000    -999.25000
    3662.00000      38.58252       2.69942      12.25000     327.45847       2.15170     247.80026      79.65108       2.17197      12.50444      12.60013    2131.75000      12.55229       0.41845       1.18071    -999.25000      68.00404       9.52576      95.05164      93.66520      54.06593       1.46934       0.33719    4887.77148    1887.77124    -999.25000    -999.25000
    3661.50000      44.64440       2.69260      12.25000     327.20770       2.15169     247.65517      79.54532       2.17078      12.54716      12.61208    2075.50000      12.57962       0.42934       1.23574    -999.25000      68.11865       9.60043      95.20742      93.61393      54.14206       1.68783       0.37039    4887.17480    1887.17468    -999.25000    -999.25000
    3661.00000      44.88453       2.69668      12.25000     327.44583       2.15190     247.50742      79.93147       2.17028      12.53662      12.60015    1999.25012      12.56839       0.43954       1.29859    -999.25000      68.16853       9.60437      95.45414      94.33356      54.20525       1.18088       0.40896    4886.79639    1886.79639    -999.25000    -999.25000
    3660.50000      43.31588       2.70228      12.25000     327.68207       2.15222     247.34918      80.32618       2.17009      12.54716      12.58818    2115.50000      12.56767       0.44870       1.37343    -999.25000      68.25306       9.37792      96.10499      95.54648      54.16240       0.58284       0.46109    4886.37793    1886.37805    -999.25000    -999.25000
    3660.00000      43.53796       2.70996      12.25000     327.77176       2.15258     247.18758      80.57766       2.17053      12.56850      12.60015    1995.00000      12.58432       0.45679       1.44420    -999.25000      68.27856       9.03675      97.16363      96.46914      53.97844       0.71733       0.50488    4886.25684    1886.25684    -999.25000    -999.25000
