~VERSION
 VERS.        2.00                                                                   :CWLS LOG ASCII STANDARD
 WRAP.        NO                                                                     :NO WRAP PERFORMED
 PROD.        Schlumberger                                                           :LAS Producer
 CREA.        11/5/2012                                         :LAS Creation Date and time
~Well
#MNEM.UNIT    VALUE                                                                   :DESCRIPTION
#----.----    ---------------                                                        :-------------------
 STRT.F       7170.000                                                               :START DEPTH
 STOP.F       5320.000                                                               :STOP  DEPTH
 STEP.F       -0.500                                                                 :DEPTH STEP
 NULL.        -999.250                                                               :NULL VALUE
 COMP.        ADM COMPANY                                       :COMPANY NAME
 WELL.        Verification Well #2                              :WELL NAME
 FLD.         Wildcat                                           :FIELD NAME
 API.         121152355200                                                           :API NUMBER
 CNTY.        Macon                                                                  :COUNTY
 STAT.        Illinois                                                               :STATE
 CTRY.        US                                                                     :COUNTRY
 LOC.         Lat: 39.8922313 Long: -88.8924449                                      :WELL SURFACE LOCATION LINE 1
 LOC2.        248' South and 233' East From NW corner of the                         :WELL SURFACE LOCATION LINE 2
 LOC3.        NW/4, of the NE/4, of the NW/4, of Section 32                          :WELL SURFACE LOCATION LINE 3
 SECT.        32                                                                     :SECTION
 TOWN.        17 North                                                               :TOWNSHIP
 RANG.        3 East                                                                 :RANGE
 LATI.        39.892231 degrees                                                      :Latitude
 LONG.        -88.892444 degrees                                                     :Longitude
 DATE.        2012/10/31                                                             :LOGGING DATE
 SRVC.        Schlumberger                                                           :SERVICE COMPANY
~Parameter
#MNEM.UNIT    VALUE                                                                  :DESCRIPTION
#----.----    ---------------                                                        :-------------------
 APD.F        17.000                                                                 :Elevation of depth reference above permanent datum
 EDF.F        -999.250                                                               :Elevation of Derrick Floor
 EGL.F        686.500                                                                :Elevation of Ground Level
 EKB.F        703.500                                                                :Elevation of Kelly Bushing
 EPD.F        686.500                                                                :Elevation of Permnaent Datum
 LMF.         Kelly Bushing                                                          :Logging Measured From
 PDAT.        Ground Level                                                           :Permanent Datum
 TDD.F        7225.000                                                               :Total Depth Driller
 TDL.F        7223.000                                                               :Total Depth Logger
 BS.IN        8.500                                                                  :Bit Size
 R1.                                                                                 :REMARK 1
 R2.                                                                                 :REMARK 2
 R3.                                                                                 :REMARK 3
 R4.                                                                                 :REMARK 4
 R5.                                                                                 :REMARK 5
 R6.                                                                                 :REMARK 6
 R7.                                                                                 :REMARK 7
 R8.                                                                                 :REMARK 8
 R9.                                                                                 :REMARK 9
 R10.                                                                                :REMARK 10
 DCS_CENTER.  Denver                                                                 :Schlumberger DCS Center
 LOG_ANALYST. Oliver                                                                 :Log Analyst Name
 ENG.         Beth DiBella                                                           :Field Engineer Name
 GF_BASELINE. 45                                                                     :GeoFrame Baseline
~Curve
#MNEM.UNIT                                                                           :DESCRIPTION
#----.----                                                                           :--------------------------------
 DEPT.F                                                                              :Depth Index
 GR.GAPI                                                                             : 1 Gamma Ray                                                                                 
 RHOZ.G/C3                                                                           : 2 HRDD Standard Resolution Formation Density                                                
 BS.IN                                                                               : 3 Bit Size                                                                                  
 P1AZ.DEG                                                                            : 4 Pad 1 Azimuth in Horizontal Plane (0 = True North)                                        
 SDEVM.DEG                                                                           : 5 Memorized Sonde Deviation                                                                 
 HAZIM.DEG                                                                           : 6 Memorized Hole Azimuth Relative to True North                                             
 RB.DEG                                                                              : 7 Relative Bearing                                                                          
 DEVI.DEG                                                                            : 8 Hole Deviation                                                                            
 HD1_PPC1.IN                                                                         : 9 PPC1 Hole Diameter 1                                                                      
 HD2_PPC1.IN                                                                         :10 PPC1 Hole Diameter 2                                                                      
 TENS.LBS                                                                            :11 Cable Tension                                                                             
 HDAR.IN                                                                             :12 Hole Diameter from Area                                                                   
 MINXENE_OVERALL.                                                                    :13 Overall estimate of minimum cross energy                                                  
 MAXXENE_OVERALL.                                                                    :14 Overall estimate of maximum cross energy                                                  
 FSH_AZIM_OVERALL_FILT.DEG                                                           :15 Overall estimate of fast shear azimuth filtered                                           
 FSH_AZIM_OVERALL.DEG                                                                :16 Overall estimate of fast shear azimuth                                                    
 FSH_AZIM_ERR.DEG                                                                    :17 Fast shear azimuth error                                                                  
 DTSM_SLOW.US/F                                                                      :18 Shear Slowness of Slow Shear Waves                                                        
 DTSM_FAST.US/F                                                                      :19 Shear Slowness of Fast Shear Waves                                                        
 DTCO.US/F                                                                           :20 Delta-T Compressional                                                                     
 SLOANI.                                                                             :21 Slowness based anisotropy                                                                 
 TIMANI.                                                                             :22 Time based anisotropy                                                                     
 TWE.US                                                                              :23 Time window end                                                                           
 TWB.US                                                                              :24 Time window begin                                                                         
~Ascii   DEPT            GR          RHOZ            BS          P1AZ         SDEVM         HAZIM            RB          DEVI      HD1_PPC1      HD2_PPC1          TENS          HDAR  MINXENE_OVER  MAXXENE_OVER  FSH_AZIM_OVE  FSH_AZIM_OVE  FSH_AZIM_ERR     DTSM_SLOW     DTSM_FAST          DTCO        SLOANI        TIMANI           TWE           TWB
# ...
    5571.50000     140.93343       2.59461      17.50000      86.65163       0.42211     295.62717     151.02510       0.39747       8.68976       8.60910    2700.00024       8.64943       1.35515       4.80231    -999.25000      68.81171       8.76986     111.15884     110.17903      66.52572       0.88535       1.09878    4385.56982    1985.57007
    5571.00000     134.18758       2.60326      17.50000      86.61858       0.42266     296.03439     150.58484       0.39807       8.67782       8.59265    2655.80005       8.63523       1.35181       5.00480    -999.25000      69.19024       8.49690     112.69336     111.43936      66.43128       1.11898       1.21444    4381.79443    1981.79443
    5570.50000     109.12118       2.60514      17.50000      87.36209       0.42287     296.45044     150.91231       0.39897       8.65546       8.62192    2707.50000       8.63869       1.33755       5.27922    -999.25000      69.73129       8.03518     113.07690     111.71838      65.88712       1.20867       1.35066    4377.47461    1977.47485
    5570.00000      87.23167       2.60266      17.50000      87.37755       0.42268     296.87183     150.50641       0.39898       8.52956       8.55458    2705.00000       8.54207       1.29125       5.55876    -999.25000      69.66939       7.55699     112.46368     110.97309      65.28777       1.33423       1.42064    4373.44775    1973.44788
    5569.50000      58.91582       2.62184      17.50000      88.60069       0.42205     297.28632     151.31503       0.39843       8.52956       8.49077    2596.00024       8.51017       1.24481       5.84965    -999.25000      69.24942       7.32384     110.86269     109.26434      64.93040       1.45221       1.48601    4370.36670    1970.36670
    5569.00000      40.88469       2.60416      17.50000      89.13837       0.42095     297.66418     151.47484       0.39727       8.51934       8.52020    2633.00000       8.51977       1.21986       6.20751    -999.25000      68.89571       7.00936     108.94702     107.13571      64.29391       1.67650       1.55135    4368.50000    1968.50024
    5568.50000      32.35710       2.56485      17.50000      89.36234       0.41938     297.99332     151.36967       0.39439       8.50676       8.50362    2717.50024       8.50519       1.23238       6.58893    -999.25000      68.85325       6.70294     107.36866     105.09433      63.50256       2.14092       1.61231    4366.50488    1966.50500
    5568.00000      27.15014       2.51603      17.50000      89.65345       0.41734     298.25211     151.40198       0.39218       8.51838       8.47813    2716.75024       8.49826       1.26972       6.99700      68.78548      68.78548       6.57467     106.46447     103.59151      62.94554       2.73543       1.67408    4363.32813    1963.32788
    5567.50000      26.98727       2.50047      17.50000      89.59340       0.41488     298.41644     151.17760       0.38920       8.53052       8.46947    2633.25000       8.50000       1.32949       7.45444      68.10599      68.10599       6.50802     106.02988     102.78892      62.25780       3.10409       1.73653    4358.40234    1958.40259
    5567.00000      32.48461       2.50263      17.50000      89.33645       0.41205     298.48444     150.85266       0.38551       8.54118       8.45263    2719.50024       8.49690       1.40888       7.86013      67.40443      67.40443       6.55158     105.66135     102.30357      61.82684       3.22918       1.78984    4352.13379    1952.13391
    5566.50000      48.23410       2.51154      17.50000      89.40683       0.40894     298.44760     150.95984       0.38177       8.54075       8.43976    2697.00000       8.49025       1.43456       8.17790      67.07596      67.07596       6.52315     105.24852     101.87305      62.35500       3.25941       1.83875    4345.35352    1945.35376
    5566.00000      58.26593       2.51997      17.50000      89.60610       0.40566     298.29919     151.30751       0.37771       8.55236       8.46549    2674.25024       8.50893       1.41210       8.51663      66.74280      66.74280       6.41278     105.19794     101.59040      63.32051       3.48912       1.89170    4338.14844    1938.14844
    5565.50000      60.79730       2.52199      17.50000      89.80843       0.40234     298.05399     151.75504       0.37317       8.54118       8.46549    2693.25000       8.50333       1.36202       8.88969      66.19826      66.19826       6.18195     105.41641     101.46469      64.02963       3.82028       1.94259    4330.87549    1930.87561
    5565.00000      50.40501       2.52072      17.50000      89.42766       0.39910     297.72885     151.69939       0.36966       8.51934       8.44398    2706.00000       8.48166       1.29180       9.18189      65.52924      65.52924       5.80436     105.23952     101.18268      64.41783       3.93063       1.97230    4325.52539    1925.52563
    5564.50000      41.03072       2.52698      17.50000      86.48769       0.39607     297.35202     149.13629       0.36653       8.53000       8.42711    2713.50024       8.47855       1.25666       9.30764      64.95450      64.95450       5.57369     104.21117     100.36222      63.65082       3.76290       1.97005    4323.25391    1923.25378
    5564.00000      32.40401       2.53433      17.50000      85.06277       0.39338     296.94638     148.11700       0.36352       8.53095       8.43113    2710.00000       8.48104       1.26122       9.27734      64.73753      64.73753       5.61300     102.80649      99.14439      61.78778       3.62672       1.94749    4322.76953    1922.76941
    5563.50000      29.68955       2.54092      17.50000      85.09757       0.39113     296.53760     148.56058       0.36112       8.51934       8.49495    2651.75024       8.50715       1.24535       9.16199      64.52919      64.52919       5.56975     101.65234      98.02583      60.71148       3.63236       1.91740    4323.01465    1923.01465
    5563.00000      28.91791       2.54190      17.50000      85.86001       0.38943     296.15399     149.70660       0.35909       8.50676       8.46549    2700.25000       8.48612       1.18272       8.96682      64.12108      64.12108       5.39584     100.83861      97.19466      60.36057       3.68014       1.87783    4323.44922    1923.44922
    5562.50000      32.03009       2.55392      17.50000      86.55611       0.38840     295.82306     150.73361       0.35754       8.51891       8.44398    2730.00000       8.48145       1.15789       8.70502      63.83018      63.83018       5.36882     100.21773      96.51497      59.81381       3.76425       1.83424    4324.03613    1924.03638
    5562.00000      33.16417       2.56693      17.50000      86.89769       0.38813     295.55249     151.34575       0.35711       8.51838       8.45284    2723.75000       8.48561       1.14777       8.36774      63.70690      63.70690       5.42573      99.78699      95.99170      59.61944       3.87712       1.78731    4324.99609    1924.99646
    5561.50000      33.93638       2.57975      17.50000      87.61809       0.38873     295.36487     152.25375       0.35741       8.50676       8.43997    2681.50000       8.47337       1.08106       7.93803      63.47905      63.47905       5.47253      99.48067      95.59331      60.01292       3.98552       1.73277    4326.85791    1926.85803
    5561.00000      38.33335       2.57143      17.50000      88.19918       0.39026     295.26303     152.93668       0.35855       8.50676       8.43997    2662.00000       8.47337       1.02717       7.58158      63.29903      63.29903       5.50047      99.13798      95.09428      60.71995       4.16377       1.69337    4330.03125    1930.03137
    5560.50000      39.44405       2.55651      17.50000      88.22404       0.39278     295.24478     152.97980       0.36031       8.50676       8.50384    2706.50000       8.50530       1.01134       7.31272      63.28379      63.28379       5.52378      98.82774      94.62636      61.43208       4.34355       1.66467    4334.70605    1934.70605
