~VERSION
 VERS.        2.00                                                                   :CWLS LOG ASCII STANDARD
 WRAP.        NO                                                                     :NO WRAP PERFORMED
 PROD.        Schlumberger                                                           :LAS Producer
 CREA.        Fri Nov 16 12:50:33 2012                                               :LAS Creation Date and time
~Well
#MNEM.UNIT    VALUE                                                                   :DESCRIPTION
#----.----    ---------------                                                        :-------------------
 STRT.F       5331.500                                                               :START DEPTH
 STOP.F       350.000                                                                :STOP  DEPTH
 STEP.F       -0.500                                                                 :DEPTH STEP
 NULL.        -999.250                                                               :NULL VALUE
 COMP.        ADM                                                                    :COMPANY NAME
 WELL.        Verification Well #2                                                   :WELL NAME
 FLD.         Wildcat                                                                :FIELD NAME
 API.         12115235520000                                                         :API NUMBER
 CNTY.        Macon                                                                  :COUNTY
 STAT.        Illinois                                                               :STATE
 CTRY.        US                                                                     :COUNTRY
 LOC.         Long:-88.8924449, Lat: 39.8922313                                      :WELL SURFACE LOCATION LINE 1
 LOC2.        248' South and 233' East from the NW corner of the                     :WELL SURFACE LOCATION LINE 2
 LOC3.        NW/4, of the NE/4, of the NW/4, of Section 32                          :WELL SURFACE LOCATION LINE 3
 SECT.        32                                                                     :SECTION
 TOWN.        17 North                                                               :TOWNSHIP
 RANG.        3 East                                                                 :RANGE
 LATI.        39.892232 degrees                                                      :Latitude
 LONG.        -88.892445 degrees                                                     :Longitude
 DATE.        2012/10/08                                                             :LOGGING DATE
 SRVC.        Schlumberger                                                           :SERVICE COMPANY
~Parameter
#MNEM.UNIT    VALUE                                                                  :DESCRIPTION
#----.----    ---------------                                                        :-------------------
 APD.F        17.000                                                                 :Elevation of depth reference above permanent datum
 EDF.F        703.500                                                                :Elevation of Derrick Floor
 EGL.F        686.500                                                                :Elevation of Ground Level
 EKB.F        703.500                                                                :Elevation of Kelly Bushing
 EPD.F        686.500                                                                :Elevation of Permnaent Datum
 LMF.         KB                                                                     :Logging Measured From
 PDAT.        Ground level                                                           :Permanent Datum
 TDD.F        5316.000                                                               :Total Depth Driller
 TDL.F        5316.000                                                               :Total Depth Logger
 BS.IN        12.250                                                                 :Bit Size
 R1.                                                                                 :REMARK 1
 R2.                                                                                 :REMARK 2
 R3.                                                                                 :REMARK 3
 R4.                                                                                 :REMARK 4
 R5.                                                                                 :REMARK 5
 R6.                                                                                 :REMARK 6
 R7.                                                                                 :REMARK 7
 R8.                                                                                 :REMARK 8
 R9.                                                                                 :REMARK 9
 R10.                                                                                :REMARK 10
 DCS_CENTER.  Denver DCS                                                             :Schlumberger DCS Center
 LOG_ANALYST. Roberts                                                                :Log Analyst Name
 ENG.         Kevin Ryan                                                             :Field Engineer Name
 GF_BASELINE. GF45                                                                   :GeoFrame Baseline
~Curve
#MNEM.UNIT                                                                           :DESCRIPTION
#----.----                                                                           :--------------------------------
 DEPT.F                                                                              :Depth Index
 GR.GAPI                                                                             : 1 Gamma Ray                                                                                 
 RHOZ.G/C3                                                                           : 2 HRDD Standard Resolution Formation Density                                                
 BS.IN                                                                               : 3 Bit Size                                                                                  
 P1AZ.DEG                                                                            : 4 Pad 1 Azimuth in Horizontal Plane (0 = True North)                                        
 SDEVM.DEG                                                                           : 5 Memorized Sonde Deviation                                                                 
 HAZIM.DEG                                                                           : 6 Memorized Hole Azimuth Relative to True North                                             
 RB.DEG                                                                              : 7 Relative Bearing                                                                          
 DEVI.DEG                                                                            : 8 Hole Deviation                                                                            
 HD1_PPC1.IN                                                                         : 9 PPC1 Hole Diameter 1                                                                      
 HD2_PPC1.IN                                                                         :10 PPC1 Hole Diameter 2                                                                      
 TENS.LBS                                                                            :11 Cable Tension                                                                             
 HDAR.IN                                                                             :12 Hole Diameter from Area                                                                   
 MINXENE_OVERALL.                                                                    :13 Overall estimate of minimum cross energy                                                  
 MAXXENE_OVERALL.                                                                    :14 Overall estimate of maximum cross energy                                                  
 FSH_AZIM_OVERALL_FILT.DEG                                                           :15 Overall estimate of fast shear azimuth filtered                                           
 FSH_AZIM_OVERALL.DEG                                                                :16 Overall estimate of fast shear azimuth                                                    
 FSH_AZIM_ERR.DEG                                                                    :17 Fast shear azimuth error                                                                  
 DTSM_SLOW.US/F                                                                      :18 Shear Slowness of Slow Shear Waves                                                        
 DTSM_FAST.US/F                                                                      :19 Shear Slowness of Fast Shear Waves                                                        
 DTCO.US/F                                                                           :20 Delta-T Compressional                                                                     
 SLOANI.                                                                             :21 Slowness based anisotropy                                                                 
 TIMANI.                                                                             :22 Time based anisotropy                                                                     
 TWE.US                                                                              :23 Time window end                                                                           
 TWB.US                                                                              :24 Time window begin                                                                         
 FLAG.                                                                               :25 Shear Flag                                                                    
 FLAG.                                                                               :26 Bad Hole Flag                                                                    
~Ascii   DEPT            GR          RHOZ            BS          P1AZ         SDEVM         HAZIM            RB          DEVI      HD1_PPC1      HD2_PPC1          TENS          HDAR  MINXENE_OVER  MAXXENE_OVER  FSH_AZIM_OVE  FSH_AZIM_OVE  FSH_AZIM_ERR     DTSM_SLOW     DTSM_FAST          DTCO        SLOANI        TIMANI           TWE           TWB          FLAG          FLAG
# ...
    4000.50000      17.28659       2.78868      12.25000     199.14032       1.62679     219.22263     339.92514       1.64576      12.63295      12.61164    2166.13867      12.62229       0.85870       1.72462    -999.25000      25.77481      16.37784      90.75033      89.60673      49.22393       1.26815       0.44865    4885.94531    1885.94531    -999.25000    -999.25000
    4000.00000      18.40962       2.81885      12.25000     200.17899       1.63718     219.21034     340.97586       1.65756      12.67618      12.58931    2120.81421      12.63275       0.97056       1.80444    -999.25000      22.50687      16.69752      90.00773      89.32681      49.00612       0.75939       0.52150    4888.82715    1888.82739    -999.25000    -999.25000
    3999.50000      19.62020       2.81524      12.25000     201.03993       1.64837     219.20979     341.83716       1.66823      12.67371      12.60650    2100.08179      12.64010       1.11443       1.93587    -999.25000      20.01874      16.98565      89.61184      89.30272      49.07929       0.34555       0.61053    4890.37695    1890.37659    -999.25000    -999.25000
    3999.00000      20.78111       2.78411      12.25000     203.15941       1.66043     219.20865     343.95715       1.68216      12.62630      12.51953    2080.26636      12.57292       1.28010       2.08370    -999.25000      18.00433      16.76607      89.65175      89.55210      49.26078       0.11121       0.69898    4889.23828    1889.23828    -999.25000    -999.25000
    3998.50000      20.45822       2.76417      12.25000     205.76761       1.67334     219.21443     346.55872       1.69944      12.52997      12.56980    2185.20874      12.54989       1.45566       2.19963    -999.25000      15.69837      16.10159      90.14214      90.14526      49.41599      -0.00345       0.77894    4886.37842    1886.37842    -999.25000    -999.25000
    3998.00000      19.84988       2.76026      12.25000     205.71190       1.68703     219.22217     346.49536       1.71193      12.54056      12.59714    2123.14795      12.56885       1.63032       2.31428    -999.25000      12.67417      15.23984      90.87238      90.78168      49.59186       0.09986       0.87752    4883.32910    1883.32922    -999.25000    -999.25000
    3997.50000      19.25089       2.75469      12.25000     206.37350       1.70140     219.22112     347.15787       1.72962      12.23945      12.16856    2127.90381      12.20400       1.78355       2.51600    -999.25000       8.44566      13.82680      91.53870      91.11074      49.92142       0.46862       0.97733    4880.47949    1880.47986    -999.25000    -999.25000
    3997.00000      18.58940       2.72213      12.25000     207.89951       1.71634     219.21446     348.68997       1.74372      12.22727      11.95952    2132.34692      12.09339       1.87941       2.82204    -999.25000       3.95526      12.43681      92.15245      91.92805      50.42843       0.24380       1.01872    4880.28027    1880.28052    -999.25000    -999.25000
    3996.50000      20.10602       2.69300      12.25000     206.94865       1.73176     219.19827     347.75583       1.75963      12.20274      12.00802    2089.13062      12.10538       1.93182       3.27856    -999.25000       1.68214      11.37445      92.21294      92.87231      50.77973      -0.71251       1.01525    4883.07324    1883.07312    -999.25000    -999.25000
    3996.00000      18.58221       2.68149      12.25000     205.41199       1.74761     219.16533     346.25281       1.77738      12.67891      12.54691    2134.81372      12.61291       1.93361       3.74895    -999.25000       1.22751      10.36685      92.14925      92.93653      50.71676      -0.85072       1.20340    4886.68750    1886.68726    -999.25000    -999.25000
    3995.50000      18.34852       2.68830      12.25000     205.08760       1.76383     219.13202     345.96198       1.78993      12.71806      12.58701    2084.24414      12.65254       1.85688       3.96468    -999.25000       0.94789       9.20357      92.03351      92.14577      50.26470      -0.12191       1.38996    4892.18555    1892.18555    -999.25000    -999.25000
    3995.00000      16.31250       2.70911      12.25000     205.18060       1.78037     219.08781     346.09924       1.80747      12.72460      12.60227    2162.89380      12.66343       1.74334       4.01988    -999.25000       1.05642       8.40743      91.86530      91.42551      49.93784       0.47987       1.37375    4901.78955    1901.78931    -999.25000    -999.25000
    3994.50000      16.25375       2.71917      12.25000     203.76154       1.79712     219.03571     344.73300       1.82585      12.69395      12.74059    2155.21387      12.71727       1.61356       4.02326    -999.25000       1.44865       7.84045      92.22359      91.94395      50.00153       0.30368       1.35530    4911.53955    1911.53955    -999.25000    -999.25000
    3994.00000      17.40105       2.73202      12.25000     202.88831       1.81393     218.99065     343.90530       1.84059      12.65854      12.57662    2112.00000      12.61758       1.50369       4.01000    -999.25000       2.48641       7.18130      92.91703      92.23884      50.52708       0.73256       1.34646    4916.69287    1916.69299    -999.25000    -999.25000
    3993.50000      18.22737       2.74367      12.25000     200.91158       1.83058     218.95909     341.96112       1.86097      12.56422      12.15956    2198.67090      12.36189       1.39998       4.02323    -999.25000       3.96284       7.07344      94.40415      93.84541      51.37608       0.59361       1.32905    4921.63184    1921.63184    -999.25000    -999.25000
    3993.00000      17.47323       2.73443      12.25000     197.85674       1.84677     218.93900     338.92773       1.87634      12.56706      12.25202    2102.57715      12.40954       1.27528       4.05192    -999.25000       4.79035       7.11908      96.12434      96.37001      52.54244      -0.25525       1.30117    4923.31250    1923.31274    -999.25000    -999.25000
    3992.50000      15.95964       2.70876      12.25000     197.57057       1.86221     218.94809     338.63275       1.89528      12.67843      12.56223    2096.41895      12.62033       1.17208       4.03385    -999.25000       5.04628       7.15352      98.23383      99.19228      54.05156      -0.97095       1.25827    4922.03809    1922.03845    -999.25000       1.00000
    3992.00000      16.47635       2.68895      12.25000     198.65497       1.87660     218.98340     339.68158       1.91344      12.54367      12.43067    2145.86890      12.48717       1.09222       3.97114    -999.25000       5.11425       7.42462     100.02892     100.79780      55.69517      -0.76572       1.20894    4925.48828    1925.48792    -999.25000    -999.25000
    3991.50000      17.65649       2.67528      12.25000     200.81053       1.88974     219.05913     341.76068       1.92381      12.17943      12.27918    2088.36011      12.22930       1.02137       3.79586    -999.25000       4.84457       7.70233     101.08208     102.12065      56.89718      -1.02220       1.18497    4932.81641    1932.81604    -999.25000    -999.25000
    3991.00000      18.60750       2.64967      12.25000     200.74791       1.90151     219.17004     341.58731       1.93576      12.36438      12.84564    2108.65479      12.60501       0.98365       3.58307    -999.25000       4.23387       8.02913     100.78906     102.03202      56.85477      -1.22567       1.17583    4937.31152    1937.31177    -999.25000       1.00000
    3990.50000      18.90488       2.62985      12.25000     200.29631       1.91192     219.31050     340.99564       1.94344      12.63998      13.05984    2234.05908      12.84991       0.97889       3.51205    -999.25000       3.61664       8.38705      99.20973     100.89973      55.38305      -1.68908       1.16988    4938.67236    1938.67236    -999.25000    -999.25000
    3990.00000      20.37971       2.64916      12.25000     199.23322       1.92114     219.48721     339.75647       1.94905      12.51300      13.03116    2129.24634      12.77208       1.00027       3.48269    -999.25000       2.71270       8.87073      97.83635      99.52896      53.54738      -1.71521       1.15962    4941.79785    1941.79810    -999.25000    -999.25000
