~VERSION INFORMATION
VERS.           1.2   :CWLS Log ASCII Standard - VERSION 1.2
WRAP.           NO    :One Line per depth step
PROD.  Schlumberger   :LAS Producer
PROG.  DLIS to ASCII 2.3                               :LAS Program name and version
CREA.        2015/01/14 20:42                          :LAS Creation date {YYYY/MM/DD hh:mm}
DLIS_CREA.  2015-Jan-14 13:26                          :DLIS Creation date and time {YYYY-MMM-DD hh:mm}
SOURCE.     b1232dd5-b707-4891-82b9-d24dcc6cb5d4       :DLIS File Name
#--------------------------------------------------
~WELL INFORMATION
#MNEM.UNIT      DATA             DESCRIPTION
#---- ------ --------------   -----------------------------
STRT .F      -8.0000         :START DEPTH     
STOP .F      352.5000        :STOP DEPTH     
STEP .F       0.5000         :STEP       
NULL .          -999.25      :NULL VALUE
COMP .                 COMPANY:  ADM Company                        
WELL .                    WELL:  CCS#2                              
FLD  .                   FIELD:  Wildcat                            
LOC  .                LOCATION:  Latitude: 39.885961                
CNTY .                  COUNTY:  Macon                              
STAT .                   STATE:  Illinois                           
CTRY .                 COUNTRY:  USA                                
SRVC .         SERVICE COMPANY:  Schlumberger                       
LATI .DEG             LATITUDE:  39° 53' 9.46" N                    
LONG .DEG            LONGITUDE:  88° 53' 16.959" W                  
API  .              API NUMBER:  12-115-23713-00                    
DATE .                LOG DATE:  13-Jan-2015
UWI  .          UNIQUE WELL ID:                                     
#-----------------------------------------------------------------------------
~PARAMETER INFORMATION
#MNEM.UNIT    VALUE                      DESCRIPTION
#---- -----   --------------------       ------------------------
CN   .        ADM Company                :Company Name
WN   .        CCS#2                      :Well Name
FN   .        Wildcat                    :Field Name
FL   .        Latitude  39.885961        :Field Location
FL1  .        Longitude  -88.888044      :Field Location, Line 1
COUN .        Macon                      :County or Parish
STAT .        Illinois                   :State or Province
NATI .        USA                        :Nation
DATE .        13-Jan-2015                :Tools Above Rotary Table Date
APIN .        12-115-23713-00            :API Well Number
SECT .        32                         :Section
TOWN .        17N                        :Township
RANG .        3E                         :Range
DMF  .        KB                         :Drilling Measured From (Name of Drilling Elevation Reference)
LMF  .        KB                         :Logging Measured From (Name of Logging Elevation Reference)
PDAT .        GL                         :Permanent Datum
ENGI .        Devin Arnold               :Engineer s Name
WITN .        Nick Malkewicz             :Witness s Name
LATI .        39° 53' 9.46  N            :Latitude
LONG .        88° 53' 16.959  W          :Longitude
LUL  .        Bradford                   :Logging Unit Location
LUN  .        3095                       :Logging Unit Number
RUN  .        2                          :Run Number
SON  .        D71E-00006                 :Service Order Number
BHT  .DEGF      58.00000                 :Bottom Hole Temperature
BS   .IN        26.00000                 :Bit Size
MDEN .G/C3       2.71000                 :Matrix Density for Density Porosity
DFD  .LB/G      10.10000                 :Drilling Fluid Density
DFV  .S       -999.25000                 :Drilling Fluid Viscosity
DFL  .C3      -999.25000                 :Drilling Fluid Loss
RMFS .OHMM       1.23200                 :Resistivity of Mud Filtrate Sample
EKB  .F        691.19995                 :Elevation of Kelly Bushing
EGL  .F        675.69995                 :Elevation of Ground Level
BLI  .F        345.00000                 :Bottom Log Interval
BSAL .PPM        0.00000                 :Borehole Salinity
FLEV .F          8.00000                 :Depth of Drilling Fluid Level to LMF (Log Measured From)
MCST .DEGF      42.80000                 :Mudcake Sample Temperature
MFST .DEGF      42.80000                 :Mud Filtrate Sample Temperature
MRT  .DEGF      58.00000                 :Maximum Recorded Temperature
MST  .DEGF      42.80000                 :Mud Sample Temperature
RMCS .OHMM       1.84800                 :Resistivity of Mud Cake Sample
RMS  .OHMM       1.54000                 :Resistivity of Mud Sample
RW   .OHMM       1.00000                 :Connate Water Resistivity
TDD  .F        349.00000                 :Driller Total Depth
TDL  .F        349.00000                 :Logger Total Depth
TLI  .F         50.00000                 :Top Log Interval
HIDE .        Wildcat                    :Header Identifier
MATR .        LIME                       :Rock Matrix for Neutron Porosity Corrections
FNUM .           1.00000                 :F-Numerator for Formation Factor Formula
FEXP .           2.00000                 :Exponent "m" for Formation Factor Formula
DFT  .        Fresh Mud                  :Drilling Fluid Type
DFPH .        -999.25000                 :Drilling Fluid pH
MCSS .        Calculated                 :Mudcake Sample Source
MFSS .        Calculated                 :Mud Filtrate Sample Source
FD   .G/C3       1.00000                 :Fluid Density
MSS  .        Active Tank                :Mud Sample Source
OS1  .                                   :Other Services Line 1
OS2  .                                   :Other Services Line 2
OS3  .                                   :Other Services Line 3
OS4  .                                   :Other Services Line 4
OS5  .                                   :Other Services Line 5
R1   .        Matrix Density  Limestone. :Remarks Line 1
R2   .        Mud Sample taken on location. :Remarks Line 2
R3   .        Presentations as per client request. :Remarks Line 3
R4   .        No Chemical Sources ran due to possible potable water zones. :Remarks Line 4
R5   .        Bottom Hole Temperature taken from GM2 temperature log provided by the client. 58degF :Remarks Line 5
R6   .                                   :Remarks Line 6
R7   .                                   :Remarks Line 7
R8   .                                   :Remarks Line 8
TCS  .        19 45 00                   :Time Circulation Stopped
TLAB .        03 30 00                   :Time Logger At Bottom
EPD  .C3         675.699951              :Elevation of Permanent Datum above Mean Sea Level
APD  .F          15.500000               :Elevation of Depth Reference (LMF) above Permanent Datum
#-----------------------------------------------------------------------------
~CURVE INFORMATION
#MNEM.UNIT   API CODE                                  DESCRIPTION
#---- -----  --------                                  -----------------------
DEPT .F                                                :DEPTH (BOREHOLE) {F12.4}
CDF  .LBF                                              :Calibrated Downhole Force {F11.4}
CTEM .DEGF                                             :Cartridge Temperature {F11.4}
DCAL .IN                                               :Differential Caliper {F11.4}
DT   .US/F                                             :Delta-T (also called Slowness or Interval Transit Time) {F11.4}
ED   .F                                                :East Departure {F11.4}
GR_EDTC.GAPI                                           :Gamma Ray {F11.4}
GTEM .DEGF                                             :Generalized Borehole Temperature {F11.4}
HAZI .DEG                                              :Hole Azimuth Relative to True North {F11.4}
HAZIM.DEG                                              :Memorized Hole Azimuth {F11.4}
ITT  .S                                                :Integrated Transit Time {F11.4}
ND   .F                                                :North Departure {F11.4}
P1AZ .DEG                                              :Pad 1 Azimuth in Horizontal Plane (0 = True North) {F11.4}
RB   .DEG                                              :Relative Bearing {F11.4}
SDEV .DEG                                              :Sonde Deviation {F11.4}
SDEVM.DEG                                              :Memorized Sonde Deviation {F11.4}
SPHI .CFCF                                             :Sonic Porosity {F11.4}
STIT .F                                                :Stuck Tool Indicator, Total {F11.4}
TENS .LBF                                              :Cable Tension {F11.4}
#-----------------------------------------------------------------------------
# 
#      DEPT        CDF        CTEM       DCAL        DT         ED      GR_EDTC      GTEM       HAZI      HAZIM       ITT         ND        P1AZ        RB        SDEV      SDEVM       SPHI       STIT       TENS
#
~A  
# ...
    106.0000   650.6666    76.6118    -5.4048  -253.2819     0.4585    47.1762    55.5701   335.7346   285.6883     0.0000     0.0704   286.8876   311.1788     2.4374     2.4445  -999.2500     0.0000   654.2144
    106.5000   650.6666    76.6118    -5.3762  -253.1644     0.4573    47.9728    55.5751   335.0645   284.6850     0.0000     0.0745   286.3611   311.3223     2.4382     2.4442  -999.2500     0.0000   677.0000
    107.0000   653.5986    76.6118    -5.4047  -253.1572     0.4561    45.1623    55.5801   334.3550   283.6827     0.0000     0.0785   285.7489   311.4197     2.4384     2.4441  -999.2500     0.0000   736.9286
    107.5000   651.3522    76.6118    -5.4317  -253.1592     0.4548    40.4754    55.5851   333.8107   282.9377     0.0000     0.0827   285.0898   311.3049     2.4388     2.4440  -999.2500     0.0000   689.6000
    108.0000   652.0632    76.6118    -5.4047  -253.0597     0.4534    38.0287    55.5901   333.0678   281.9485     0.0000     0.0869   284.1668   311.1248     2.4389     2.4441  -999.2500     0.0000   681.9286
    108.5000   649.4037    76.6118    -5.3762  -253.1765     0.4520    38.3661    55.5951   332.3252   280.9673     0.0000     0.0908   283.3545   311.0550     2.4390     2.4442  -999.2500     0.0000   682.9286
    109.0000   652.4442    76.6118    -5.3762  -253.2142     0.4506    40.3494    55.6001   331.7756   280.2319     0.0000     0.0947   282.7533   311.0033     2.4388     2.4441  -999.2500     0.0000   743.5714
    109.5000   654.2859    76.6118    -5.3762  -253.0675     0.4491    41.9224    55.6051   331.0597   279.2531     0.0000     0.0986   281.9787   310.9447     2.4386     2.4442  -999.2500     0.0000   751.8572
    110.0000   650.3111    76.6118    -5.4047  -253.0894     0.4476    42.6942    55.6101   330.3690   278.2709     0.0000     0.1024   281.4641   311.1208     2.4383     2.4443  -999.2500     0.0000   658.4286
    110.5000   651.7839    76.6118    -5.4033  -253.0778     0.4460    43.2051    55.6151   329.8681   277.5302     0.0000     0.1062   281.1303   311.2879     2.4380     2.4443  -999.2500     0.0000   657.5000
    111.0000   649.9962    76.6118    -5.4317  -253.1073     0.4444    43.5356    55.6201   329.2171   276.5374     0.0000     0.1100   280.5905   311.3990     2.4375     2.4443  -999.2500     0.0000   672.5000
    111.5000   651.7585    76.6118    -5.4047  -253.0397     0.4426    44.2025    55.6251   328.5788   275.5433     0.0000     0.1138   279.9520   311.3990     2.4369     2.4443  -999.2500     0.0000   751.4667
    112.0000   651.9633    75.9529    -5.3779  -253.0282     0.4408    41.3749    55.6301   328.1050   274.7962     0.0000     0.1176   279.5600   311.4805     2.4366     2.4440  -999.2500     0.0000   650.3571
    112.5000   651.3522    75.9059    -5.4031  -252.9815     0.4390    38.9311    55.6351   327.4739   273.8077     0.0000     0.1212   279.0249   311.5765     2.4361     2.4438  -999.2500     0.0000   687.4286
    113.0000   650.0317    75.6894    -5.4031  -253.0175     0.4372    37.6718    55.6401   326.8385   272.8277     0.0000     0.1248   278.3385   311.5255     2.4357     2.4436  -999.2500     0.0000   662.5000
    113.5000   653.5986    75.7647    -5.4317  -253.0294     0.4353    37.0263    55.6451   326.3578   271.8504     0.0000     0.1284   277.8909   311.5591     2.4354     2.4430  -999.2500     0.0000   699.7857
    114.0000   650.9459    75.5576    -5.4317  -253.0095     0.4333    35.7196    55.6501   325.7168   271.1242     0.0000     0.1319   277.3358   311.6447     2.4355     2.4426  -999.2500     0.0000   684.2143
    114.5000   651.6315    75.6235    -5.4317  -252.9577     0.4313    34.8220    55.6551   325.0735   270.1655     0.0000     0.1355   276.6692   311.6213     2.4356     2.4422  -999.2500     0.0000   680.2000
    115.0000   652.0124    75.6894    -5.4317  -253.0432     0.4292    36.7449    55.6601   324.5919   269.2173     0.0000     0.1390   276.0094   311.4432     2.4360     2.4421  -999.2500     0.0000   696.0000
    115.5000   652.3425    75.6235    -5.4048  -253.0809     0.4271    37.3848    55.6651   323.9563   268.5137     0.0000     0.1424   275.2773   311.3468     2.4365     2.4421  -999.2500     0.0000   726.5000
    116.0000   651.7331    75.3412    -5.4047  -253.0263     0.4250    37.4073    55.6701   323.3144   267.5984     0.0000     0.1457   274.6886   311.3999     2.4373     2.4426  -999.2500     0.0000   735.8571
    116.5000   652.3425    75.2941    -5.4031  -252.9995     0.4228    38.9079    55.6751   322.6462   266.7093     0.0000     0.1490   274.0738   311.4535     2.4377     2.4434  -999.2500     0.0000   660.0001
    117.0000   652.0886    74.7765    -5.4316  -252.9406     0.4205    39.1867    55.6801   322.1175   266.0504     0.0000     0.1523   273.8340   311.7422     2.4380     2.4439  -999.2500     0.0000   691.0000
    117.5000   652.3425    74.6353    -5.4031  -253.0686     0.4181    38.4892    55.6851   321.3581   265.2339     0.0000     0.1557   273.2685   311.9362     2.4380     2.4450  -999.2500     0.0000   696.0667
    118.0000   653.4344    74.7671    -5.4031  -253.0686     0.4157    36.7368    55.6901   320.5201   264.4597     0.0000     0.1590   272.4737   311.9792     2.4377     2.4460  -999.2500     0.0000   727.7858
    118.5000   650.3517    74.6353    -5.4031  -253.0186     0.4133    38.6137    55.6951   319.8236   263.9262     0.0000     0.1621   271.7646   311.9669     2.4373     2.4470  -999.2500     0.0000   673.2143
    119.0000   652.6980    74.6353    -5.3762  -252.9652     0.4109    40.2647    55.7001   318.8104   263.2690     0.0000     0.1652   270.6669   311.8822     2.4367     2.4486  -999.2500     0.0000   695.7857
    119.5000   650.7072    74.6353    -5.4047  -252.9406     0.4084    42.1999    55.7051   317.6960   262.6794     0.0000     0.1682   269.5095   311.8392     2.4364     2.4502  -999.2500     0.0000   652.6429
    120.0000   655.2119    74.6353    -5.4316  -252.8859     0.4058    43.5934    55.7101   316.7980   262.1496     0.0000     0.1714   268.5751   311.8027     2.4359     2.4519  -999.2500     0.0000   700.7334
    120.5000   652.0107    74.6353    -5.4888  -252.9732     0.4031    43.1795    55.7151   315.5536   261.7760     0.0000     0.1744   267.0628   311.5348     2.4358     2.4535  -999.2500     0.0000   680.2143
    121.0000   654.4755    74.6353    -5.5174  -252.9984     0.4004    42.6827    55.7201   314.2679   261.2982     0.0000     0.1774   265.5467   311.3045     2.4356     2.4547  -999.2500     0.0000   667.2858
    121.5000   653.1043    74.6353    -5.5173  -252.9429     0.3977    41.6791    55.7251   313.3081   260.8206     0.0000     0.1803   264.4450   311.1624     2.4358     2.4565  -999.2500     0.0000   725.4286
    122.0000   653.0062    74.6353    -5.4887  -253.1301     0.3950    45.0007    55.7301   312.0455   260.4738     0.0000     0.1832   262.9195   310.8992     2.4360     2.4572  -999.2500     0.0000   689.6429
    122.5000   652.1394    74.6353    -5.4888  -253.5295     0.3921    47.3274    55.7351   310.8405   259.9878     0.0000     0.1861   261.6361   310.8212     2.4364     2.4588  -999.2500     0.0000   702.0667
    123.0000   652.6980    74.6353    -5.4887  -253.6320     0.3891    50.0315    55.7401   309.7145   259.4988     0.0000     0.1890   260.3856   310.6964     2.4373     2.4598  -999.2500     0.0000   664.2857
    123.5000   652.2951    74.6353    -5.4602  -253.1360     0.3862    48.1779    55.7451   308.9219   259.1206     0.0000     0.1917   259.7110   310.8147     2.4377     2.4605  -999.2500     0.0000   669.5714
    124.0000   649.6001    74.6353    -5.4602  -252.8812     0.3833    44.9810    55.7501   307.9557   258.6007     0.0000     0.1944   258.7641   310.8339     2.4386     2.4614  -999.2500     0.0000   646.7143
    124.5000   650.9916    74.6353    -5.4887   -56.4761     0.3803    40.6276    55.7551   307.0704   258.0757     0.0000     0.1971   258.0723   311.0275     2.4395     2.4620  -999.2500     0.0000   721.5001
