~VERSION INFORMATION
VERS.           1.2   :CWLS Log ASCII Standard - VERSION 1.2
WRAP.           NO    :One Line per depth step
PROD.  Schlumberger   :LAS Producer
PROG.  DLIS to ASCII 2.3                               :LAS Program name and version
CREA.        2015/01/14 20:43                          :LAS Creation date {YYYY/MM/DD hh:mm}
DLIS_CREA.  2015-Jan-14 13:25                          :DLIS Creation date and time {YYYY-MMM-DD hh:mm}
SOURCE.     d5fbb1e7-1f44-4e43-b8fb-7fdeb49dde7f       :DLIS File Name
#--------------------------------------------------
~WELL INFORMATION
#MNEM.UNIT      DATA             DESCRIPTION
#---- ------ --------------   -----------------------------
STRT .F       8.0000         :START DEPTH     
STOP .F      353.0000        :STOP DEPTH     
STEP .F       0.5000         :STEP       
NULL .          -999.25      :NULL VALUE
COMP .                 COMPANY:  ADM Company                        
WELL .                    WELL:  CCS#2                              
FLD  .                   FIELD:  Wildcat                            
LOC  .                LOCATION:  Latitude: 39.885961                
CNTY .                  COUNTY:  Macon                              
STAT .                   STATE:  Illinois                           
CTRY .                 COUNTRY:  USA                                
SRVC .         SERVICE COMPANY:  Schlumberger                       
LATI .DEG             LATITUDE:  39° 53' 9.46" N                    
LONG .DEG            LONGITUDE:  88° 53' 16.959" W                  
API  .              API NUMBER:  12-115-23713-00                    
DATE .                LOG DATE:  12-Jan-2015
UWI  .          UNIQUE WELL ID:                                     
#-----------------------------------------------------------------------------
~PARAMETER INFORMATION
#MNEM.UNIT    VALUE                      DESCRIPTION
#---- -----   --------------------       ------------------------
CN   .        ADM Company                :Company Name
WN   .        CCS#2                      :Well Name
FN   .        Wildcat                    :Field Name
FL   .        Latitude  39.885961        :Field Location
FL1  .        Longitude  -88.888044      :Field Location, Line 1
COUN .        Macon                      :County or Parish
STAT .        Illinois                   :State or Province
NATI .        USA                        :Nation
DATE .        12-Jan-2015                :Tools Above Rotary Table Date
APIN .        12-115-23713-00            :API Well Number
SECT .        32                         :Section
TOWN .        17N                        :Township
RANG .        3E                         :Range
DMF  .        KB                         :Drilling Measured From (Name of Drilling Elevation Reference)
LMF  .        KB                         :Logging Measured From (Name of Logging Elevation Reference)
PDAT .        GL                         :Permanent Datum
ENGI .        Devin Arnold               :Engineer s Name
WITN .        Nick Malkewicz             :Witness s Name
LATI .        39° 53' 9.46  N            :Latitude
LONG .        88° 53' 16.959  W          :Longitude
LUL  .        Bradford                   :Logging Unit Location
LUN  .        3095                       :Logging Unit Number
RUN  .        1                          :Run Number
SON  .        D71E-00006                 :Service Order Number
BHT  .DEGF      58.00000                 :Bottom Hole Temperature
BS   .IN        26.00000                 :Bit Size
MDEN .G/C3       2.71000                 :Matrix Density for Density Porosity
DFD  .LB/G      10.10000                 :Drilling Fluid Density
DFV  .S         60.00000                 :Drilling Fluid Viscosity
DFL  .C3      -999.25000                 :Drilling Fluid Loss
RMFS .OHMM       1.23200                 :Resistivity of Mud Filtrate Sample
EKB  .F        691.19995                 :Elevation of Kelly Bushing
EGL  .F        675.69995                 :Elevation of Ground Level
BLI  .F        342.00000                 :Bottom Log Interval
BSAL .PPM        0.00000                 :Borehole Salinity
FLEV .F          8.00000                 :Depth of Drilling Fluid Level to LMF (Log Measured From)
MCST .DEGF      42.80000                 :Mudcake Sample Temperature
MFST .DEGF      42.80000                 :Mud Filtrate Sample Temperature
MRT  .DEGF      58.00000                 :Maximum Recorded Temperature
MST  .DEGF      42.80000                 :Mud Sample Temperature
RMCS .OHMM       1.84800                 :Resistivity of Mud Cake Sample
RMS  .OHMM       1.54000                 :Resistivity of Mud Sample
RW   .OHMM       1.00000                 :Connate Water Resistivity
TDD  .F        349.00000                 :Driller Total Depth
TDL  .F        349.00000                 :Logger Total Depth
TLI  .F         50.00000                 :Top Log Interval
HIDE .        Wildcat                    :Header Identifier
MATR .        LIME                       :Rock Matrix for Neutron Porosity Corrections
FNUM .           1.00000                 :F-Numerator for Formation Factor Formula
FEXP .           2.00000                 :Exponent "m" for Formation Factor Formula
DFT  .        Fresh Mud                  :Drilling Fluid Type
DFPH .        -999.25000                 :Drilling Fluid pH
MCSS .        Calculated                 :Mudcake Sample Source
MFSS .        Calculated                 :Mud Filtrate Sample Source
FD   .G/C3       1.00000                 :Fluid Density
MSS  .        Active Tank                :Mud Sample Source
OS1  .                                   :Other Services Line 1
OS2  .                                   :Other Services Line 2
OS3  .                                   :Other Services Line 3
OS4  .                                   :Other Services Line 4
OS5  .                                   :Other Services Line 5
R1   .        Matrix Density  Limestone. :Remarks Line 1
R2   .        Mud Sample taken on location. :Remarks Line 2
R3   .        Presentations as per client request. :Remarks Line 3
R4   .        No Chemical Sources ran due to possible potable water zones. :Remarks Line 4
R5   .        Bottom Hole Temperature taken from GM2 temperature log provided by the client. 58degF :Remarks Line 5
R6   .                                   :Remarks Line 6
R7   .                                   :Remarks Line 7
R8   .        APS ran outside max bit size range of 20in causing faulty data. :Remarks Line 8
TCS  .        19 45 00                   :Time Circulation Stopped
TLAB .        01 15 00                   :Time Logger At Bottom
NMT  .        NOBARITE                   :HRDD Mud Type for Nuclear Devices
EPD  .C3         675.699951              :Elevation of Permanent Datum above Mean Sea Level
APD  .F          15.500000               :Elevation of Depth Reference (LMF) above Permanent Datum
#-----------------------------------------------------------------------------
~CURVE INFORMATION
#MNEM.UNIT   API CODE                                  DESCRIPTION
#---- -----  --------                                  -----------------------
DEPT .F                                                :DEPTH (BOREHOLE) {F12.4}
AF10 .OHMM                                             :Array Induction Four Foot Resistivity A10 {F11.4}
AF20 .OHMM                                             :Array Induction Four Foot Resistivity A20 {F11.4}
AF30 .OHMM                                             :Array Induction Four Foot Resistivity A30 {F11.4}
AF60 .OHMM                                             :Array Induction Four Foot Resistivity A60 {F11.4}
AF90 .OHMM                                             :Array Induction Four Foot Resistivity A90 {F11.4}
AO10 .OHMM                                             :Array Induction One Foot Resistivity A10 {F11.4}
AO20 .OHMM                                             :Array Induction One Foot Resistivity A20 {F11.4}
AO30 .OHMM                                             :Array Induction One Foot Resistivity A30 {F11.4}
AO60 .OHMM                                             :Array Induction One Foot Resistivity A60 {F11.4}
AO90 .OHMM                                             :Array Induction One Foot Resistivity A90 {F11.4}
AT10 .OHMM                                             :Array Induction Two Foot Resistivity A10 {F11.4}
AT20 .OHMM                                             :Array Induction Two Foot Resistivity A20 {F11.4}
AT30 .OHMM                                             :Array Induction Two Foot Resistivity A30 {F11.4}
AT60 .OHMM                                             :Array Induction Two Foot Resistivity A60 {F11.4}
AT90 .OHMM                                             :Array Induction Two Foot Resistivity A90 {F11.4}
AFEC .HZ                                               :Far Detector Count Rate {F11.4}
ANEC .HZ                                               :Near Detector Count Rate {F11.4}
AORT .OHMM                                             :Array Induction One Foot Rt {F11.4}
AORX .OHMM                                             :Array Induction One Foot Rxo {F11.4}
APDC .CFCF                                             :Near/Array Corrected Dolomite Porosity {F11.4}
APLC .PU                                               :Near/Array Corrected Limestone Porosity {F11.4}
APSC .CFCF                                             :Near/Array Corrected Sandstone Porosity {F11.4}
CDF  .LBF                                              :Calibrated Downhole Force {F11.4}
CTEM .DEGF                                             :Cartridge Temperature {F11.4}
DCAL .IN                                               :Differential Caliper {F11.4}
ED   .F                                                :East Departure {F11.4}
FPLC .CFCF                                             :Near/Far Corrected Limestone Porosity {F11.4}
GR_EDTC.GAPI                                           :Gamma Ray {F11.4}
GTEM .DEGF                                             :Generalized Borehole Temperature {F11.4}
HASC .CFCF                                             :APS High Resolution Near/Array Corrected Sandstone Porosity {F11.4}
HSIG .CU                                               :APS High Resolution Formation Capture Cross Section {F11.4}
HSTO .IN                                               :APS High Resolution Effective Standoff in Limestone {F11.4}
ND   .F                                                :North Departure {F11.4}
QSGF .                                                 :Quality of Formation Sigma {F11.4}
SIGF .CU                                               :Formation Capture Cross Section {F11.4}
SP   .MV                                               :Spontaneous Potential {F11.4}
SPAR .MV                                               :SP, Armor Return Compensated {F11.4}
STIT .F                                                :Stuck Tool Indicator, Total {F11.4}
STOF .IN                                               :Effective Standoff in Limestone {F11.4}
STPC .CFCF                                             :Corrected Standoff Porosity {F11.4}
TENS .LBF                                              :Cable Tension {F11.4}
#-----------------------------------------------------------------------------
# 
#      DEPT        AF10       AF20       AF30       AF60       AF90       AO10       AO20       AO30       AO60       AO90       AT10       AT20       AT30       AT60       AT90       AFEC       ANEC       AORT       AORX       APDC       APLC       APSC       CDF        CTEM       DCAL        ED        FPLC     GR_EDTC      GTEM       HASC       HSIG       HSTO        ND        QSGF       SIGF        SP        SPAR       STIT       STOF       STPC       TENS
#
~A  
# ...
    251.0000     4.5151     4.4177     4.4745     4.7029     4.7755     4.7312     4.5891     4.6489     5.0075     5.0515     4.6012     4.4906     4.5616     4.8089     4.8332   379.4286  2418.2856     4.8522     4.5581     0.7635    76.6463     0.7715   628.3463    88.4706     0.0000    -0.0111     0.7297    57.0745    57.0200     0.8011    24.6320    -0.0154    -0.2104     0.2507    26.2693  -186.2054  -186.0783     0.0000     0.1798     0.7904   828.0000
    251.5000     4.5444     4.4621     4.5245     4.7717     4.8388     4.5608     4.4708     4.5557     4.9208     4.9642     4.5652     4.4737     4.5482     4.8041     4.8129   377.1429  2469.7144     4.9139     4.5609     0.7775    78.0365     0.7849   629.5524    88.4706     0.0000    -0.0072     0.6242    56.0995    57.0250     0.7316    23.5145     0.3770    -0.2119     0.2418    25.5530  -186.2656  -185.7906     0.0000     0.0995     0.7898   859.8214
    252.0000     4.5742     4.4994     4.5688     4.8331     4.8969     4.4720     4.3803     4.4662     4.8770     4.9203     4.5449     4.4631     4.5399     4.8382     4.8273   400.5000  2421.7144     4.9550     4.5378     0.8185    82.0785     0.8240   627.9479    88.4706     0.0000    -0.0033     0.6084    61.4789    57.0300     0.8659    24.9057    -0.3030    -0.2132     0.2405    24.0834  -186.0926  -185.4912     0.0000    -0.1216     0.7893   889.3215
    252.5000     4.5823     4.5417     4.6152     4.8968     4.9591     4.5516     4.5135     4.6221     5.0540     5.1003     4.5361     4.4855     4.5774     4.8926     4.8894   391.4286  2496.0000     5.0189     4.5327     0.8480    84.9903     0.8523   627.7877    88.4706     0.0000     0.0006     0.6024    61.1455    57.0350     0.8957    25.4849    -0.3602    -0.2146     0.2429    24.5840  -185.9308  -185.1779     0.0000    -0.2513     0.7902   849.3704
    253.0000     4.6080     4.5992     4.6774     4.9756     5.0345     4.5177     4.5066     4.6045     5.0648     5.1122     4.5563     4.5368     4.6282     4.9363     4.9684   384.5714  2456.0000     5.0648     4.5222     0.8067    80.9118     0.8127   628.8795    88.4706     0.0000     0.0045     0.6538    61.6384    57.0400     0.7907    24.2827     0.0754    -0.2158     0.2336    24.7547  -185.1339  -184.7279     0.0000    -0.0498     0.7910   913.2857
    253.5000     4.6633     4.6809     4.7656     5.0810     5.1383     4.5297     4.5507     4.6777     5.1137     5.1611     4.6127     4.6246     4.7174     5.0547     5.1028   383.4286  2456.0000     5.1287     4.5339     0.7949    79.7468     0.8015   630.8094    88.4706     0.0000     0.0085     0.6962    56.8612    57.0450     0.7703    24.5113     0.1901    -0.2171     0.2461    24.4624  -184.0446  -184.1619     0.0000     0.0142     0.7911   900.1786
    254.0000     4.7529     4.8039     4.8990     5.2442     5.3016     4.6854     4.7824     4.8649     5.3165     5.3669     4.6952     4.7416     4.8434     5.1969     5.2637   380.5714  2484.0000     5.3459     4.6685     0.7834    78.6129     0.7905   629.1843    88.4706     0.0000     0.0125     0.6652    55.0043    57.0500     0.7971    23.5588     0.0460    -0.2183     0.2464    25.0746  -183.1944  -183.5440     0.0000     0.0817     0.7917   901.7778
    254.5000     4.8939     4.9904     5.0998     5.4891     5.5483     4.7971     4.9046     4.9810     5.4436     5.4953     4.7728     4.8801     4.9965     5.3827     5.4739   395.0000  2450.2856     5.5673     4.7222     0.8371    83.9112     0.8418   626.7465    88.4706     0.0000     0.0165     0.7042    56.1110    57.0550     0.8579    25.5504    -0.2720    -0.2194     0.2183    25.6400  -182.2433  -182.8166     0.0000    -0.1965     0.7922   873.7143
    255.0000     5.1071     5.2494     5.3791     5.8276     5.8913     4.6681     4.9021     5.0544     5.5421     5.5940     4.8928     5.0098     5.1361     5.5784     5.6888   373.7143  2500.0000     5.7928     4.7870     0.8394    84.1356     0.8440   627.9781    88.4706     0.0000     0.0206     0.6933    58.3036    57.0600     0.8628    27.2049    -0.2899    -0.2205     0.2047    26.5627  -181.5833  -182.0502     0.0000    -0.2139     0.7905   861.3929
    255.5000     5.4087     5.5736     5.7258     6.2493     6.3244     5.0586     5.2349     5.4280     5.9561     6.0140     5.3139     5.4341     5.5935     6.1351     6.2717   388.0000  2480.5715     6.3044     5.0250     0.8265    82.8609     0.8316   627.8130    88.4706     0.0000     0.0247     0.7620    59.6662    57.0650     0.8323    27.4047    -0.1544    -0.2216     0.1886    27.3408  -181.4219  -181.2895     0.0000    -0.1540     0.7905   859.7407
    256.0000     5.7459     5.9425     6.1417     6.7868     6.8583     6.3023     6.5726     6.9375     7.8369     7.9330     6.0127     6.1794     6.4301     7.2022     7.4326   377.1429  2496.5000     8.3346     6.1973     0.8308    83.2902     0.8358   629.4984    88.4706     0.0000     0.0288     0.7236    57.6116    57.0700     0.7784    27.5230     0.1458    -0.2226     0.1802    27.9530  -181.4219  -180.4879     0.0000    -0.1783     0.7898   834.3214
    256.5000     6.0909     6.3314     6.5751     7.2987     7.4015     6.6515     6.9226     7.2997     8.4134     8.5182     6.6015     6.8229     7.1457     8.0259     8.3500   388.5714  2486.8572     9.0032     6.4983     0.8459    84.7739     0.8502   629.0573    88.4706     0.0000     0.0328     0.7235    53.8971    57.0750     0.8372    28.9694    -0.1908    -0.2236     0.2009    27.0145  -180.0116  -179.3874     0.0000    -0.2448     0.7896   804.7037
    257.0000     6.3563     6.6237     6.9062     7.7175     7.8318     6.6139     6.9135     7.5035     8.5956     8.6989     6.5893     6.8087     7.1753     8.1292     8.4556   389.1429  2496.5715     9.0867     6.4944     0.8350    83.7031     0.8398   631.4783    88.4706     0.0000     0.0370     0.6596    53.8436    57.0800     0.8807    26.6841    -0.3377    -0.2245     0.1900    27.4125  -178.7411  -178.3348     0.0000    -0.2009     0.7890   826.7501
    257.5000     6.5155     6.8167     7.1280     7.9952     8.1225     5.9865     6.2352     6.7050     7.6232     7.6994     6.4860     6.7385     7.0875     8.0236     8.3325   392.5714  2519.4285     8.1547     6.0023     0.7938    79.6442     0.8005   629.1165    88.4706     0.0000     0.0412     0.6510    54.0553    57.0850     0.7838    26.0711     0.1053    -0.2254     0.2077    26.7574  -177.3032  -177.2517     0.0000     0.0099     0.7897   837.8519
    258.0000     6.5604     6.9057     7.2287     8.1121     8.2478     6.7726     6.9694     7.5458     8.6891     8.7842     6.7381     7.0261     7.4445     8.4334     8.8690   381.5000  2454.2856     9.0365     6.6126     0.7778    78.0643     0.7852   629.0573    88.4706     0.0000     0.0454     0.7577    55.6479    57.0900     0.7732    25.7891     0.1723    -0.2263     0.2343    26.0638  -175.9190  -176.1927     0.0000     0.1055     0.7908   856.8571
    258.5000     6.4965     6.8812     7.1965     8.0556     8.1915     7.8524     8.1992     8.5750     9.8391     9.9564     6.9949     7.4581     7.9351     9.0131     9.5545   361.7143  2446.2856    10.0624     7.3128     0.8092    81.1619     0.8152   632.0282    88.4706     0.0000     0.0496     0.7615    54.3649    57.0950     0.7846    25.7602     0.1145    -0.2271     0.2149    25.7849  -174.8571  -175.3132     0.0000    -0.0695     0.7900   868.3704
    259.0000     6.3458     6.7465     7.0403     7.8423     7.9686     6.6402     7.0106     7.4483     8.2268     8.3062     6.6064     7.0731     7.4165     8.3026     8.7889   392.5714  2492.5000     8.4032     6.5760     0.8223    82.4551     0.8277   630.3015    88.4706     0.0000     0.0538     0.7867    56.4495    57.1000     0.8255    25.6401    -0.1108    -0.2278     0.2012    26.5215  -174.1181  -174.5735     0.0000    -0.1401     0.7894   857.8929
    259.5000     6.2223     6.5363     6.7949     7.5001     7.6180     6.1759     6.3908     6.6601     7.1507     7.2095     6.1795     6.4795     6.7190     7.3973     7.8127   368.0000  2492.0000     7.2917     6.1759     0.8421    84.4051     0.8466   632.0028    88.4706     0.0000     0.0580     0.6768    58.5325    57.1050     0.8416    27.0540    -0.2113    -0.2285     0.2223    25.5610  -173.9420  -174.0243     0.0000    -0.2234     0.7911   899.7408
