~VERSION INFORMATION
VERS.           1.2   :CWLS Log ASCII Standard - VERSION 1.2
WRAP.           NO    :One Line per depth step
PROD.  Schlumberger   :LAS Producer
PROG.  DLIS to ASCII 2.3                               :LAS Program name and version
CREA.        2015/05/06 16:26                          :LAS Creation date {YYYY/MM/DD hh:mm}
DLIS_CREA.  2015-May-04 11:59                          :DLIS Creation date and time {YYYY-MMM-DD hh:mm}
SOURCE.     301ad50a-0e97-4ef4-9f57-5a70afd84532       :DLIS File Name
#--------------------------------------------------
~WELL INFORMATION
#MNEM.UNIT      DATA             DESCRIPTION
#---- ------ --------------   -----------------------------
STRT .F      23.5000         :START DEPTH     
STOP .F      5264.5000       :STOP DEPTH     
STEP .F       0.5000         :STEP       
NULL .          -999.25      :NULL VALUE
COMP .                 COMPANY:  ADM COMPANY                        
WELL .                    WELL:  CCS#2                              
FLD  .                   FIELD:  WILDCAT                            
LOC  .                LOCATION:  Latitude: 39.885961                
CNTY .                  COUNTY:  MACON                              
STAT .                   STATE:  ILLINOIS                           
CTRY .                 COUNTRY:  USA                                
SRVC .         SERVICE COMPANY:  Schlumberger                       
LATI .DEG             LATITUDE:  39° 53' 9.46" N                    
LONG .DEG            LONGITUDE:  88° 53' 16.958" W                  
API  .              API NUMBER:  12-115-23713-00                    
DATE .                LOG DATE:  03-May-2015
UWI  .          UNIQUE WELL ID:                                     
#-----------------------------------------------------------------------------
~PARAMETER INFORMATION
#MNEM.UNIT    VALUE                      DESCRIPTION
#---- -----   --------------------       ------------------------
CN   .        ADM COMPANY                :Company Name
WN   .        CCS#2                      :Well Name
FN   .        WILDCAT                    :Field Name
FL   .        Latitude  39.885961        :Field Location
FL1  .        Longitude  -88.888044      :Field Location, Line 1
COUN .        MACON                      :County or Parish
STAT .        ILLINOIS                   :State or Province
NATI .        USA                        :Nation
DATE .        03-May-2015                :Tools Above Rotary Table Date
APIN .        12-115-23713-00            :API Well Number
SECT .        32                         :Section
TOWN .        17N                        :Township
RANG .        3E                         :Range
DMF  .        KB                         :Drilling Measured From (Name of Drilling Elevation Reference)
LMF  .        KB                         :Logging Measured From (Name of Logging Elevation Reference)
PDAT .        GL                         :Permanent Datum
ENGI .        Yazan Alhabahbeh           :Engineer s Name
WITN .        Nick Malkewicz             :Witness s Name
LATI .        39° 53' 9.46  N            :Latitude
LONG .        88° 53' 16.958  W          :Longitude
LUL  .        BRADFORD                   :Logging Unit Location
LUN  .        3019                       :Logging Unit Number
RUN  .        2B                         :Run Number
SON  .        D9QJ-00005                 :Service Order Number
BHT  .DEGF     132.00000                 :Bottom Hole Temperature
BS   .IN        17.50000                 :Bit Size
MDEN .G/C3       2.71000                 :Matrix Density for Density Porosity
DFD  .LB/G       9.15000                 :Drilling Fluid Density
DFV  .S         61.00000                 :Drilling Fluid Viscosity
DFL  .C3      -999.25000                 :Drilling Fluid Loss
RMFS .OHMM       0.16000                 :Resistivity of Mud Filtrate Sample
EKB  .F        691.19995                 :Elevation of Kelly Bushing
EGL  .F        675.69995                 :Elevation of Ground Level
BLI  .F       5252.00000                 :Bottom Log Interval
BSAL .PPM     14700.00000                :Borehole Salinity
FLEV .F          8.00000                 :Depth of Drilling Fluid Level to LMF (Log Measured From)
MCST .DEGF      74.30000                 :Mudcake Sample Temperature
MFST .DEGF      72.50000                 :Mud Filtrate Sample Temperature
MRT  .DEGF     135.00000                 :Maximum Recorded Temperature
MST  .DEGF      73.50000                 :Mud Sample Temperature
RMCS .OHMM       0.26600                 :Resistivity of Mud Cake Sample
RMS  .OHMM       0.19000                 :Resistivity of Mud Sample
RW   .OHMM       1.00000                 :Connate Water Resistivity
TDD  .F       5252.00000                 :Driller Total Depth
TDL  .F       5252.00000                 :Logger Total Depth
TLI  .F        200.00000                 :Top Log Interval
HIDE .        WILDCAT                    :Header Identifier
MATR .        LIME                       :Rock Matrix for Neutron Porosity Corrections
FNUM .           1.00000                 :F-Numerator for Formation Factor Formula
FEXP .           2.00000                 :Exponent "m" for Formation Factor Formula
DFT  .        SALT WATER                 :Drilling Fluid Type
DFPH .          11.00000                 :Drilling Fluid pH
MCSS .        Calculated                 :Mudcake Sample Source
MFSS .        Calculated                 :Mud Filtrate Sample Source
FD   .G/C3       1.00000                 :Fluid Density
MSS  .        Active Tank                :Mud Sample Source
OS1  .                                   :Other Services Line 1
OS2  .                                   :Other Services Line 2
OS3  .                                   :Other Services Line 3
OS4  .                                   :Other Services Line 4
OS5  .                                   :Other Services Line 5
R1   .        THANKS FOR CHOOSING

SCHLUMBERGER!!! :Remarks Line 1
R2   .        MATRIX  LIMESTONE          :Remarks Line 2
R3   .        MATRIX DENSITY  2.71 G/CC  :Remarks Line 3
R4   .        All WELL PROPERTIES PROVIDED BY

CLIENT . :Remarks Line 4
R5   .        ALL SCALES ON PRESENTATIONS AS PER

CLIENT REQUEST :Remarks Line 5
R6   .        Temp recorded by sensors inside the tool . :Remarks Line 6
R7   .                                   :Remarks Line 7
R8   .                                   :Remarks Line 8
TCS  .        04 45 00                   :Time Circulation Stopped
TLAB .        22 39 00                   :Time Logger At Bottom
EPD  .C3         675.699951              :Elevation of Permanent Datum above Mean Sea Level
APD  .F          15.500000               :Elevation of Depth Reference (LMF) above Permanent Datum
#-----------------------------------------------------------------------------
~CURVE INFORMATION
#MNEM.UNIT   API CODE                                  DESCRIPTION
#---- -----  --------                                  -----------------------
DEPT .F                                                :DEPTH (BOREHOLE) {F12.4}
C1   .IN                                               :Caliper 1 {F11.4}
C2   .IN                                               :Caliper 2 {F11.4}
CDF  .LBF                                              :Calibrated Downhole Force {F11.4}
CTEM .DEGF                                             :Cartridge Temperature {F11.4}
DCAL .IN                                               :Differential Caliper {F11.4}
DEVI .DEG                                              :Hole Deviation {F11.4}
DEVIM.DEG                                              :Memorized Deviation {F11.4}
DTCO .US/F                                             :Delta-T Compressional {F11.4}
DTSM .US/F                                             :Delta-T Shear {F11.4}
ED   .F                                                :East Departure {F11.4}
GR_EDTC.GAPI                                           :Gamma Ray {F11.4}
GTEM .DEGF                                             :Generalized Borehole Temperature {F11.4}
HAZI .DEG                                              :Hole Azimuth Relative to True North {F11.4}
HAZIM.DEG                                              :Hole Azimuth Relative to True North {F11.4}
ITT  .S                                                :Integrated Transit Time {F11.4}
ND   .F                                                :North Departure {F11.4}
P1AZ .DEG                                              :Pad 1 Azimuth in Horizontal Plane (0 = True North) {F11.4}
PR   .                                                 :Poisson s Ratio {F11.4}
RB   .DEG                                              :Relative Bearing {F11.4}
SDEV .DEG                                              :Sonde Deviation {F11.4}
SDEVM.DEG                                              :Sonde Deviation {F11.4}
SPHI .CFCF                                             :Sonic Porosity {F11.4}
STIT .F                                                :Stuck Tool Indicator, Total {F11.4}
TENS .LBF                                              :Cable Tension {F11.4}
#-----------------------------------------------------------------------------
# 
#      DEPT         C1         C2        CDF        CTEM       DCAL       DEVI      DEVIM       DTCO       DTSM        ED      GR_EDTC      GTEM       HAZI      HAZIM       ITT         ND        P1AZ        PR         RB        SDEV      SDEVM       SPHI       STIT       TENS
#
~A  
# ...
    719.5000    19.7504    18.5776   227.1483   131.9529     1.5410     0.1708     0.0826    94.5260   175.4154     0.0000   121.9761    76.7677    42.2956    50.0923     0.2743     0.0000    69.6748     0.2954    27.3805     0.1715     0.0827     0.2897     0.0000  1681.3334
    720.0000    19.6953    18.7415   228.0209   131.9529     1.9226     0.1703     0.0837    95.2690   177.9405     0.0000   109.5973    76.7738    42.9272    52.9897     0.2743     0.0000    70.0098     0.2991    27.0799     0.1710     0.0838     0.2953     0.0000  1699.2500
    720.5000    19.7504    18.9761   227.3423   131.9529     1.4666     0.1673     0.0864    96.4101   179.2848     0.0000    99.6456    76.7799    46.7176    58.2734     0.2742     0.0000    69.8058     0.2966    23.0887     0.1680     0.0866     0.3038     0.0000  1716.0000
    721.0000    19.6993    18.6409   224.7245   131.9529     1.4666     0.1648     0.0895    97.5436   180.8498     0.0000    86.9734    76.7860    50.0263    63.6538     0.2742     0.0000    69.7301     0.2949    19.7011     0.1655     0.0897     0.3124     0.0000  1657.7500
    721.5000    19.7071    18.6260   227.3261   131.9529     1.4666     0.1612     0.0966    97.5242   181.4011     0.0000    82.8828    76.7921    56.2372    71.0380     0.2741     0.0000    69.5549     0.2967    13.3175     0.1618     0.0968     0.3122     0.0000  1686.3334
    722.0000    19.7583    18.6968   222.0582   131.9529     1.4368     0.1591     0.1004    97.1183   180.2220     0.0000    82.2735    76.7982    61.5924    76.4109     0.2741     0.0000    69.8768     0.2954     8.2843     0.1597     0.1007     0.3092     0.0000  1691.0000
    722.5000    19.6953    18.6670   217.0328   131.9529     1.4666     0.1579     0.1076    96.7410   179.5759     0.0000    92.6638    76.8043    66.1327    81.9258     0.2740     0.0000    70.1231     0.2956     3.9953     0.1585     0.1078     0.3063     0.0000  1646.7501
    723.0000    19.7504    18.5850   216.4995   131.9529     1.4518     0.1569     0.1119    96.7958   175.2240     0.0000   108.7285    76.8104    69.8658    85.1562     0.2740     0.0000    70.2428     0.2804     0.3750     0.1575     0.1122     0.3067     0.0000  1623.6666
    723.5000    19.6953    18.5850   217.4852   131.9529     1.4666     0.1540     0.1140    96.9014   176.5167     0.0000   121.4290    76.8165    72.1112    87.8732     0.2739     0.0000    70.3559     0.2843   358.2512     0.1545     0.1143     0.3075     0.0000  1641.0000
    724.0000    19.7032    18.5925   216.5965   131.9529     1.4666     0.1513     0.1150    97.0118   178.4200     0.0000   124.8762    76.8225    73.2287    89.3428     0.2739     0.0000    70.3050     0.2901   357.0755     0.1519     0.1154     0.3084     0.0000  1640.5000
    724.5000    19.7268    18.6223   216.9843   131.9529     1.4666     0.1456     0.1160    96.0132   180.6443     0.0000   117.7568    76.8286    73.4799    89.8087     0.2739     0.0000    70.2373     0.3031   356.7528     0.1461     0.1164     0.3009     0.0000  1601.0000
    725.0000    19.7347    18.6707   222.0582   131.9529     1.4369     0.1403     0.1161    95.7657   180.5882     0.0000   103.1899    76.8347    72.5925    90.1940     0.2738     0.0000    70.2028     0.3044   357.6077     0.1408     0.1164     0.2990     0.0000  1613.0000
    725.5000    19.6835    18.6260   221.1695   131.9529     1.4519     0.1319     0.1171    94.8695   179.7415     0.0000    95.6692    76.8408    71.3629    89.8490     0.2738     0.0000    70.1870     0.3069   358.8294     0.1323     0.1175     0.2923     0.0000  1609.0001
    726.0000    19.6953    18.5254   223.1571   131.9529     1.4666     0.1243     0.1175    93.8120   180.6356     0.0000    87.3919    76.8469    69.5925    89.8596     0.2737     0.0000    70.1189     0.3153     0.5289     0.1246     0.1178     0.2843     0.0000  1599.6666
    726.5000    19.6914    18.5329   226.4858   131.9529     1.4666     0.1147     0.1197    93.0826   177.7171     0.0000    84.7287    76.8530    67.1764    89.5943     0.2737     0.0000    70.1565     0.3110     2.9749     0.1150     0.1201     0.2788     0.0000  1624.7500
    727.0000    19.6874    18.5627   227.5685   131.9529     1.4518     0.1045     0.1192    92.6352   176.8078     0.0000    78.5536    76.8591    64.8272    89.4102     0.2736     0.0000    70.2219     0.3108     5.3956     0.1048     0.1195     0.2755     0.0000  1626.2500
    727.5000    19.6874    18.5329   235.3087   131.9529     1.4666     0.0972     0.1218    92.2796   176.1698     0.0000    75.5862    76.8652    60.3531    89.6423     0.2736     0.0000    70.3743     0.3109    10.0208     0.0974     0.1222     0.2728     0.0000  1720.0000
    728.0000    19.6953    18.5552   230.1631   131.9529     1.4666     0.0894     0.1216    92.2215   176.5203     0.0000    73.6694    76.8713    57.2341    89.5234     0.2735     0.0000    70.3723     0.3123    13.1330     0.0896     0.1219     0.2723     0.0000  1736.0000
    728.5000    19.7111    18.5180   225.9287   131.9529     1.4368     0.0833     0.1228    92.0214   174.4618     0.0000    74.5788    76.8774    52.7719    89.9929     0.2735     0.0000    70.4063     0.3073    17.6283     0.0835     0.1231     0.2708     0.0000  1691.3334
    729.0000    19.6953    18.5664   229.1198   131.9529     1.4368     0.0828     0.1232    91.9843   173.8691     0.0000    80.4116    76.8835    51.0518    89.4921     0.2734     0.0000    70.4187     0.3057    19.3656     0.0830     0.1235     0.2706     0.0000  1749.0001
    729.5000    19.7229    18.5999   226.2434   131.9529     1.4666     0.0816     0.1233    91.7338   175.8048     0.0000    83.5769    76.8895    50.5313    89.8859     0.2734     0.0000    69.4163     0.3129    18.8955     0.0818     0.1237     0.2687     0.0000  1724.3335
    730.0000    19.6993    18.5739   223.1571   131.9529     1.4666     0.0835     0.1247    91.7522   175.7393     0.0000    85.5860    76.8957    53.9914    89.3747     0.2733     0.0000    68.1655     0.3126    14.1730     0.0837     0.1251     0.2688     0.0000  1716.6666
    730.5000    19.7504    18.7191   226.4535   131.9529     1.4517     0.0864     0.1238    91.6277   177.3697     0.0000    78.5616    76.9017    58.2734    89.6592     0.2733     0.0000    68.4453     0.3180    10.1655     0.0866     0.1242     0.2679     0.0000  1722.7500
    731.0000    19.7898    18.7266   226.4212   131.9529     1.4666     0.0919     0.1261    91.4273   178.8754     0.0000    74.3858    76.9078    65.0561    89.5521     0.2732     0.0000    69.0700     0.3232     4.0154     0.0921     0.1265     0.2664     0.0000  1768.7500
    731.5000    19.7504    18.7713   227.1483   131.9529     1.4517     0.0966     0.1244    91.7650   179.8807     0.0000    71.0269    76.9139    71.0380    90.3854     0.2732     0.0000    69.2225     0.3241   358.1762     0.0968     0.1248     0.2689     0.0000  1790.3334
    732.0000    19.7426    18.7377   227.0837   131.9529     1.4368     0.1034     0.1270    91.1704   181.1822     0.0000    72.6258    76.9200    77.1259    91.3749     0.2732     0.0000    69.2063     0.3305   352.0784     0.1037     0.1274     0.2644     0.0000  1823.0000
    732.5000    19.7583    18.6521   226.4212   131.9529     1.4518     0.1075     0.1256    91.1555   183.2301     0.0000    72.3266    76.9261    82.6868    93.1245     0.2731     0.0000    69.2883     0.3355   346.6004     0.1078     0.1260     0.2643     0.0000  1792.2500
    733.0000    19.6914    18.5739   224.9345   131.9529     1.4517     0.1119     0.1269    91.1644   183.3315     0.0000    73.1068    76.9322    85.1562    95.9880     0.2731     0.0000    69.1317     0.3357   343.9705     0.1122     0.1273     0.2644     0.0000  1770.0000
    733.5000    19.6874    18.5701   226.6959   131.9529     1.4221     0.1134     0.1267    91.5057   183.0105     0.0000    73.2459    76.9383    88.0671    99.6291     0.2730     0.0000    69.0417     0.3333   340.9796     0.1137     0.1271     0.2670     0.0000  1756.3334
