~VERSION INFORMATION
VERS.           1.2   :CWLS Log ASCII Standard - VERSION 1.2
WRAP.           NO    :One Line per depth step
PROD.  Schlumberger   :LAS Producer
PROG.  DLIS to ASCII 2.3                               :LAS Program name and version
CREA.        2015/01/14 20:42                          :LAS Creation date {YYYY/MM/DD hh:mm}
DLIS_CREA.  2015-Jan-14 13:26                          :DLIS Creation date and time {YYYY-MMM-DD hh:mm}
SOURCE.     b1232dd5-b707-4891-82b9-d24dcc6cb5d4       :DLIS File Name
#--------------------------------------------------
~WELL INFORMATION
#MNEM.UNIT      DATA             DESCRIPTION
#---- ------ --------------   -----------------------------
STRT .F      -8.0000         :START DEPTH     
STOP .F      352.5000        :STOP DEPTH     
STEP .F       0.5000         :STEP       
NULL .          -999.25      :NULL VALUE
COMP .                 COMPANY:  ADM Company                        
WELL .                    WELL:  CCS#2                              
FLD  .                   FIELD:  Wildcat                            
LOC  .                LOCATION:  Latitude: 39.885961                
CNTY .                  COUNTY:  Macon                              
STAT .                   STATE:  Illinois                           
CTRY .                 COUNTRY:  USA                                
SRVC .         SERVICE COMPANY:  Schlumberger                       
LATI .DEG             LATITUDE:  39° 53' 9.46" N                    
LONG .DEG            LONGITUDE:  88° 53' 16.959" W                  
API  .              API NUMBER:  12-115-23713-00                    
DATE .                LOG DATE:  13-Jan-2015
UWI  .          UNIQUE WELL ID:                                     
#-----------------------------------------------------------------------------
~PARAMETER INFORMATION
#MNEM.UNIT    VALUE                      DESCRIPTION
#---- -----   --------------------       ------------------------
CN   .        ADM Company                :Company Name
WN   .        CCS#2                      :Well Name
FN   .        Wildcat                    :Field Name
FL   .        Latitude  39.885961        :Field Location
FL1  .        Longitude  -88.888044      :Field Location, Line 1
COUN .        Macon                      :County or Parish
STAT .        Illinois                   :State or Province
NATI .        USA                        :Nation
DATE .        13-Jan-2015                :Tools Above Rotary Table Date
APIN .        12-115-23713-00            :API Well Number
SECT .        32                         :Section
TOWN .        17N                        :Township
RANG .        3E                         :Range
DMF  .        KB                         :Drilling Measured From (Name of Drilling Elevation Reference)
LMF  .        KB                         :Logging Measured From (Name of Logging Elevation Reference)
PDAT .        GL                         :Permanent Datum
ENGI .        Devin Arnold               :Engineer s Name
WITN .        Nick Malkewicz             :Witness s Name
LATI .        39° 53' 9.46  N            :Latitude
LONG .        88° 53' 16.959  W          :Longitude
LUL  .        Bradford                   :Logging Unit Location
LUN  .        3095                       :Logging Unit Number
RUN  .        2                          :Run Number
SON  .        D71E-00006                 :Service Order Number
BHT  .DEGF      58.00000                 :Bottom Hole Temperature
BS   .IN        26.00000                 :Bit Size
MDEN .G/C3       2.71000                 :Matrix Density for Density Porosity
DFD  .LB/G      10.10000                 :Drilling Fluid Density
DFV  .S       -999.25000                 :Drilling Fluid Viscosity
DFL  .C3      -999.25000                 :Drilling Fluid Loss
RMFS .OHMM       1.23200                 :Resistivity of Mud Filtrate Sample
EKB  .F        691.19995                 :Elevation of Kelly Bushing
EGL  .F        675.69995                 :Elevation of Ground Level
BLI  .F        345.00000                 :Bottom Log Interval
BSAL .PPM        0.00000                 :Borehole Salinity
FLEV .F          8.00000                 :Depth of Drilling Fluid Level to LMF (Log Measured From)
MCST .DEGF      42.80000                 :Mudcake Sample Temperature
MFST .DEGF      42.80000                 :Mud Filtrate Sample Temperature
MRT  .DEGF      58.00000                 :Maximum Recorded Temperature
MST  .DEGF      42.80000                 :Mud Sample Temperature
RMCS .OHMM       1.84800                 :Resistivity of Mud Cake Sample
RMS  .OHMM       1.54000                 :Resistivity of Mud Sample
RW   .OHMM       1.00000                 :Connate Water Resistivity
TDD  .F        349.00000                 :Driller Total Depth
TDL  .F        349.00000                 :Logger Total Depth
TLI  .F         50.00000                 :Top Log Interval
HIDE .        Wildcat                    :Header Identifier
MATR .        LIME                       :Rock Matrix for Neutron Porosity Corrections
FNUM .           1.00000                 :F-Numerator for Formation Factor Formula
FEXP .           2.00000                 :Exponent "m" for Formation Factor Formula
DFT  .        Fresh Mud                  :Drilling Fluid Type
DFPH .        -999.25000                 :Drilling Fluid pH
MCSS .        Calculated                 :Mudcake Sample Source
MFSS .        Calculated                 :Mud Filtrate Sample Source
FD   .G/C3       1.00000                 :Fluid Density
MSS  .        Active Tank                :Mud Sample Source
OS1  .                                   :Other Services Line 1
OS2  .                                   :Other Services Line 2
OS3  .                                   :Other Services Line 3
OS4  .                                   :Other Services Line 4
OS5  .                                   :Other Services Line 5
R1   .        Matrix Density  Limestone. :Remarks Line 1
R2   .        Mud Sample taken on location. :Remarks Line 2
R3   .        Presentations as per client request. :Remarks Line 3
R4   .        No Chemical Sources ran due to possible potable water zones. :Remarks Line 4
R5   .        Bottom Hole Temperature taken from GM2 temperature log provided by the client. 58degF :Remarks Line 5
R6   .                                   :Remarks Line 6
R7   .                                   :Remarks Line 7
R8   .                                   :Remarks Line 8
TCS  .        19 45 00                   :Time Circulation Stopped
TLAB .        03 30 00                   :Time Logger At Bottom
EPD  .C3         675.699951              :Elevation of Permanent Datum above Mean Sea Level
APD  .F          15.500000               :Elevation of Depth Reference (LMF) above Permanent Datum
#-----------------------------------------------------------------------------
~CURVE INFORMATION
#MNEM.UNIT   API CODE                                  DESCRIPTION
#---- -----  --------                                  -----------------------
DEPT .F                                                :DEPTH (BOREHOLE) {F12.4}
CDF  .LBF                                              :Calibrated Downhole Force {F11.4}
CTEM .DEGF                                             :Cartridge Temperature {F11.4}
DCAL .IN                                               :Differential Caliper {F11.4}
DT   .US/F                                             :Delta-T (also called Slowness or Interval Transit Time) {F11.4}
ED   .F                                                :East Departure {F11.4}
GR_EDTC.GAPI                                           :Gamma Ray {F11.4}
GTEM .DEGF                                             :Generalized Borehole Temperature {F11.4}
HAZI .DEG                                              :Hole Azimuth Relative to True North {F11.4}
HAZIM.DEG                                              :Memorized Hole Azimuth {F11.4}
ITT  .S                                                :Integrated Transit Time {F11.4}
ND   .F                                                :North Departure {F11.4}
P1AZ .DEG                                              :Pad 1 Azimuth in Horizontal Plane (0 = True North) {F11.4}
RB   .DEG                                              :Relative Bearing {F11.4}
SDEV .DEG                                              :Sonde Deviation {F11.4}
SDEVM.DEG                                              :Memorized Sonde Deviation {F11.4}
SPHI .CFCF                                             :Sonic Porosity {F11.4}
STIT .F                                                :Stuck Tool Indicator, Total {F11.4}
TENS .LBF                                              :Cable Tension {F11.4}
#-----------------------------------------------------------------------------
# 
#      DEPT        CDF        CTEM       DCAL        DT         ED      GR_EDTC      GTEM       HAZI      HAZIM       ITT         ND        P1AZ        RB        SDEV      SDEVM       SPHI       STIT       TENS
#
~A  
# ...
    239.0000   653.9067    72.6588    -6.1115   126.2208    -0.0967    60.7296    56.9000   164.3654   120.8448     0.0129    -0.1629   117.0151   312.6759     2.4544     2.4840     0.5280     0.0000   913.7334
    239.5000   653.7645    72.6588    -6.1122   124.2883    -0.0934    64.8794    56.9050   163.8851   120.2650     0.0128    -0.1654   116.6031   312.7442     2.4549     2.4839     0.5134     0.0000   906.1429
    240.0000   654.2859    72.6588    -6.1122   122.0931    -0.0901    67.1180    56.9100   163.2011   119.6927     0.0127    -0.1678   116.0168   312.8420     2.4551     2.4837     0.4969     0.0000   934.0714
    240.5000   656.2531    72.6588    -6.1122   121.1679    -0.0869    66.9660    56.9150   162.4535   119.2744     0.0127    -0.1701   115.2207   312.7935     2.4559     2.4839     0.4900     0.0000   894.3572
    241.0000   655.8975    72.6588    -6.1394   121.5990    -0.0834    62.4678    56.9200   161.6243   118.7237     0.0126    -0.1726   114.4826   312.8846     2.4566     2.4839     0.4932     0.0000   887.8667
    241.5000   653.7645    72.6588    -6.1394   121.1518    -0.0800    60.6171    56.9250   160.9316   118.1868     0.0125    -0.1749   113.8887   312.9835     2.4570     2.4839     0.4899     0.0000   902.0000
    242.0000   655.5657    72.6588    -6.1115   122.4901    -0.0767    63.5628    56.9300   159.9342   117.6472     0.0125    -0.1771   113.1015   313.1936     2.4576     2.4839     0.4999     0.0000   922.5000
    242.5000   654.6651    72.6588    -6.1387   124.0181    -0.0732    68.2204    56.9350   158.8422   117.2363     0.0124    -0.1794   112.0075   313.1915     2.4584     2.4842     0.5114     0.0000   814.6000
    243.0000   656.2531    72.6588    -6.1115   125.5287    -0.0697    70.9456    56.9400   157.9650   116.6786     0.0124    -0.1816   110.9974   313.0587     2.4590     2.4845     0.5228     0.0000   889.0000
    243.5000   653.7899    72.6588    -6.1387   126.0439    -0.0663    72.4711    56.9450   156.7315   116.1044     0.0123    -0.1837   109.6003   312.8951     2.4596     2.4852     0.5266     0.0000   899.9286
    244.0000   657.8173    72.6588    -6.1115   126.3500    -0.0628    74.0154    56.9500   155.4430   115.5150     0.0122    -0.1858   108.1715   312.7549     2.4606     2.4856     0.5289     0.0000   937.8000
    244.5000   655.2339    72.6588    -6.1387   127.6965    -0.0592    74.0688    56.9550   154.1416   114.9226     0.0122    -0.1879   106.7010   312.5857     2.4617     2.4866     0.5391     0.0000   938.7144
    245.0000   654.1201    72.6588    -6.1122   128.6288    -0.0557    69.0850    56.9600   153.1551   114.4924     0.0121    -0.1898   105.5169   312.3880     2.4629     2.4871     0.5461     0.0000   872.4286
    245.5000   655.5657    72.6588    -6.1658   130.3126    -0.0521    66.4297    56.9650   151.8836   113.9245     0.0120    -0.1918   104.0424   312.1851     2.4646     2.4883     0.5587     0.0000   895.0000
    246.0000   653.7645    72.6588    -6.1387   130.6233    -0.0484    64.3201    56.9700   150.6480   113.3908     0.0120    -0.1938   102.7764   312.1548     2.4666     2.4896     0.5611     0.0000   924.9285
    246.5000   656.5612    72.6588    -6.1394   130.8817    -0.0449    62.9529    56.9750   149.5019   112.8905     0.0119    -0.1956   101.7240   312.2487     2.4686     2.4909     0.5630     0.0000   921.0714
    247.0000   655.5657    72.6588    -6.2238   130.4961    -0.0412    60.5261    56.9800   148.6812   112.5539     0.0118    -0.1974   100.9832   312.3284     2.4706     2.4915     0.5601     0.0000   898.7333
    247.5000   655.5421    72.6588    -6.1673   128.6945    -0.0375    56.1451    56.9850   147.6828   112.1246     0.0118    -0.1992    99.9991   312.3428     2.4725     2.4925     0.5466     0.0000   877.6429
    248.0000   655.5657    72.6588    -6.2539   128.1908    -0.0339    55.9363    56.9900   146.7451   111.7287     0.0117    -0.2009    99.1126   312.3942     2.4747     2.4933     0.5428     0.0000   880.9286
    248.5000   656.2531    72.6588    -6.2539   127.6435    -0.0301    53.2438    56.9950   146.0909   111.3468     0.0117    -0.2026    98.3904   312.3260     2.4760     2.4938     0.5387     0.0000   937.8000
    249.0000   654.8784    72.6588    -6.2267   128.9507    -0.0263    55.4085    57.0000   145.2625   111.0875     0.0116    -0.2043    97.6864   312.4507     2.4778     2.4945     0.5485     0.0000   872.7857
    249.5000   653.7899    72.6588    -6.3112   127.4627    -0.0226    58.7139    57.0050   144.4784   110.7203     0.0115    -0.2059    96.8801   312.4284     2.4791     2.4950     0.5373     0.0000   874.7857
    250.0000   653.3380    72.6588    -6.3686   126.2161    -0.0188    60.4165    57.0100   143.7319   110.3563     0.0115    -0.2074    96.1287   312.4235     2.4804     2.4961     0.5279     0.0000   919.6667
    250.5000   654.4755    72.6588    -6.4260   124.9250    -0.0149    58.2809    57.0150   143.1916   109.9912     0.0114    -0.2090    95.6201   312.4554     2.4812     2.4970     0.5182     0.0000   941.5714
    251.0000   656.2293    72.6588    -6.3988   124.1572    -0.0111    56.1672    57.0200   142.4829   109.6375     0.0113    -0.2104    95.0159   312.5600     2.4822     2.4975     0.5125     0.0000   955.1428
    251.5000   654.8784    72.6588    -6.4824   123.7029    -0.0072    57.6058    57.0250   141.7959   109.3700     0.0113    -0.2118    94.3606   312.5915     2.4833     2.4981     0.5090     0.0000   887.0001
    252.0000   653.8153    72.6588    -6.5138   124.6685    -0.0033    61.9533    57.0300   141.1292   109.0237     0.0112    -0.2132    93.5767   312.4744     2.4844     2.4989     0.5163     0.0000   889.9286
    252.5000   652.2951    72.6588    -6.4835   125.4573     0.0005    63.4166    57.0350   140.6413   108.6863     0.0111    -0.2145    93.1122   312.4975     2.4848     2.4996     0.5222     0.0000   950.9285
    253.0000   656.2531    72.6588    -6.4260   127.3657     0.0045    62.9773    57.0400   140.0025   108.3598     0.0111    -0.2158    92.4885   312.5128     2.4859     2.5003     0.5366     0.0000   946.0667
    253.5000   653.3380    72.6588    -6.4250   127.9467     0.0085    59.0911    57.0450   139.3745   108.0549     0.0110    -0.2171    91.8544   312.5068     2.4868     2.5010     0.5410     0.0000   869.5714
    254.0000   652.2951    72.6588    -6.3127   126.6955     0.0124    57.5230    57.0500   138.7562   107.8397     0.0110    -0.2183    91.3296   312.6004     2.4877     2.5017     0.5315     0.0000   860.2858
    254.5000   653.8153    72.6588    -6.3399   124.6161     0.0165    56.3116    57.0550   138.2919   107.5736     0.0109    -0.2194    90.8952   312.6302     2.4881     2.5023     0.5159     0.0000   857.3333
    255.0000   655.8975    72.5353    -6.2841   123.7699     0.0206    55.5131    57.0600   137.6756   107.3210     0.0108    -0.2205    90.1304   312.4818     2.4887     2.5031     0.5095     0.0000   900.9286
    255.5000   652.3425    71.9529    -6.3103   118.2312     0.0247    53.5013    57.0650   137.0616   107.0848     0.0108    -0.2216    89.5980   312.5632     2.4892     2.5040     0.4679     0.0000   886.7333
    256.0000   654.2623    71.7365    -6.4260   112.6967     0.0288    56.4606    57.0700   136.5980   106.8673     0.0107    -0.2226    89.1609   312.5900     2.4894     2.5048     0.4263     0.0000   875.8572
    256.5000   652.0378    71.8682    -6.2841   110.6230     0.0329    61.3827    57.0750   135.9911   106.7129     0.0107    -0.2236    88.3726   312.4085     2.4900     2.5055     0.4107     0.0000   921.0714
    257.0000   654.2859    71.6047    -6.2841   112.9308     0.0370    65.1159    57.0800   135.3794   106.5223     0.0106    -0.2245    87.7635   312.4111     2.4905     2.5061     0.4281     0.0000   918.2000
    257.5000   655.2102    71.6047    -6.1115   109.0752     0.0412    64.6837    57.0850   134.7768   106.3498     0.0105    -0.2254    87.1945   312.4445     2.4908     2.5066     0.3991     0.0000   957.3571
