~VERSION INFORMATION
VERS.           1.2   :CWLS Log ASCII Standard - VERSION 1.2
WRAP.           NO    :One Line per depth step
PROD.  Schlumberger   :LAS Producer
PROG.  DLIS to ASCII 2.3                               :LAS Program name and version
CREA.        2015/05/06 16:26                          :LAS Creation date {YYYY/MM/DD hh:mm}
DLIS_CREA.  2015-May-04 11:59                          :DLIS Creation date and time {YYYY-MMM-DD hh:mm}
SOURCE.     301ad50a-0e97-4ef4-9f57-5a70afd84532       :DLIS File Name
#--------------------------------------------------
~WELL INFORMATION
#MNEM.UNIT      DATA             DESCRIPTION
#---- ------ --------------   -----------------------------
STRT .F      23.5000         :START DEPTH     
STOP .F      5264.5000       :STOP DEPTH     
STEP .F       0.5000         :STEP       
NULL .          -999.25      :NULL VALUE
COMP .                 COMPANY:  ADM COMPANY                        
WELL .                    WELL:  CCS#2                              
FLD  .                   FIELD:  WILDCAT                            
LOC  .                LOCATION:  Latitude: 39.885961                
CNTY .                  COUNTY:  MACON                              
STAT .                   STATE:  ILLINOIS                           
CTRY .                 COUNTRY:  USA                                
SRVC .         SERVICE COMPANY:  Schlumberger                       
LATI .DEG             LATITUDE:  39° 53' 9.46" N                    
LONG .DEG            LONGITUDE:  88° 53' 16.958" W                  
API  .              API NUMBER:  12-115-23713-00                    
DATE .                LOG DATE:  03-May-2015
UWI  .          UNIQUE WELL ID:                                     
#-----------------------------------------------------------------------------
~PARAMETER INFORMATION
#MNEM.UNIT    VALUE                      DESCRIPTION
#---- -----   --------------------       ------------------------
CN   .        ADM COMPANY                :Company Name
WN   .        CCS#2                      :Well Name
FN   .        WILDCAT                    :Field Name
FL   .        Latitude  39.885961        :Field Location
FL1  .        Longitude  -88.888044      :Field Location, Line 1
COUN .        MACON                      :County or Parish
STAT .        ILLINOIS                   :State or Province
NATI .        USA                        :Nation
DATE .        03-May-2015                :Tools Above Rotary Table Date
APIN .        12-115-23713-00            :API Well Number
SECT .        32                         :Section
TOWN .        17N                        :Township
RANG .        3E                         :Range
DMF  .        KB                         :Drilling Measured From (Name of Drilling Elevation Reference)
LMF  .        KB                         :Logging Measured From (Name of Logging Elevation Reference)
PDAT .        GL                         :Permanent Datum
ENGI .        Yazan Alhabahbeh           :Engineer s Name
WITN .        Nick Malkewicz             :Witness s Name
LATI .        39° 53' 9.46  N            :Latitude
LONG .        88° 53' 16.958  W          :Longitude
LUL  .        BRADFORD                   :Logging Unit Location
LUN  .        3019                       :Logging Unit Number
RUN  .        2B                         :Run Number
SON  .        D9QJ-00005                 :Service Order Number
BHT  .DEGF     132.00000                 :Bottom Hole Temperature
BS   .IN        17.50000                 :Bit Size
MDEN .G/C3       2.71000                 :Matrix Density for Density Porosity
DFD  .LB/G       9.15000                 :Drilling Fluid Density
DFV  .S         61.00000                 :Drilling Fluid Viscosity
DFL  .C3      -999.25000                 :Drilling Fluid Loss
RMFS .OHMM       0.16000                 :Resistivity of Mud Filtrate Sample
EKB  .F        691.19995                 :Elevation of Kelly Bushing
EGL  .F        675.69995                 :Elevation of Ground Level
BLI  .F       5252.00000                 :Bottom Log Interval
BSAL .PPM     14700.00000                :Borehole Salinity
FLEV .F          8.00000                 :Depth of Drilling Fluid Level to LMF (Log Measured From)
MCST .DEGF      74.30000                 :Mudcake Sample Temperature
MFST .DEGF      72.50000                 :Mud Filtrate Sample Temperature
MRT  .DEGF     135.00000                 :Maximum Recorded Temperature
MST  .DEGF      73.50000                 :Mud Sample Temperature
RMCS .OHMM       0.26600                 :Resistivity of Mud Cake Sample
RMS  .OHMM       0.19000                 :Resistivity of Mud Sample
RW   .OHMM       1.00000                 :Connate Water Resistivity
TDD  .F       5252.00000                 :Driller Total Depth
TDL  .F       5252.00000                 :Logger Total Depth
TLI  .F        200.00000                 :Top Log Interval
HIDE .        WILDCAT                    :Header Identifier
MATR .        LIME                       :Rock Matrix for Neutron Porosity Corrections
FNUM .           1.00000                 :F-Numerator for Formation Factor Formula
FEXP .           2.00000                 :Exponent "m" for Formation Factor Formula
DFT  .        SALT WATER                 :Drilling Fluid Type
DFPH .          11.00000                 :Drilling Fluid pH
MCSS .        Calculated                 :Mudcake Sample Source
MFSS .        Calculated                 :Mud Filtrate Sample Source
FD   .G/C3       1.00000                 :Fluid Density
MSS  .        Active Tank                :Mud Sample Source
OS1  .                                   :Other Services Line 1
OS2  .                                   :Other Services Line 2
OS3  .                                   :Other Services Line 3
OS4  .                                   :Other Services Line 4
OS5  .                                   :Other Services Line 5
R1   .        THANKS FOR CHOOSING

SCHLUMBERGER!!! :Remarks Line 1
R2   .        MATRIX  LIMESTONE          :Remarks Line 2
R3   .        MATRIX DENSITY  2.71 G/CC  :Remarks Line 3
R4   .        All WELL PROPERTIES PROVIDED BY

CLIENT . :Remarks Line 4
R5   .        ALL SCALES ON PRESENTATIONS AS PER

CLIENT REQUEST :Remarks Line 5
R6   .        Temp recorded by sensors inside the tool . :Remarks Line 6
R7   .                                   :Remarks Line 7
R8   .                                   :Remarks Line 8
TCS  .        04 45 00                   :Time Circulation Stopped
TLAB .        22 39 00                   :Time Logger At Bottom
EPD  .C3         675.699951              :Elevation of Permanent Datum above Mean Sea Level
APD  .F          15.500000               :Elevation of Depth Reference (LMF) above Permanent Datum
#-----------------------------------------------------------------------------
~CURVE INFORMATION
#MNEM.UNIT   API CODE                                  DESCRIPTION
#---- -----  --------                                  -----------------------
DEPT .F                                                :DEPTH (BOREHOLE) {F12.4}
C1   .IN                                               :Caliper 1 {F11.4}
C2   .IN                                               :Caliper 2 {F11.4}
CDF  .LBF                                              :Calibrated Downhole Force {F11.4}
CTEM .DEGF                                             :Cartridge Temperature {F11.4}
DCAL .IN                                               :Differential Caliper {F11.4}
DEVI .DEG                                              :Hole Deviation {F11.4}
DEVIM.DEG                                              :Memorized Deviation {F11.4}
DTCO .US/F                                             :Delta-T Compressional {F11.4}
DTSM .US/F                                             :Delta-T Shear {F11.4}
ED   .F                                                :East Departure {F11.4}
GR_EDTC.GAPI                                           :Gamma Ray {F11.4}
GTEM .DEGF                                             :Generalized Borehole Temperature {F11.4}
HAZI .DEG                                              :Hole Azimuth Relative to True North {F11.4}
HAZIM.DEG                                              :Hole Azimuth Relative to True North {F11.4}
ITT  .S                                                :Integrated Transit Time {F11.4}
ND   .F                                                :North Departure {F11.4}
P1AZ .DEG                                              :Pad 1 Azimuth in Horizontal Plane (0 = True North) {F11.4}
PR   .                                                 :Poisson s Ratio {F11.4}
RB   .DEG                                              :Relative Bearing {F11.4}
SDEV .DEG                                              :Sonde Deviation {F11.4}
SDEVM.DEG                                              :Sonde Deviation {F11.4}
SPHI .CFCF                                             :Sonic Porosity {F11.4}
STIT .F                                                :Stuck Tool Indicator, Total {F11.4}
TENS .LBF                                              :Cable Tension {F11.4}
#-----------------------------------------------------------------------------
# 
#      DEPT         C1         C2        CDF        CTEM       DCAL       DEVI      DEVIM       DTCO       DTSM        ED      GR_EDTC      GTEM       HAZI      HAZIM       ITT         ND        P1AZ        PR         RB        SDEV      SDEVM       SPHI       STIT       TENS
#
~A  
# ...
   2807.5000    21.7112    18.5180   230.8811   139.8588     2.2027     0.7746     0.6988    83.9349   151.7621     0.0000    77.6787   102.2117   130.4673   129.7068     0.1320     0.0000   320.7542     0.2797   190.2872     0.7917     0.7127     0.2100     0.0000  2283.7500
   2808.0000    21.7821    18.5105   233.1064   139.8588     2.1851     0.7692     0.6991    83.4781   152.0374     0.0000    72.4341   102.2178   130.1681   129.8683     0.1320     0.0000   320.7598     0.2842   190.5908     0.7861     0.7130     0.2066     0.0000  2261.5000
   2808.5000    21.7191    18.5180   238.8152   139.8588     2.2306     0.7651     0.7024    83.0260   154.0758     0.0000    74.3784   102.2239   130.0288   129.9335     0.1319     0.0000   320.2040     0.2954   190.1732     0.7818     0.7165     0.2032     0.0000  2347.5002
   2809.0000    21.7506    18.5031   234.4438   139.8588     2.2427     0.7598     0.7084    83.0247   154.3006     0.0000    77.4536   102.2300   129.7928   130.0708     0.1319     0.0000   319.9221     0.2963   190.1287     0.7763     0.7227     0.2032     0.0000  2273.3333
   2809.5000    21.8372    18.5031   234.6138   139.8588     2.3119     0.7558     0.7134    83.9936   154.2967     0.0000    82.2534   102.2361   129.6079   130.1006     0.1318     0.0000   319.7985     0.2894   190.1894     0.7722     0.7280     0.2105     0.0000  2344.6667
   2810.0000    22.4199    18.5701   232.6155   139.8588     2.3552     0.7510     0.7173    85.3452   154.7384     0.0000    80.0396   102.2422   129.4542   130.2102     0.1318     0.0000   319.6495     0.2814   190.1949     0.7678     0.7326     0.2206     0.0000  2296.3333
   2810.5000    21.8766    18.4956   234.1937   139.8588     2.1556     0.7471     0.7208    86.5700   158.1666     0.0000    78.5470   102.2483   129.1831   130.1662     0.1318     0.0000   319.6692     0.2861   190.4857     0.7631     0.7357     0.2298     0.0000  2362.6667
   2811.0000    21.4750    18.4584   238.6213   139.8588     2.2674     0.7453     0.7236    87.5228   157.1596     0.0000    81.0832   102.2544   128.7750   130.1336     0.1317     0.0000   319.8747     0.2752   191.0983     0.7609     0.7383     0.2370     0.0000  2339.3333
   2811.5000    23.4200    18.2871   231.4474   139.8588     2.9493     0.7409     0.7226    88.3241   154.6007     0.0000    84.7951   102.2605   128.4656   130.0775     0.1317     0.0000   320.2073     0.2577   191.7404     0.7581     0.7389     0.2430     0.0000  2305.0002
   2812.0000    23.9083    18.4062   232.6663   139.8588     3.3689     0.7372     0.7228    88.1583   150.9382     0.0000    89.4236   102.2666   128.0765   130.0087     0.1316     0.0000   320.1765     0.2411   192.0994     0.7546     0.7393     0.2418     0.0000  2262.6667
   2812.5000    24.0736    18.4509   233.3534   139.8588     2.7217     0.7366     0.7234    87.6682   150.4428     0.0000    91.5811   102.2727   127.7896   129.9280     0.1316     0.0000   320.4231     0.2429   192.6319     0.7541     0.7400     0.2381     0.0000  2299.0000
   2813.0000    23.4003    18.4584   244.0084   139.8588     2.7176     0.7388     0.7274    87.0011   147.4176     0.0000    91.6032   102.2787   127.4986   129.8298     0.1315     0.0000   321.3237     0.2328   193.8229     0.7557     0.7437     0.2331     0.0000  2363.0002
   2813.5000    23.2310    18.4509   233.1272   139.8588     2.7183     0.7401     0.7299    73.6082   134.6310     0.0000    87.2090   102.2848   127.4201   129.7799     0.1315     0.0000   323.9579     0.2868   196.5369     0.7568     0.7462     0.1324     0.0000  2249.6667
   2814.0000    22.1837    18.4584   226.3350   139.8588     2.1492     0.7393     0.7348    60.2152   128.6408     0.0000    78.2858   102.2909   127.5166   129.6150     0.1315     0.0000   324.1796     0.3597   196.6613     0.7551     0.7505     0.0317     0.0000  2234.0000
   2814.5000    21.3451    18.3988   231.9553   139.8588     1.6425     0.7387     0.7388    59.8978   121.3130     0.0000    64.8633   102.2970   127.7051   129.6229     0.1314     0.0000   323.8298     0.3388   196.1228     0.7537     0.7540     0.0293     0.0000  2269.0000
   2815.0000    21.0025    18.3913   227.9886   139.8588     1.5527     0.7349     0.7418    57.1158   115.6895     0.0000    47.3041   102.3031   128.0075   129.7105     0.1314     0.0000   322.9089     0.3389   194.8998     0.7495     0.7568     0.0084     0.0000  2214.0002
   2815.5000    20.7741    18.3020   230.3132   139.8588     1.4527     0.7275     0.7468    56.6828   108.0325     0.0000    33.9100   102.3092   128.5834   129.7906     0.1314     0.0000   320.8622     0.3101   192.2771     0.7417     0.7618     0.0051     0.0000  2252.6665
   2816.0000    20.4592    18.1157   230.4610   139.8588     1.3234     0.7199     0.7489    55.5250   101.0427     0.0000    26.8356   102.3153   128.9406   129.8698     0.1313     0.0000   319.9744     0.2837   191.0328     0.7336     0.7637    -0.0036     0.0000  2216.7500
   2816.5000    20.3489    18.1157   233.9837   139.8588     1.2767     0.7100     0.7507    55.6520    94.9069     0.0000    23.2052   102.3214   129.2315   130.0277     0.1313     0.0000   319.5885     0.2380   190.3561     0.7232     0.7655    -0.0026     0.0000  2304.2500
   2817.0000    20.2229    18.1232   227.7401   139.8588     1.2642     0.7025     0.7518    54.2480    91.9632     0.0000    22.5268   102.3275   129.5509   130.1690     0.1313     0.0000   319.4867     0.2332   189.9340     0.7153     0.7665    -0.0132     0.0000  2246.3333
   2817.5000    20.0890    18.1232   232.9495   139.8588     1.2640     0.6990     0.7525    51.4035    86.8849     0.0000    20.5143   102.3336   129.7583   130.4445     0.1313     0.0000   319.0610     0.2307   189.3027     0.7116     0.7671    -0.0346     0.0000  2303.6667
   2818.0000    20.0930    18.0859   231.7522   139.8588     1.2613     0.7012     0.7521    50.7181    83.7572     0.0000    19.9167   102.3397   129.9101   130.6093     0.1312     0.0000   318.6675     0.2105   188.7574     0.7139     0.7666    -0.0397     0.0000  2307.3335
   2818.5000    20.0497    18.0636   230.9457   139.8588     1.2640     0.7046     0.7501    50.3166    82.7721     0.0000    19.0417   102.3458   129.9665   130.7943     0.1312     0.0000   318.8093     0.2069   188.8424     0.7174     0.7646    -0.0427     0.0000  2286.0000
   2819.0000    20.0418    18.0561   234.0544   139.8588     1.2620     0.7103     0.7505    50.2115    82.4200     0.0000    20.5050   102.3519   130.2175   130.9374     0.1312     0.0000   318.5884     0.2049   188.3708     0.7232     0.7650    -0.0435     0.0000  2347.0000
   2819.5000    20.0418    18.0487   231.2782   139.8588     1.2613     0.7149     0.7534    50.1755    81.8001     0.0000    22.6084   102.3580   130.2159   131.0114     0.1312     0.0000   318.4580     0.1984   188.2412     0.7280     0.7680    -0.0438     0.0000  2306.2500
   2820.0000    20.0497    17.9593   234.2099   139.8588     1.2640     0.7214     0.7553    50.0149    82.4189     0.0000    22.7416   102.3641   130.0990   131.0532     0.1311     0.0000   318.3810     0.2085   188.2809     0.7347     0.7700    -0.0450     0.0000  2355.0002
   2820.5000    20.0418    17.9816   231.2782   139.8588     1.2494     0.7239     0.7585    49.8414    82.3329     0.0000    23.0446   102.3701   130.1355   131.1532     0.1311     0.0000   318.3418     0.2108   188.2048     0.7373     0.7733    -0.0463     0.0000  2292.0000
   2821.0000    20.0024    17.9891   235.7450   139.8588     1.2460     0.7246     0.7623    49.7508    83.6058     0.0000    22.5977   102.3762   130.1228   131.0822     0.1311     0.0000   318.1768     0.2259   188.0542     0.7381     0.7772    -0.0470     0.0000  2329.5002
   2821.5000    19.9946    17.9965   231.1558   139.8588     1.2767     0.7251     0.7672    49.6307    83.7168     0.0000    23.8656   102.3823   130.0688   130.9718     0.1311     0.0000   318.0430     0.2290   187.9731     0.7386     0.7823    -0.0479     0.0000  2277.7500
