~VERSION INFORMATION
VERS.           1.2   :CWLS Log ASCII Standard - VERSION 1.2
WRAP.           NO    :One Line per depth step
PROD.  Schlumberger   :LAS Producer
PROG.  DLIS to ASCII 2.3                               :LAS Program name and version
CREA.        2015/01/14 20:43                          :LAS Creation date {YYYY/MM/DD hh:mm}
DLIS_CREA.  2015-Jan-14 13:25                          :DLIS Creation date and time {YYYY-MMM-DD hh:mm}
SOURCE.     d5fbb1e7-1f44-4e43-b8fb-7fdeb49dde7f       :DLIS File Name
#--------------------------------------------------
~WELL INFORMATION
#MNEM.UNIT      DATA             DESCRIPTION
#---- ------ --------------   -----------------------------
STRT .F       8.0000         :START DEPTH     
STOP .F      353.0000        :STOP DEPTH     
STEP .F       0.5000         :STEP       
NULL .          -999.25      :NULL VALUE
COMP .                 COMPANY:  ADM Company                        
WELL .                    WELL:  CCS#2                              
FLD  .                   FIELD:  Wildcat                            
LOC  .                LOCATION:  Latitude: 39.885961                
CNTY .                  COUNTY:  Macon                              
STAT .                   STATE:  Illinois                           
CTRY .                 COUNTRY:  USA                                
SRVC .         SERVICE COMPANY:  Schlumberger                       
LATI .DEG             LATITUDE:  39° 53' 9.46" N                    
LONG .DEG            LONGITUDE:  88° 53' 16.959" W                  
API  .              API NUMBER:  12-115-23713-00                    
DATE .                LOG DATE:  12-Jan-2015
UWI  .          UNIQUE WELL ID:                                     
#-----------------------------------------------------------------------------
~PARAMETER INFORMATION
#MNEM.UNIT    VALUE                      DESCRIPTION
#---- -----   --------------------       ------------------------
CN   .        ADM Company                :Company Name
WN   .        CCS#2                      :Well Name
FN   .        Wildcat                    :Field Name
FL   .        Latitude  39.885961        :Field Location
FL1  .        Longitude  -88.888044      :Field Location, Line 1
COUN .        Macon                      :County or Parish
STAT .        Illinois                   :State or Province
NATI .        USA                        :Nation
DATE .        12-Jan-2015                :Tools Above Rotary Table Date
APIN .        12-115-23713-00            :API Well Number
SECT .        32                         :Section
TOWN .        17N                        :Township
RANG .        3E                         :Range
DMF  .        KB                         :Drilling Measured From (Name of Drilling Elevation Reference)
LMF  .        KB                         :Logging Measured From (Name of Logging Elevation Reference)
PDAT .        GL                         :Permanent Datum
ENGI .        Devin Arnold               :Engineer s Name
WITN .        Nick Malkewicz             :Witness s Name
LATI .        39° 53' 9.46  N            :Latitude
LONG .        88° 53' 16.959  W          :Longitude
LUL  .        Bradford                   :Logging Unit Location
LUN  .        3095                       :Logging Unit Number
RUN  .        1                          :Run Number
SON  .        D71E-00006                 :Service Order Number
BHT  .DEGF      58.00000                 :Bottom Hole Temperature
BS   .IN        26.00000                 :Bit Size
MDEN .G/C3       2.71000                 :Matrix Density for Density Porosity
DFD  .LB/G      10.10000                 :Drilling Fluid Density
DFV  .S         60.00000                 :Drilling Fluid Viscosity
DFL  .C3      -999.25000                 :Drilling Fluid Loss
RMFS .OHMM       1.23200                 :Resistivity of Mud Filtrate Sample
EKB  .F        691.19995                 :Elevation of Kelly Bushing
EGL  .F        675.69995                 :Elevation of Ground Level
BLI  .F        342.00000                 :Bottom Log Interval
BSAL .PPM        0.00000                 :Borehole Salinity
FLEV .F          8.00000                 :Depth of Drilling Fluid Level to LMF (Log Measured From)
MCST .DEGF      42.80000                 :Mudcake Sample Temperature
MFST .DEGF      42.80000                 :Mud Filtrate Sample Temperature
MRT  .DEGF      58.00000                 :Maximum Recorded Temperature
MST  .DEGF      42.80000                 :Mud Sample Temperature
RMCS .OHMM       1.84800                 :Resistivity of Mud Cake Sample
RMS  .OHMM       1.54000                 :Resistivity of Mud Sample
RW   .OHMM       1.00000                 :Connate Water Resistivity
TDD  .F        349.00000                 :Driller Total Depth
TDL  .F        349.00000                 :Logger Total Depth
TLI  .F         50.00000                 :Top Log Interval
HIDE .        Wildcat                    :Header Identifier
MATR .        LIME                       :Rock Matrix for Neutron Porosity Corrections
FNUM .           1.00000                 :F-Numerator for Formation Factor Formula
FEXP .           2.00000                 :Exponent "m" for Formation Factor Formula
DFT  .        Fresh Mud                  :Drilling Fluid Type
DFPH .        -999.25000                 :Drilling Fluid pH
MCSS .        Calculated                 :Mudcake Sample Source
MFSS .        Calculated                 :Mud Filtrate Sample Source
FD   .G/C3       1.00000                 :Fluid Density
MSS  .        Active Tank                :Mud Sample Source
OS1  .                                   :Other Services Line 1
OS2  .                                   :Other Services Line 2
OS3  .                                   :Other Services Line 3
OS4  .                                   :Other Services Line 4
OS5  .                                   :Other Services Line 5
R1   .        Matrix Density  Limestone. :Remarks Line 1
R2   .        Mud Sample taken on location. :Remarks Line 2
R3   .        Presentations as per client request. :Remarks Line 3
R4   .        No Chemical Sources ran due to possible potable water zones. :Remarks Line 4
R5   .        Bottom Hole Temperature taken from GM2 temperature log provided by the client. 58degF :Remarks Line 5
R6   .                                   :Remarks Line 6
R7   .                                   :Remarks Line 7
R8   .        APS ran outside max bit size range of 20in causing faulty data. :Remarks Line 8
TCS  .        19 45 00                   :Time Circulation Stopped
TLAB .        01 15 00                   :Time Logger At Bottom
NMT  .        NOBARITE                   :HRDD Mud Type for Nuclear Devices
EPD  .C3         675.699951              :Elevation of Permanent Datum above Mean Sea Level
APD  .F          15.500000               :Elevation of Depth Reference (LMF) above Permanent Datum
#-----------------------------------------------------------------------------
~CURVE INFORMATION
#MNEM.UNIT   API CODE                                  DESCRIPTION
#---- -----  --------                                  -----------------------
DEPT .F                                                :DEPTH (BOREHOLE) {F12.4}
AF10 .OHMM                                             :Array Induction Four Foot Resistivity A10 {F11.4}
AF20 .OHMM                                             :Array Induction Four Foot Resistivity A20 {F11.4}
AF30 .OHMM                                             :Array Induction Four Foot Resistivity A30 {F11.4}
AF60 .OHMM                                             :Array Induction Four Foot Resistivity A60 {F11.4}
AF90 .OHMM                                             :Array Induction Four Foot Resistivity A90 {F11.4}
AO10 .OHMM                                             :Array Induction One Foot Resistivity A10 {F11.4}
AO20 .OHMM                                             :Array Induction One Foot Resistivity A20 {F11.4}
AO30 .OHMM                                             :Array Induction One Foot Resistivity A30 {F11.4}
AO60 .OHMM                                             :Array Induction One Foot Resistivity A60 {F11.4}
AO90 .OHMM                                             :Array Induction One Foot Resistivity A90 {F11.4}
AT10 .OHMM                                             :Array Induction Two Foot Resistivity A10 {F11.4}
AT20 .OHMM                                             :Array Induction Two Foot Resistivity A20 {F11.4}
AT30 .OHMM                                             :Array Induction Two Foot Resistivity A30 {F11.4}
AT60 .OHMM                                             :Array Induction Two Foot Resistivity A60 {F11.4}
AT90 .OHMM                                             :Array Induction Two Foot Resistivity A90 {F11.4}
AFEC .HZ                                               :Far Detector Count Rate {F11.4}
ANEC .HZ                                               :Near Detector Count Rate {F11.4}
AORT .OHMM                                             :Array Induction One Foot Rt {F11.4}
AORX .OHMM                                             :Array Induction One Foot Rxo {F11.4}
APDC .CFCF                                             :Near/Array Corrected Dolomite Porosity {F11.4}
APLC .PU                                               :Near/Array Corrected Limestone Porosity {F11.4}
APSC .CFCF                                             :Near/Array Corrected Sandstone Porosity {F11.4}
CDF  .LBF                                              :Calibrated Downhole Force {F11.4}
CTEM .DEGF                                             :Cartridge Temperature {F11.4}
DCAL .IN                                               :Differential Caliper {F11.4}
ED   .F                                                :East Departure {F11.4}
FPLC .CFCF                                             :Near/Far Corrected Limestone Porosity {F11.4}
GR_EDTC.GAPI                                           :Gamma Ray {F11.4}
GTEM .DEGF                                             :Generalized Borehole Temperature {F11.4}
HASC .CFCF                                             :APS High Resolution Near/Array Corrected Sandstone Porosity {F11.4}
HSIG .CU                                               :APS High Resolution Formation Capture Cross Section {F11.4}
HSTO .IN                                               :APS High Resolution Effective Standoff in Limestone {F11.4}
ND   .F                                                :North Departure {F11.4}
QSGF .                                                 :Quality of Formation Sigma {F11.4}
SIGF .CU                                               :Formation Capture Cross Section {F11.4}
SP   .MV                                               :Spontaneous Potential {F11.4}
SPAR .MV                                               :SP, Armor Return Compensated {F11.4}
STIT .F                                                :Stuck Tool Indicator, Total {F11.4}
STOF .IN                                               :Effective Standoff in Limestone {F11.4}
STPC .CFCF                                             :Corrected Standoff Porosity {F11.4}
TENS .LBF                                              :Cable Tension {F11.4}
#-----------------------------------------------------------------------------
# 
#      DEPT        AF10       AF20       AF30       AF60       AF90       AO10       AO20       AO30       AO60       AO90       AT10       AT20       AT30       AT60       AT90       AFEC       ANEC       AORT       AORX       APDC       APLC       APSC       CDF        CTEM       DCAL        ED        FPLC     GR_EDTC      GTEM       HASC       HSIG       HSTO        ND        QSGF       SIGF        SP        SPAR       STIT       STOF       STPC       TENS
#
~A  
# ...
     98.0000    10.8645    19.3501    29.2115    58.3852    57.4781    10.5644    17.9482    25.9980    50.8740    52.8862    10.7626    18.8745    28.5224    57.1063    56.1661   362.0000  2402.8572    55.3311     9.0653     0.8647    86.6301     0.8683   640.2556    90.4471     0.0000     0.4675     0.8197    43.3833    55.4901     0.8244    25.1653    -0.1094     0.0075     0.2471    24.9370  -355.9329  -357.8739     0.0000    -0.3078     0.7909   611.4286
     98.5000    10.9741    19.5139    29.5531    59.4647    58.5209    10.6222    17.3437    25.2248    50.9559    53.3001    10.7783    18.7277    28.3370    55.9845    55.0371   360.5714  2395.4285    57.8331     9.2741     0.8077    81.0059     0.8136   643.8500    90.4471     0.0000     0.4674     0.7992    42.4587    55.4951     0.8545    24.9374    -0.2572     0.0113     0.2247    25.2443  -357.0370  -358.4745     0.0000    -0.0578     0.7906   633.9615
     99.0000    11.0619    19.6942    30.0002    60.6325    59.6446    11.4438    20.1832    28.5444    61.0308    64.5538    11.1407    19.7374    30.1308    60.1232    57.0284   373.1429  2398.2856    66.1281     9.4198     0.8021    80.4615     0.8084   641.8298    90.4471     0.0000     0.4673     0.8530    43.0051    55.5001     0.8505    25.5495    -0.2686     0.0151     0.2290    25.1700  -358.3217  -359.0851     0.0000    -0.0274     0.7908   605.1429
     99.5000    11.1533    19.9266    30.5189    62.0127    60.7934    11.7442    21.5056    29.9009    64.1269    68.2746    11.3070    20.2483    31.2565    62.9809    57.5234   344.5714  2383.0000    68.2729     9.4704     0.8466    84.8463     0.8509   636.3714    90.4471     0.0000     0.4672     0.8150    41.7297    55.5051     0.8394    25.2674    -0.1927     0.0190     0.2187    25.9546  -359.9792  -359.7159     0.0000    -0.2469     0.7898   565.0001
    100.0000    11.2459    20.1750    31.0517    63.2584    61.5386    10.9545    19.4560    27.9786    58.7994    63.1294    11.1705    19.9174    30.6251    62.6726    54.8769   368.0000  2337.1428    64.5181     9.3486     0.8981    89.9259     0.9005   637.0814    90.4471     0.0000     0.4669     0.8838    43.5059    55.5101     0.9289    26.9502    -0.2937     0.0229     0.2500    25.4334  -361.4213  -360.2578     0.0000    -0.3568     0.7904   571.7407
    100.5000    11.3286    20.3590    31.4960    64.0783    61.6880    10.6862    18.6690    26.4826    54.8257    59.2039    11.2805    20.3194    31.2754    65.0075    53.1189   357.1429  2419.4285    61.2483     9.2259     0.9199    92.0777     0.9216   639.1100    90.4471     0.0000     0.4666     0.8188    45.4987    55.5151     0.9415    27.2415    -0.2125     0.0268     0.2205    26.5791  -362.4908  -360.7092     0.0000    -0.3184     0.7908   583.4815
    101.0000    11.3481    20.3945    31.6503    63.8677    60.8777    12.5915    24.9296    34.9648    74.0651    81.0574    11.5456    21.1066    33.2695    68.1923    52.9461   363.4286  2367.4285    78.0437     9.5127     0.9053    90.6393     0.9075   639.0113    90.4471     0.0000     0.4662     0.7483    47.9304    55.5201     0.9444    25.5462    -0.1603     0.0307     0.2163    27.2700  -363.2778  -361.0378     0.0000    -0.3526     0.7908   588.4445
    101.5000    11.2755    20.1659    31.2619    62.1875    58.7457    11.7495    22.1759    32.4071    77.1649    86.6499    11.5590    21.0538    33.2184    66.5523    50.4205   382.8571  2440.5715    85.2490     9.5912     0.9032    90.4298     0.9054   638.1226    90.4471     0.0000     0.4658     0.6787    46.9911    55.5251     0.8739    26.4432    -0.3248     0.0345     0.2422    25.8333  -363.7612  -361.2130     0.0000    -0.3550     0.7908   651.2593
    102.0000    11.0756    19.5847    30.1830    59.0071    55.2359    10.9779    19.6506    29.7385    77.3516    88.2951    11.3496    20.2206    31.4763    62.1021    46.9733   379.4286  2389.1428    90.9524     9.5944     0.8795    88.0939     0.8825   639.1100    90.4471     0.0000     0.4652     0.6697    44.7489    55.5301     0.9466    26.1158    -0.1821     0.0384     0.2422    25.6707  -363.9190  -361.2574     0.0000    -0.3434     0.7908   660.3704
    102.5000    10.7420    18.5600    28.3948    54.7896    50.6647    11.1512    19.1371    28.5186    76.3148    87.5684    11.1127    19.3162    29.5629    56.4616    42.8759   362.8571  2391.4285    91.0783     9.5159     0.9183    91.9192     0.9200   643.4296    90.4471     0.0000     0.4646     0.7743    44.6459    55.5351     0.8147    25.5741    -0.0560     0.0424     0.2396    25.6239  -363.6945  -361.1711     0.0000    -0.3289     0.7915   687.6296
    103.0000    10.3812    17.5677    26.7177    50.6192    46.4445    10.8170    19.4754    27.3718    68.2749    76.5508    10.4809    17.7338    27.2391    50.5743    38.5956   364.0000  2381.1428    78.5955     9.1788     0.8753    87.6810     0.8785   650.3619    90.4471     0.0000     0.4640     0.8748    42.8721    55.5401     0.8835    23.0485    -0.3449     0.0464     0.2602    24.5731  -362.9028  -360.9258     0.0000    -0.3355     0.7903   736.7500
    103.5000    10.0300    16.6515    25.1965    47.2215    43.2214     9.3269    14.9054    20.5168    49.5396    55.6689     9.5025    15.3312    22.9957    41.1627    31.7181   354.8571  2443.4285    63.8993     8.6874     0.9188    91.9758     0.9206   648.7875    90.4471     0.0000     0.4632     0.7964    41.3179    55.5451     0.9570    24.0784    -0.0408     0.0504     0.2647    23.9671  -361.4933  -360.5367     0.0000    -0.3136     0.7895   706.8519
    104.0000     9.7492    16.1139    24.3911    45.6779    41.6518     8.6253    13.1984    18.7840    41.1887    46.0252     9.1457    14.5200    21.6229    38.1442    30.0191   378.2857  2420.0000    54.4476     8.2421     0.9295    93.0263     0.9309   645.8251    90.4471     0.0000     0.4624     0.7831    40.4545    55.5501     0.9779    24.2467     0.2496     0.0543     0.2405    24.8507  -359.6597  -360.0572     0.0000    -0.2656     0.7895   704.4074
    104.5000     9.5467    15.8429    24.0019    45.2759    41.1928     9.5433    16.4787    23.0680    56.4444    65.4189     9.5221    15.7282    24.0113    43.5289    34.3847   363.4286  2405.0000    71.2361     8.4566     0.9746    97.4877     0.9750   636.5862    90.4471     0.0000     0.4616     0.7336    42.1134    55.5551     0.9115    23.7975    -0.3439     0.0583     0.2906    24.4994  -357.8889  -359.5398     0.0000     0.2001     0.7905   646.5926
    105.0000     9.3657    15.5075    23.6105    45.1859    41.1163    10.6344    19.5767    27.9723    75.9800    84.3087     9.6843    16.2601    25.2402    46.7128    37.2212   372.5714  2389.1428    87.1564     8.5020     0.9408    94.1502     0.9420   639.8746    90.4471     0.0000     0.4606     0.9520    43.8453    55.5601     0.9442    23.9044    -0.1701     0.0624     0.2335    24.7394  -356.5463  -359.0546     0.0000    -0.1967     0.7901   637.3928
    105.5000     9.1655    15.1491    23.3175    45.7816    41.7801     9.1662    15.3639    23.0297    72.1997    89.9568     9.2546    15.4098    23.8383    45.4024    36.1998   332.0000  2451.4285    99.7705     8.2579     0.9087    90.9753     0.9108   645.1691    90.4471     0.0000     0.4596     0.9636    41.4979    55.5651     0.9264    24.9465    -0.3147     0.0664     0.2512    25.2686  -355.6607  -358.6514     0.0000    -0.3498     0.7913   622.4814
    106.0000     8.9623    14.7350    22.9405    46.5663    42.8760     8.3442    12.9561    20.0320    67.7385    84.4870     8.7381    14.2714    22.1897    43.5389    34.7060   352.5714  2438.2856   112.7816     7.9521     0.8927    89.4005     0.8953   637.6617    90.4471     0.0000     0.4585     0.9872    39.3894    55.5701     0.9250    24.8127    -0.3173     0.0704     0.2558    25.1861  -355.1597  -358.2924     0.0000    -0.3615     0.7927   607.8148
    106.5000     8.7419    14.3492    22.6320    47.8561    44.2789     8.5311    13.9807    21.4899    92.9022   121.9165     8.6035    13.9946    22.3023    45.6930    36.4331   362.0000  2333.7144   146.2135     7.8199     0.8788    88.0204     0.8818   637.1068    90.4471     0.0000     0.4573     0.7884    38.5680    55.5751     0.8569    25.1838    -0.2622     0.0745     0.2600    24.6698  -355.2523  -358.0925     0.0000    -0.3415     0.7941   565.2857
