~VERSION INFORMATION
VERS.           1.2   :CWLS Log ASCII Standard - VERSION 1.2
WRAP.           NO    :One Line per depth step
PROD.  Schlumberger   :LAS Producer
PROG.  DLIS to ASCII 2.3                               :LAS Program name and version
CREA.        2015/01/14 20:43                          :LAS Creation date {YYYY/MM/DD hh:mm}
DLIS_CREA.  2015-Jan-14 13:25                          :DLIS Creation date and time {YYYY-MMM-DD hh:mm}
SOURCE.     d5fbb1e7-1f44-4e43-b8fb-7fdeb49dde7f       :DLIS File Name
#--------------------------------------------------
~WELL INFORMATION
#MNEM.UNIT      DATA             DESCRIPTION
#---- ------ --------------   -----------------------------
STRT .F       8.0000         :START DEPTH     
STOP .F      353.0000        :STOP DEPTH     
STEP .F       0.5000         :STEP       
NULL .          -999.25      :NULL VALUE
COMP .                 COMPANY:  ADM Company                        
WELL .                    WELL:  CCS#2                              
FLD  .                   FIELD:  Wildcat                            
LOC  .                LOCATION:  Latitude: 39.885961                
CNTY .                  COUNTY:  Macon                              
STAT .                   STATE:  Illinois                           
CTRY .                 COUNTRY:  USA                                
SRVC .         SERVICE COMPANY:  Schlumberger                       
LATI .DEG             LATITUDE:  39° 53' 9.46" N                    
LONG .DEG            LONGITUDE:  88° 53' 16.959" W                  
API  .              API NUMBER:  12-115-23713-00                    
DATE .                LOG DATE:  12-Jan-2015
UWI  .          UNIQUE WELL ID:                                     
#-----------------------------------------------------------------------------
~PARAMETER INFORMATION
#MNEM.UNIT    VALUE                      DESCRIPTION
#---- -----   --------------------       ------------------------
CN   .        ADM Company                :Company Name
WN   .        CCS#2                      :Well Name
FN   .        Wildcat                    :Field Name
FL   .        Latitude  39.885961        :Field Location
FL1  .        Longitude  -88.888044      :Field Location, Line 1
COUN .        Macon                      :County or Parish
STAT .        Illinois                   :State or Province
NATI .        USA                        :Nation
DATE .        12-Jan-2015                :Tools Above Rotary Table Date
APIN .        12-115-23713-00            :API Well Number
SECT .        32                         :Section
TOWN .        17N                        :Township
RANG .        3E                         :Range
DMF  .        KB                         :Drilling Measured From (Name of Drilling Elevation Reference)
LMF  .        KB                         :Logging Measured From (Name of Logging Elevation Reference)
PDAT .        GL                         :Permanent Datum
ENGI .        Devin Arnold               :Engineer s Name
WITN .        Nick Malkewicz             :Witness s Name
LATI .        39° 53' 9.46  N            :Latitude
LONG .        88° 53' 16.959  W          :Longitude
LUL  .        Bradford                   :Logging Unit Location
LUN  .        3095                       :Logging Unit Number
RUN  .        1                          :Run Number
SON  .        D71E-00006                 :Service Order Number
BHT  .DEGF      58.00000                 :Bottom Hole Temperature
BS   .IN        26.00000                 :Bit Size
MDEN .G/C3       2.71000                 :Matrix Density for Density Porosity
DFD  .LB/G      10.10000                 :Drilling Fluid Density
DFV  .S         60.00000                 :Drilling Fluid Viscosity
DFL  .C3      -999.25000                 :Drilling Fluid Loss
RMFS .OHMM       1.23200                 :Resistivity of Mud Filtrate Sample
EKB  .F        691.19995                 :Elevation of Kelly Bushing
EGL  .F        675.69995                 :Elevation of Ground Level
BLI  .F        342.00000                 :Bottom Log Interval
BSAL .PPM        0.00000                 :Borehole Salinity
FLEV .F          8.00000                 :Depth of Drilling Fluid Level to LMF (Log Measured From)
MCST .DEGF      42.80000                 :Mudcake Sample Temperature
MFST .DEGF      42.80000                 :Mud Filtrate Sample Temperature
MRT  .DEGF      58.00000                 :Maximum Recorded Temperature
MST  .DEGF      42.80000                 :Mud Sample Temperature
RMCS .OHMM       1.84800                 :Resistivity of Mud Cake Sample
RMS  .OHMM       1.54000                 :Resistivity of Mud Sample
RW   .OHMM       1.00000                 :Connate Water Resistivity
TDD  .F        349.00000                 :Driller Total Depth
TDL  .F        349.00000                 :Logger Total Depth
TLI  .F         50.00000                 :Top Log Interval
HIDE .        Wildcat                    :Header Identifier
MATR .        LIME                       :Rock Matrix for Neutron Porosity Corrections
FNUM .           1.00000                 :F-Numerator for Formation Factor Formula
FEXP .           2.00000                 :Exponent "m" for Formation Factor Formula
DFT  .        Fresh Mud                  :Drilling Fluid Type
DFPH .        -999.25000                 :Drilling Fluid pH
MCSS .        Calculated                 :Mudcake Sample Source
MFSS .        Calculated                 :Mud Filtrate Sample Source
FD   .G/C3       1.00000                 :Fluid Density
MSS  .        Active Tank                :Mud Sample Source
OS1  .                                   :Other Services Line 1
OS2  .                                   :Other Services Line 2
OS3  .                                   :Other Services Line 3
OS4  .                                   :Other Services Line 4
OS5  .                                   :Other Services Line 5
R1   .        Matrix Density  Limestone. :Remarks Line 1
R2   .        Mud Sample taken on location. :Remarks Line 2
R3   .        Presentations as per client request. :Remarks Line 3
R4   .        No Chemical Sources ran due to possible potable water zones. :Remarks Line 4
R5   .        Bottom Hole Temperature taken from GM2 temperature log provided by the client. 58degF :Remarks Line 5
R6   .                                   :Remarks Line 6
R7   .                                   :Remarks Line 7
R8   .        APS ran outside max bit size range of 20in causing faulty data. :Remarks Line 8
TCS  .        19 45 00                   :Time Circulation Stopped
TLAB .        01 15 00                   :Time Logger At Bottom
NMT  .        NOBARITE                   :HRDD Mud Type for Nuclear Devices
EPD  .C3         675.699951              :Elevation of Permanent Datum above Mean Sea Level
APD  .F          15.500000               :Elevation of Depth Reference (LMF) above Permanent Datum
#-----------------------------------------------------------------------------
~CURVE INFORMATION
#MNEM.UNIT   API CODE                                  DESCRIPTION
#---- -----  --------                                  -----------------------
DEPT .F                                                :DEPTH (BOREHOLE) {F12.4}
AF10 .OHMM                                             :Array Induction Four Foot Resistivity A10 {F11.4}
AF20 .OHMM                                             :Array Induction Four Foot Resistivity A20 {F11.4}
AF30 .OHMM                                             :Array Induction Four Foot Resistivity A30 {F11.4}
AF60 .OHMM                                             :Array Induction Four Foot Resistivity A60 {F11.4}
AF90 .OHMM                                             :Array Induction Four Foot Resistivity A90 {F11.4}
AO10 .OHMM                                             :Array Induction One Foot Resistivity A10 {F11.4}
AO20 .OHMM                                             :Array Induction One Foot Resistivity A20 {F11.4}
AO30 .OHMM                                             :Array Induction One Foot Resistivity A30 {F11.4}
AO60 .OHMM                                             :Array Induction One Foot Resistivity A60 {F11.4}
AO90 .OHMM                                             :Array Induction One Foot Resistivity A90 {F11.4}
AT10 .OHMM                                             :Array Induction Two Foot Resistivity A10 {F11.4}
AT20 .OHMM                                             :Array Induction Two Foot Resistivity A20 {F11.4}
AT30 .OHMM                                             :Array Induction Two Foot Resistivity A30 {F11.4}
AT60 .OHMM                                             :Array Induction Two Foot Resistivity A60 {F11.4}
AT90 .OHMM                                             :Array Induction Two Foot Resistivity A90 {F11.4}
AFEC .HZ                                               :Far Detector Count Rate {F11.4}
ANEC .HZ                                               :Near Detector Count Rate {F11.4}
AORT .OHMM                                             :Array Induction One Foot Rt {F11.4}
AORX .OHMM                                             :Array Induction One Foot Rxo {F11.4}
APDC .CFCF                                             :Near/Array Corrected Dolomite Porosity {F11.4}
APLC .PU                                               :Near/Array Corrected Limestone Porosity {F11.4}
APSC .CFCF                                             :Near/Array Corrected Sandstone Porosity {F11.4}
CDF  .LBF                                              :Calibrated Downhole Force {F11.4}
CTEM .DEGF                                             :Cartridge Temperature {F11.4}
DCAL .IN                                               :Differential Caliper {F11.4}
ED   .F                                                :East Departure {F11.4}
FPLC .CFCF                                             :Near/Far Corrected Limestone Porosity {F11.4}
GR_EDTC.GAPI                                           :Gamma Ray {F11.4}
GTEM .DEGF                                             :Generalized Borehole Temperature {F11.4}
HASC .CFCF                                             :APS High Resolution Near/Array Corrected Sandstone Porosity {F11.4}
HSIG .CU                                               :APS High Resolution Formation Capture Cross Section {F11.4}
HSTO .IN                                               :APS High Resolution Effective Standoff in Limestone {F11.4}
ND   .F                                                :North Departure {F11.4}
QSGF .                                                 :Quality of Formation Sigma {F11.4}
SIGF .CU                                               :Formation Capture Cross Section {F11.4}
SP   .MV                                               :Spontaneous Potential {F11.4}
SPAR .MV                                               :SP, Armor Return Compensated {F11.4}
STIT .F                                                :Stuck Tool Indicator, Total {F11.4}
STOF .IN                                               :Effective Standoff in Limestone {F11.4}
STPC .CFCF                                             :Corrected Standoff Porosity {F11.4}
TENS .LBF                                              :Cable Tension {F11.4}
#-----------------------------------------------------------------------------
# 
#      DEPT        AF10       AF20       AF30       AF60       AF90       AO10       AO20       AO30       AO60       AO90       AT10       AT20       AT30       AT60       AT90       AFEC       ANEC       AORT       AORX       APDC       APLC       APSC       CDF        CTEM       DCAL        ED        FPLC     GR_EDTC      GTEM       HASC       HSIG       HSTO        ND        QSGF       SIGF        SP        SPAR       STIT       STOF       STPC       TENS
#
~A  
# ...
    323.0000     3.2732     3.1474     3.1294     3.1930     3.1932     3.2147     3.0798     3.0412     3.1317     3.1360     3.2200     3.0789     3.0480     3.1134     3.0517   440.5714  2528.0000     3.1370     3.2342     0.5277    47.5596     0.5088   642.3250    88.4706     0.0000     0.4571     0.4023    73.0148    57.7400     0.4589    29.0863     1.1485    -0.1573     0.7657    29.7342  -117.9598  -117.7662     0.0000     1.0508     0.7901   898.1072
    323.5000     3.3143     3.1773     3.1680     3.2420     3.2423     3.2514     3.1289     3.0870     3.1920     3.1981     3.1906     3.0840     3.0757     3.1394     3.0921   432.0000  2549.7778     3.2069     3.2439     0.4934    41.6582     0.4559   645.8293    88.4706     0.0000     0.4571     0.3738    73.0148    57.7450     0.4372    28.8554     1.1922    -0.1573     0.8889    28.9939  -116.5804  -116.5277     0.0000     1.1453     0.7896   905.3572
    324.0000     3.4155     3.2597     3.2603     3.3489     3.3506     3.1443     3.0625     3.0699     3.1926     3.2006     3.1986     3.0902     3.1065     3.2005     3.1535   442.5000  2554.3333     3.3468     3.3232     0.4842    41.7674     0.4551   643.2957    88.4706     0.0000     0.4571     0.3467    73.0148    57.7500     0.4150    28.5954     1.2305    -0.1573     0.6962    30.1499  -115.6505  -115.4188     0.0000     0.9932     0.7627   904.7500
    324.5000     3.5629     3.3946     3.4059     3.5138     3.5315     3.1634     3.0731     3.1372     3.3086     3.3188     3.4175     3.2446     3.2633     3.3894     3.3492   470.5454  2543.2727     3.6038     3.5177     0.4113    35.3175     0.3901   641.4998    88.4706     0.0000     0.4571     0.3184    73.0148    57.7550     0.3662    28.9960     1.4280    -0.1573     0.7165    29.7326  -114.3036  -114.3896     0.0000     0.9982     0.7305   950.1428
    325.0000     3.7265     3.5485     3.5695     3.6949     3.7144     3.9675     3.7179     3.8478     4.1256     4.1426     3.9036     3.7050     3.7647     3.9272     3.8927   465.8182  2567.6365     3.9762     3.8014     0.2788    28.3958     0.3085   643.3079    88.4706     0.0000     0.4571     0.2808    73.0148    57.7600     0.3693    30.2545     0.8145    -0.1573     1.3306    27.8609  -113.2134  -113.5438     0.0000     1.5091     0.7502   922.3928
    325.5000     3.8615     3.6682     3.6964     3.8394     3.8727     5.3831     4.5148     4.5628     5.0609     5.0909     4.3953     4.0798     4.1376     4.3289     4.3158   469.0000  2597.0908     4.3177     4.0066     0.1758    18.2525     0.2134   645.6616    88.4706     0.0000     0.4571     0.2116    73.0148    57.7650     0.3139    28.6859     0.9933    -0.1573     2.0320    25.4125  -112.7121  -112.9289     0.0000     2.0000     0.6990   947.1071
    326.0000     3.8892     3.7100     3.7429     3.8992     3.9404     4.1111     3.8603     3.9818     4.5084     4.5351     4.1391     3.9027     3.9527     4.1595     4.1694   460.4000  2300.0000     4.3829     3.9768     0.1651    17.1794     0.2033   637.9448    88.4706     0.0000     0.4571     0.1299    73.0148    57.7700     0.2521    24.7429     2.0000    -0.1573     2.0401    25.3280  -112.7924  -112.5905     0.0000     2.0000     0.6891   914.3215
    326.5000     3.8116     3.6857     3.7235     3.8873     3.9282     3.7414     3.6675     3.6989     3.9895     4.0123     3.7877     3.6679     3.7293     3.9114     3.9298   436.8000  1355.1111     4.2057     3.8096     0.2668    27.3548     0.2988   640.9539    88.4706     0.0000     0.4571     0.0784    73.0148    57.7750     0.2881    31.8978     1.4997    -0.1573     1.5256    27.0367  -112.3287  -112.2614     0.0000     1.6362     0.7570   911.3929
    327.0000     3.7314     3.6452     3.6836     3.8487     3.8886     3.4550     3.4167     3.4178     3.7870     3.8095     3.5465     3.4941     3.5553     3.7270     3.7492   297.7778   542.6667     3.9871     3.6671     0.5145    52.0278     0.5368   640.7888    88.4706     0.0000     0.4571     0.0261    73.0148    57.7800 -9999.9999 -9999.9999 -9999.9999    -0.1573     0.1909    28.4327  -111.2701  -111.9442     0.0000    -0.3237     0.3689   927.8148
    327.5000     3.6676     3.6175     3.6548     3.8283     3.8570     3.5764     3.5665     3.5881     3.7706     3.7933     3.5009     3.5138     3.5650     3.7428     3.7619   144.0000   542.6667     3.8566     3.6054 -9999.9999 -9999.9999 -9999.9999   644.1660    88.4706     0.0000     0.4571 -9999.9999    73.0148    57.7850  -999.2500  -999.2500  -999.2500    -0.1573 -9999.9999 -9999.9999  -111.0379  -111.8915     0.0000 -9999.9999 -9999.9999   875.1072
    328.0000     3.6505     3.6378     3.6717     3.8546     3.8773     3.5688     3.5706     3.5815     3.7404     3.7627     3.5760     3.5716     3.5971     3.7836     3.8009   144.0000   542.6667     3.8306     3.6110  -999.2500  -999.2500  -999.2500   644.1279    88.4706     0.0000     0.4571  -999.2500    73.0148    57.7900  -999.2500  -999.2500  -999.2500    -0.1573  -999.2500  -999.2500  -110.7477  -111.8862     0.0000  -999.2500  -999.2500   862.4643
    328.5000     3.7021     3.7060     3.7376     3.9364     3.9538     3.6431     3.5829     3.5599     3.7670     3.7897     3.6419     3.6375     3.6477     3.8475     3.8632   144.0000   542.6667     3.8987     3.6667  -999.2500  -999.2500  -999.2500   646.1974    88.4706     0.0000     0.4571  -999.2500    73.0148    57.7950  -999.2500  -999.2500  -999.2500    -0.1573  -999.2500  -999.2500  -111.0268  -112.0450     0.0000  -999.2500  -999.2500   899.4815
    329.0000     3.8195     3.8252     3.8611     4.0829     4.0976     3.6349     3.7270     3.7203     3.9818     4.0073     3.7244     3.7158     3.7426     3.9749     3.9694   144.0000   542.6667     4.0629     3.7724  -999.2500  -999.2500  -999.2500   644.2930    88.4706     0.0000     0.4571  -999.2500    73.0148    57.8000  -999.2500  -999.2500  -999.2500    -0.1573  -999.2500  -999.2500  -110.3460  -112.0683     0.0000  -999.2500  -999.2500   869.5358
    329.5000     3.9816     3.9949     4.0437     4.2976     4.3081     3.8789     3.8980     3.9064     4.2558     4.2856     3.9275     3.9213     3.9699     4.2511     4.2310   144.0000   542.6667     4.3227     3.9269  -999.2500  -999.2500  -999.2500   640.2556    88.4706     0.0000     0.4571  -999.2500    73.0148    57.8050  -999.2500  -999.2500  -999.2500    -0.1573  -999.2500  -999.2500  -110.9799  -112.3150     0.0000  -999.2500  -999.2500   877.8215
    330.0000     4.1736     4.2010     4.2647     4.5828     4.5670     4.3109     4.2804     4.3225     4.7226     4.7599     4.1617     4.1934     4.2686     4.6215     4.5728   144.0000   542.6667     4.7226     4.1104  -999.2500  -999.2500  -999.2500   642.1310    88.4706     0.0000     0.4571  -999.2500    73.0148    57.8100  -999.2500  -999.2500  -999.2500    -0.1573  -999.2500  -999.2500  -112.8819  -112.7914     0.0000  -999.2500  -999.2500   909.2500
    330.5000     4.3649     4.4392     4.5221     4.8700     4.8571     4.3882     4.4661     4.5984     5.0070     5.0498     4.4033     4.4562     4.5271     4.9524     4.8688   144.0000   542.6667     5.0854     4.3534  -999.2500  -999.2500  -999.2500   642.0330    88.4706     0.0000     0.4571  -999.2500    73.0148    57.8150  -999.2500  -999.2500  -999.2500    -0.1573  -999.2500  -999.2500  -114.8527  -113.2271     0.0000  -999.2500  -999.2500   893.2222
    331.0000     4.5840     4.6851     4.7847     5.1908     5.1563     4.4669     4.5476     4.7012     5.2750     5.3242     4.6512     4.7245     4.8674     5.3428     5.2975   144.0000   542.6667     5.5972     4.4148  -999.2500  -999.2500  -999.2500   644.1152    88.4706     0.0000     0.4571  -999.2500    73.0148    57.8200  -999.2500  -999.2500  -999.2500    -0.1573  -999.2500  -999.2500  -115.2009  -113.2910     0.0000  -999.2500  -999.2500   956.5357
    331.5000     4.7293     4.9043     5.0180     5.4808     5.4263     4.9331     5.1108     5.4063     6.2495     6.3208     4.9857     5.1203     5.2833     5.8129     5.8521   144.0000   542.6667     6.6181     4.8448  -999.2500  -999.2500  -999.2500   645.5512    88.4706     0.0000     0.4571  -999.2500    73.0148    57.8250  -999.2500  -999.2500  -999.2500    -0.1573  -999.2500  -999.2500  -115.4933  -113.2860     0.0000  -999.2500  -999.2500   909.5000
