~VERSION INFORMATION
VERS.           1.2   :CWLS Log ASCII Standard - VERSION 1.2
WRAP.           NO    :One Line per depth step
PROD.  Schlumberger   :LAS Producer
PROG.  DLIS to ASCII 2.3                               :LAS Program name and version
CREA.        2015/01/14 20:42                          :LAS Creation date {YYYY/MM/DD hh:mm}
DLIS_CREA.  2015-Jan-14 13:26                          :DLIS Creation date and time {YYYY-MMM-DD hh:mm}
SOURCE.     b1232dd5-b707-4891-82b9-d24dcc6cb5d4       :DLIS File Name
#--------------------------------------------------
~WELL INFORMATION
#MNEM.UNIT      DATA             DESCRIPTION
#---- ------ --------------   -----------------------------
STRT .F      -8.0000         :START DEPTH     
STOP .F      352.5000        :STOP DEPTH     
STEP .F       0.5000         :STEP       
NULL .          -999.25      :NULL VALUE
COMP .                 COMPANY:  ADM Company                        
WELL .                    WELL:  CCS#2                              
FLD  .                   FIELD:  Wildcat                            
LOC  .                LOCATION:  Latitude: 39.885961                
CNTY .                  COUNTY:  Macon                              
STAT .                   STATE:  Illinois                           
CTRY .                 COUNTRY:  USA                                
SRVC .         SERVICE COMPANY:  Schlumberger                       
LATI .DEG             LATITUDE:  39° 53' 9.46" N                    
LONG .DEG            LONGITUDE:  88° 53' 16.959" W                  
API  .              API NUMBER:  12-115-23713-00                    
DATE .                LOG DATE:  13-Jan-2015
UWI  .          UNIQUE WELL ID:                                     
#-----------------------------------------------------------------------------
~PARAMETER INFORMATION
#MNEM.UNIT    VALUE                      DESCRIPTION
#---- -----   --------------------       ------------------------
CN   .        ADM Company                :Company Name
WN   .        CCS#2                      :Well Name
FN   .        Wildcat                    :Field Name
FL   .        Latitude  39.885961        :Field Location
FL1  .        Longitude  -88.888044      :Field Location, Line 1
COUN .        Macon                      :County or Parish
STAT .        Illinois                   :State or Province
NATI .        USA                        :Nation
DATE .        13-Jan-2015                :Tools Above Rotary Table Date
APIN .        12-115-23713-00            :API Well Number
SECT .        32                         :Section
TOWN .        17N                        :Township
RANG .        3E                         :Range
DMF  .        KB                         :Drilling Measured From (Name of Drilling Elevation Reference)
LMF  .        KB                         :Logging Measured From (Name of Logging Elevation Reference)
PDAT .        GL                         :Permanent Datum
ENGI .        Devin Arnold               :Engineer s Name
WITN .        Nick Malkewicz             :Witness s Name
LATI .        39° 53' 9.46  N            :Latitude
LONG .        88° 53' 16.959  W          :Longitude
LUL  .        Bradford                   :Logging Unit Location
LUN  .        3095                       :Logging Unit Number
RUN  .        2                          :Run Number
SON  .        D71E-00006                 :Service Order Number
BHT  .DEGF      58.00000                 :Bottom Hole Temperature
BS   .IN        26.00000                 :Bit Size
MDEN .G/C3       2.71000                 :Matrix Density for Density Porosity
DFD  .LB/G      10.10000                 :Drilling Fluid Density
DFV  .S       -999.25000                 :Drilling Fluid Viscosity
DFL  .C3      -999.25000                 :Drilling Fluid Loss
RMFS .OHMM       1.23200                 :Resistivity of Mud Filtrate Sample
EKB  .F        691.19995                 :Elevation of Kelly Bushing
EGL  .F        675.69995                 :Elevation of Ground Level
BLI  .F        345.00000                 :Bottom Log Interval
BSAL .PPM        0.00000                 :Borehole Salinity
FLEV .F          8.00000                 :Depth of Drilling Fluid Level to LMF (Log Measured From)
MCST .DEGF      42.80000                 :Mudcake Sample Temperature
MFST .DEGF      42.80000                 :Mud Filtrate Sample Temperature
MRT  .DEGF      58.00000                 :Maximum Recorded Temperature
MST  .DEGF      42.80000                 :Mud Sample Temperature
RMCS .OHMM       1.84800                 :Resistivity of Mud Cake Sample
RMS  .OHMM       1.54000                 :Resistivity of Mud Sample
RW   .OHMM       1.00000                 :Connate Water Resistivity
TDD  .F        349.00000                 :Driller Total Depth
TDL  .F        349.00000                 :Logger Total Depth
TLI  .F         50.00000                 :Top Log Interval
HIDE .        Wildcat                    :Header Identifier
MATR .        LIME                       :Rock Matrix for Neutron Porosity Corrections
FNUM .           1.00000                 :F-Numerator for Formation Factor Formula
FEXP .           2.00000                 :Exponent "m" for Formation Factor Formula
DFT  .        Fresh Mud                  :Drilling Fluid Type
DFPH .        -999.25000                 :Drilling Fluid pH
MCSS .        Calculated                 :Mudcake Sample Source
MFSS .        Calculated                 :Mud Filtrate Sample Source
FD   .G/C3       1.00000                 :Fluid Density
MSS  .        Active Tank                :Mud Sample Source
OS1  .                                   :Other Services Line 1
OS2  .                                   :Other Services Line 2
OS3  .                                   :Other Services Line 3
OS4  .                                   :Other Services Line 4
OS5  .                                   :Other Services Line 5
R1   .        Matrix Density  Limestone. :Remarks Line 1
R2   .        Mud Sample taken on location. :Remarks Line 2
R3   .        Presentations as per client request. :Remarks Line 3
R4   .        No Chemical Sources ran due to possible potable water zones. :Remarks Line 4
R5   .        Bottom Hole Temperature taken from GM2 temperature log provided by the client. 58degF :Remarks Line 5
R6   .                                   :Remarks Line 6
R7   .                                   :Remarks Line 7
R8   .                                   :Remarks Line 8
TCS  .        19 45 00                   :Time Circulation Stopped
TLAB .        03 30 00                   :Time Logger At Bottom
EPD  .C3         675.699951              :Elevation of Permanent Datum above Mean Sea Level
APD  .F          15.500000               :Elevation of Depth Reference (LMF) above Permanent Datum
#-----------------------------------------------------------------------------
~CURVE INFORMATION
#MNEM.UNIT   API CODE                                  DESCRIPTION
#---- -----  --------                                  -----------------------
DEPT .F                                                :DEPTH (BOREHOLE) {F12.4}
CDF  .LBF                                              :Calibrated Downhole Force {F11.4}
CTEM .DEGF                                             :Cartridge Temperature {F11.4}
DCAL .IN                                               :Differential Caliper {F11.4}
DT   .US/F                                             :Delta-T (also called Slowness or Interval Transit Time) {F11.4}
ED   .F                                                :East Departure {F11.4}
GR_EDTC.GAPI                                           :Gamma Ray {F11.4}
GTEM .DEGF                                             :Generalized Borehole Temperature {F11.4}
HAZI .DEG                                              :Hole Azimuth Relative to True North {F11.4}
HAZIM.DEG                                              :Memorized Hole Azimuth {F11.4}
ITT  .S                                                :Integrated Transit Time {F11.4}
ND   .F                                                :North Departure {F11.4}
P1AZ .DEG                                              :Pad 1 Azimuth in Horizontal Plane (0 = True North) {F11.4}
RB   .DEG                                              :Relative Bearing {F11.4}
SDEV .DEG                                              :Sonde Deviation {F11.4}
SDEVM.DEG                                              :Memorized Sonde Deviation {F11.4}
SPHI .CFCF                                             :Sonic Porosity {F11.4}
STIT .F                                                :Stuck Tool Indicator, Total {F11.4}
TENS .LBF                                              :Cable Tension {F11.4}
#-----------------------------------------------------------------------------
# 
#      DEPT        CDF        CTEM       DCAL        DT         ED      GR_EDTC      GTEM       HAZI      HAZIM       ITT         ND        P1AZ        RB        SDEV      SDEVM       SPHI       STIT       TENS
#
~A  
# ...
    315.0000   660.8035    69.8918    -9.6073   115.1196     0.4565    69.0697    57.6600    98.2794   100.3277     0.0038    -0.1575    55.9187   317.6672     2.5489     2.4705     0.4445     0.0000   947.8000
    315.5000   661.4670    69.8918    -9.6943   115.5886     0.4568    69.0697    57.6650    98.1627   100.1543     0.0037    -0.1574    55.9259   317.7914     2.5507     2.4710     0.4480     0.0000   941.6667
    316.0000   659.5474    69.8918    -9.6371   115.9038     0.4570    69.0697    57.6700    98.0587    99.9596     0.0036    -0.1574    56.1199   318.0894     2.5521     2.4685     0.4504     0.0000   930.6428
    316.5000   660.1635    69.8918    -9.6073   114.8142     0.4571    69.0697    57.6750    97.9402    99.9048     0.0036    -0.1573    55.9456   318.0338     2.5537     2.4776     0.4422     0.0000   962.8571
    317.0000   658.7415    69.8918    -9.6315   113.1824     0.4571    69.0697    57.6800    97.8596    99.7939     0.0035    -0.1573    55.9018   318.0704     2.5544     2.4766     0.4299     0.0000   968.0000
    317.5000   660.1873    69.8918    -9.6645   109.0117     0.4571    69.0697    57.6850    97.7533    99.2521     0.0035    -0.1573    55.7885   318.0639     2.5553     2.4789     0.3986     0.0000   908.8572
    318.0000   661.4196    69.8918    -9.5446   108.4831     0.4571    69.0697    57.6900    97.6628    99.1448     0.0034    -0.1573    55.6064   317.9717     2.5559     2.4795     0.3946     0.0000   939.7999
    318.5000   661.1589    69.8918    -9.5446   113.1739     0.4571    69.0697    57.6950    97.5885 -9999.9999     0.0034    -0.1573    55.8577   318.2976     2.5561 -9999.9999     0.4299     0.0000   970.8572
    319.0000   661.5347    69.8918    -9.6637   121.9955     0.4571    69.0697    57.7000    97.5343  -999.2500     0.0033    -0.1573    55.8483   318.3425     2.5564  -999.2500     0.4962     0.0000   990.4000
    319.5000   661.7278    69.8918    -9.5164   132.3054     0.4571    69.0697    57.7050    97.4861  -999.2500     0.0032    -0.1573    55.8039   318.3463     2.5565  -999.2500     0.5737     0.0000   958.2143
    320.0000   661.7751    69.8918    -9.3380   135.6021     0.4571    69.0697    57.7100    97.4386  -999.2500     0.0032    -0.1573    55.9056   318.4951     2.5567  -999.2500     0.5985     0.0000   930.5334
    320.5000   660.5190    69.8918    -9.7251   134.8631     0.4571    69.0697    57.7150    97.4054  -999.2500     0.0031    -0.1573    56.0181   318.6409     2.5570  -999.2500     0.5930     0.0000   924.6666
    321.0000   662.7468    69.8918    -9.7550   131.6157     0.4571    69.0697    57.7200    97.3937  -999.2500     0.0030    -0.1573    56.0915   318.7259     2.5571  -999.2500     0.5685     0.0000   977.6428
    321.5000   661.1030    69.8918    -9.7276   128.3981     0.4571    69.0697    57.7250    97.3837  -999.2500     0.0030    -0.1573    56.1932   318.8376     2.5565  -999.2500     0.5443     0.0000   948.6000
    322.0000   664.3585    69.8918    -9.7849   128.7432     0.4571    69.0697    57.7300    97.3735  -999.2500     0.0029    -0.1573    56.1975   318.8520     2.5565  -999.2500     0.5469     0.0000   923.4667
    322.5000   662.1069    69.8918    -9.6679   127.6681     0.4571    69.0697    57.7350    97.3705  -999.2500     0.0028    -0.1573    56.3432   319.0007     2.5557  -999.2500     0.5389     0.0000   933.6428
    323.0000   660.8745    69.8918    -9.6921   128.5253     0.4571    69.0697    57.7400    97.3626  -999.2500     0.0028    -0.1573    56.2716   318.9370     2.5549  -999.2500     0.5453     0.0000   950.5000
    323.5000   662.1949    69.8918    -9.8148   128.9526     0.4571    69.0697    57.7450    97.3465  -999.2500     0.0027    -0.1573    56.4347   319.1164     2.5545  -999.2500     0.5485     0.0000   978.0667
    324.0000   664.2637    69.8918    -9.6921   129.3910     0.4571    69.0697    57.7500    97.3264  -999.2500     0.0027    -0.1573    56.4141   319.1161     2.5536  -999.2500     0.5518     0.0000   937.0001
    324.5000   662.7231    69.8918    -9.6325   123.3485     0.4571    69.0697    57.7550    97.2930  -999.2500     0.0026    -0.1573    56.5626   319.2976     2.5525  -999.2500     0.5064     0.0000   938.6000
    325.0000   663.4104    69.8918    -9.4539   120.9867     0.4571    69.0697    57.7600    97.2564  -999.2500     0.0025    -0.1573    56.6546   319.4265     2.5514  -999.2500     0.4886     0.0000   960.0001
    325.5000   662.4743    69.8918    -9.9011   119.8930     0.4571    69.0697    57.7650    97.2183  -999.2500     0.0025    -0.1573    56.3399   319.1499     2.5504  -999.2500     0.4804     0.0000  1024.8572
    326.0000   662.7231    69.8918     0.0000   121.0273     0.4571    69.0697    57.7700    97.1934  -999.2500     0.0024    -0.1573    56.1122   318.9467     2.5494  -999.2500     0.4889     0.0000   944.7333
    326.5000   662.1069    69.8918     0.0000   130.4465     0.4571    69.0697    57.7750    97.1762  -999.2500     0.0023    -0.1573    56.2717   319.1239     2.5486  -999.2500     0.5597     0.0000   926.0000
    327.0000   661.7040    69.8918     0.0000   133.0821     0.4571    69.0697    57.7800    97.1821  -999.2500     0.0023    -0.1573    56.1951   319.0412     2.5476  -999.2500     0.5796     0.0000   930.8666
    327.5000   662.7231    69.8918     0.0000   134.3573     0.4571    69.0697    57.7850    97.2298  -999.2500     0.0022    -0.1573    56.3951   319.1935     2.5463  -999.2500     0.5892     0.0000  1019.7143
    328.0000   664.6326    69.8918     0.0000   133.6142     0.4571    69.0697    57.7900    97.3147  -999.2500     0.0021    -0.1573    56.5740   319.2868     2.5454  -999.2500     0.5836     0.0000   963.2667
    328.5000   663.6474    69.8918     0.0000   133.5736     0.4571    69.0697    57.7950    97.3919  -999.2500     0.0021    -0.1573    56.7963   319.4321     2.5449  -999.2500     0.5833     0.0000   912.0001
    329.0000   661.7751    69.8918     0.0000   133.9461     0.4571    69.0697    57.8000    97.5421  -999.2500     0.0020    -0.1573    56.9971   319.4828     2.5438  -999.2500     0.5861     0.0000   906.9286
    329.5000   662.3913    69.8918     0.0000   129.9607     0.4571    69.0697    57.8050    97.7132  -999.2500     0.0019    -0.1573    57.2103   319.5249     2.5427  -999.2500     0.5561     0.0000   936.6667
    330.0000   660.2109    69.8918     0.0000   128.7561     0.4571    69.0697    57.8100    97.9002  -999.2500     0.0019    -0.1573    57.6349   319.7625     2.5415  -999.2500     0.5470     0.0000   983.2858
    330.5000   663.3867    69.8918     0.0000   126.5455     0.4571    69.0697    57.8150    98.0425  -999.2500     0.0018    -0.1573    57.6708   319.6557     2.5403  -999.2500     0.5304     0.0000   935.3333
    331.0000   660.8237    69.8918     0.0000   121.7499     0.4571    69.0697    57.8200    98.2364  -999.2500     0.0018    -0.1573    58.2064   319.9976     2.5388  -999.2500     0.4944     0.0000   930.3334
    331.5000   660.8745    69.8918     0.0000   117.6835     0.4571    69.0697    57.8250    98.4184  -999.2500     0.0017    -0.1573    58.8670   320.4759     2.5371  -999.2500     0.4638     0.0000   967.2144
    332.0000   660.8745    69.8918     0.0000   115.5049     0.4571    69.0697    57.8300    98.6128  -999.2500     0.0016    -0.1573    58.8481   320.2632     2.5347  -999.2500     0.4474     0.0000   980.0667
    332.5000   663.3867    69.8918     0.0000   114.5769     0.4571    69.0697    57.8350    98.8272  -999.2500     0.0016    -0.1573    58.6874   319.8876     2.5324  -999.2500     0.4404     0.0000   960.4286
    333.0000   662.1949    69.8918     0.0000   121.6716     0.4571    69.0697    57.8400    99.0103  -999.2500     0.0015    -0.1573    58.7220   319.7393     2.5302  -999.2500     0.4938     0.0000   946.8666
    333.5000   660.1161    69.8918     0.0000   120.8934     0.4571    69.0697    57.8450    99.3104  -999.2500     0.0015    -0.1573    58.7865   319.5036     2.5269  -999.2500     0.4879     0.0000   942.8572
