~VERSION INFORMATION
VERS.           1.2   :CWLS Log ASCII Standard - VERSION 1.2
WRAP.           NO    :One Line per depth step
PROD.  Schlumberger   :LAS Producer
PROG.  DLIS to ASCII 2.3                               :LAS Program name and version
CREA.        2015/01/14 20:42                          :LAS Creation date {YYYY/MM/DD hh:mm}
DLIS_CREA.  2015-Jan-14 13:26                          :DLIS Creation date and time {YYYY-MMM-DD hh:mm}
SOURCE.     b1232dd5-b707-4891-82b9-d24dcc6cb5d4       :DLIS File Name
#--------------------------------------------------
~WELL INFORMATION
#MNEM.UNIT      DATA             DESCRIPTION
#---- ------ --------------   -----------------------------
STRT .F      -8.0000         :START DEPTH     
STOP .F      352.5000        :STOP DEPTH     
STEP .F       0.5000         :STEP       
NULL .          -999.25      :NULL VALUE
COMP .                 COMPANY:  ADM Company                        
WELL .                    WELL:  CCS#2                              
FLD  .                   FIELD:  Wildcat                            
LOC  .                LOCATION:  Latitude: 39.885961                
CNTY .                  COUNTY:  Macon                              
STAT .                   STATE:  Illinois                           
CTRY .                 COUNTRY:  USA                                
SRVC .         SERVICE COMPANY:  Schlumberger                       
LATI .DEG             LATITUDE:  39° 53' 9.46" N                    
LONG .DEG            LONGITUDE:  88° 53' 16.959" W                  
API  .              API NUMBER:  12-115-23713-00                    
DATE .                LOG DATE:  13-Jan-2015
UWI  .          UNIQUE WELL ID:                                     
#-----------------------------------------------------------------------------
~PARAMETER INFORMATION
#MNEM.UNIT    VALUE                      DESCRIPTION
#---- -----   --------------------       ------------------------
CN   .        ADM Company                :Company Name
WN   .        CCS#2                      :Well Name
FN   .        Wildcat                    :Field Name
FL   .        Latitude  39.885961        :Field Location
FL1  .        Longitude  -88.888044      :Field Location, Line 1
COUN .        Macon                      :County or Parish
STAT .        Illinois                   :State or Province
NATI .        USA                        :Nation
DATE .        13-Jan-2015                :Tools Above Rotary Table Date
APIN .        12-115-23713-00            :API Well Number
SECT .        32                         :Section
TOWN .        17N                        :Township
RANG .        3E                         :Range
DMF  .        KB                         :Drilling Measured From (Name of Drilling Elevation Reference)
LMF  .        KB                         :Logging Measured From (Name of Logging Elevation Reference)
PDAT .        GL                         :Permanent Datum
ENGI .        Devin Arnold               :Engineer s Name
WITN .        Nick Malkewicz             :Witness s Name
LATI .        39° 53' 9.46  N            :Latitude
LONG .        88° 53' 16.959  W          :Longitude
LUL  .        Bradford                   :Logging Unit Location
LUN  .        3095                       :Logging Unit Number
RUN  .        2                          :Run Number
SON  .        D71E-00006                 :Service Order Number
BHT  .DEGF      58.00000                 :Bottom Hole Temperature
BS   .IN        26.00000                 :Bit Size
MDEN .G/C3       2.71000                 :Matrix Density for Density Porosity
DFD  .LB/G      10.10000                 :Drilling Fluid Density
DFV  .S       -999.25000                 :Drilling Fluid Viscosity
DFL  .C3      -999.25000                 :Drilling Fluid Loss
RMFS .OHMM       1.23200                 :Resistivity of Mud Filtrate Sample
EKB  .F        691.19995                 :Elevation of Kelly Bushing
EGL  .F        675.69995                 :Elevation of Ground Level
BLI  .F        345.00000                 :Bottom Log Interval
BSAL .PPM        0.00000                 :Borehole Salinity
FLEV .F          8.00000                 :Depth of Drilling Fluid Level to LMF (Log Measured From)
MCST .DEGF      42.80000                 :Mudcake Sample Temperature
MFST .DEGF      42.80000                 :Mud Filtrate Sample Temperature
MRT  .DEGF      58.00000                 :Maximum Recorded Temperature
MST  .DEGF      42.80000                 :Mud Sample Temperature
RMCS .OHMM       1.84800                 :Resistivity of Mud Cake Sample
RMS  .OHMM       1.54000                 :Resistivity of Mud Sample
RW   .OHMM       1.00000                 :Connate Water Resistivity
TDD  .F        349.00000                 :Driller Total Depth
TDL  .F        349.00000                 :Logger Total Depth
TLI  .F         50.00000                 :Top Log Interval
HIDE .        Wildcat                    :Header Identifier
MATR .        LIME                       :Rock Matrix for Neutron Porosity Corrections
FNUM .           1.00000                 :F-Numerator for Formation Factor Formula
FEXP .           2.00000                 :Exponent "m" for Formation Factor Formula
DFT  .        Fresh Mud                  :Drilling Fluid Type
DFPH .        -999.25000                 :Drilling Fluid pH
MCSS .        Calculated                 :Mudcake Sample Source
MFSS .        Calculated                 :Mud Filtrate Sample Source
FD   .G/C3       1.00000                 :Fluid Density
MSS  .        Active Tank                :Mud Sample Source
OS1  .                                   :Other Services Line 1
OS2  .                                   :Other Services Line 2
OS3  .                                   :Other Services Line 3
OS4  .                                   :Other Services Line 4
OS5  .                                   :Other Services Line 5
R1   .        Matrix Density  Limestone. :Remarks Line 1
R2   .        Mud Sample taken on location. :Remarks Line 2
R3   .        Presentations as per client request. :Remarks Line 3
R4   .        No Chemical Sources ran due to possible potable water zones. :Remarks Line 4
R5   .        Bottom Hole Temperature taken from GM2 temperature log provided by the client. 58degF :Remarks Line 5
R6   .                                   :Remarks Line 6
R7   .                                   :Remarks Line 7
R8   .                                   :Remarks Line 8
TCS  .        19 45 00                   :Time Circulation Stopped
TLAB .        03 30 00                   :Time Logger At Bottom
EPD  .C3         675.699951              :Elevation of Permanent Datum above Mean Sea Level
APD  .F          15.500000               :Elevation of Depth Reference (LMF) above Permanent Datum
#-----------------------------------------------------------------------------
~CURVE INFORMATION
#MNEM.UNIT   API CODE                                  DESCRIPTION
#---- -----  --------                                  -----------------------
DEPT .F                                                :DEPTH (BOREHOLE) {F12.4}
CDF  .LBF                                              :Calibrated Downhole Force {F11.4}
CTEM .DEGF                                             :Cartridge Temperature {F11.4}
DCAL .IN                                               :Differential Caliper {F11.4}
DT   .US/F                                             :Delta-T (also called Slowness or Interval Transit Time) {F11.4}
ED   .F                                                :East Departure {F11.4}
GR_EDTC.GAPI                                           :Gamma Ray {F11.4}
GTEM .DEGF                                             :Generalized Borehole Temperature {F11.4}
HAZI .DEG                                              :Hole Azimuth Relative to True North {F11.4}
HAZIM.DEG                                              :Memorized Hole Azimuth {F11.4}
ITT  .S                                                :Integrated Transit Time {F11.4}
ND   .F                                                :North Departure {F11.4}
P1AZ .DEG                                              :Pad 1 Azimuth in Horizontal Plane (0 = True North) {F11.4}
RB   .DEG                                              :Relative Bearing {F11.4}
SDEV .DEG                                              :Sonde Deviation {F11.4}
SDEVM.DEG                                              :Memorized Sonde Deviation {F11.4}
SPHI .CFCF                                             :Sonic Porosity {F11.4}
STIT .F                                                :Stuck Tool Indicator, Total {F11.4}
TENS .LBF                                              :Cable Tension {F11.4}
#-----------------------------------------------------------------------------
# 
#      DEPT        CDF        CTEM       DCAL        DT         ED      GR_EDTC      GTEM       HAZI      HAZIM       ITT         ND        P1AZ        RB        SDEV      SDEVM       SPHI       STIT       TENS
#
~A  
# ...
    144.0000   653.0535    74.6353    -5.5711   -61.3090     0.2260    51.3356    55.9501   278.7623   234.8103     0.0000     0.2708   230.1669   311.4303     2.4443     2.4662  -999.2500     0.0000   822.6429
    144.5000   649.9810    74.6353    -5.5711   138.5775     0.2216    50.4917    55.9551   277.7775   234.1646     0.0234     0.2719   229.3216   311.5701     2.4444     2.4666     0.6209     0.0000   791.7143
    145.0000   651.6789    74.6353    -5.5713   137.4723     0.2172    51.4492    55.9601   276.7859   233.5138     0.0233     0.2729   228.2002   311.4405     2.4443     2.4669     0.6126     0.0000   819.9286
    145.5000   650.3111    74.6353    -5.5713   135.3501     0.2127    55.5454    55.9651   276.0419   232.8543     0.0233     0.2739   227.4069   311.3911     2.4445     2.4669     0.5966     0.0000   859.2858
    146.0000   654.2385    74.6353    -5.5711   133.0769     0.2084    59.6668    55.9701   275.0441   232.3595     0.0232     0.2749   226.5974   311.5791     2.4441     2.4671     0.5795     0.0000   834.9286
    146.5000   653.7645    74.6353    -5.6266   132.5975     0.2038    60.4499    55.9751   274.0492   231.6963     0.0231     0.2758   225.5067   311.4835     2.4437     2.4671     0.5759     0.0000   854.5334
    147.0000   651.3472    74.6353    -5.5713   133.2271     0.1993    64.7178    55.9801   273.3083   231.0340     0.0231     0.2767   224.6668   311.3846     2.4434     2.4673     0.5807     0.0000   794.7143
    147.5000   652.3933    74.6353    -5.5427   135.5356     0.1948    64.5885    55.9851   272.3254   230.5441     0.0230     0.2775   223.7985   311.4989     2.4430     2.4676     0.5980     0.0000   899.9286
    148.0000   652.3900    74.6353    -5.5696   133.7461     0.1904    65.9382    55.9901   271.3605   229.8941     0.0229     0.2783   222.9679   311.6334     2.4427     2.4681     0.5846     0.0000   870.2143
    148.5000   651.9871    74.6353    -5.5427   131.5300     0.1860    60.7710    55.9951   270.4043   229.2583     0.0229     0.2791   222.0553   311.6772     2.4423     2.4688     0.5679     0.0000   838.3572
    149.0000   650.9713    74.6353    -5.5425   130.8521     0.1816    63.2425    56.0001   269.6896   228.6369     0.0228     0.2798   221.2439   311.5800     2.4422     2.4695     0.5628     0.0000   864.1429
    149.5000   652.6270    74.6353    -5.5711   130.1399     0.1770    60.0487    56.0051   268.7515   228.1719     0.0227     0.2805   220.3846   311.6591     2.4420     2.4701     0.5574     0.0000   848.7333
    150.0000   652.3933    74.6353    -5.5714   130.7854     0.1724    57.3922    56.0101   267.8192   227.5588     0.0227     0.2812   219.5907   311.7975     2.4420     2.4708     0.5623     0.0000   864.2143
    150.5000   653.7645    74.6353    -5.5982   130.6659     0.1679    55.8483    56.0151   267.1400   226.9472     0.0226     0.2818   218.9720   311.8577     2.4423     2.4718     0.5614     0.0000   840.4286
    151.0000   650.0911    74.6353    -5.5141   129.7758     0.1635    56.9575    56.0201   266.2563   226.3358     0.0225     0.2823   218.0214   311.7908     2.4431     2.4727     0.5547     0.0000   772.0000
    151.5000   654.1708    74.6353    -5.5982   128.1917     0.1589    58.0631    56.0251   265.4199   225.8785     0.0225     0.2829   216.9925   311.5989     2.4443     2.4732     0.5428     0.0000   838.2000
    152.0000   653.5750    74.6353    -5.5982   126.8941     0.1543    56.9326    56.0301   264.8268   225.2694     0.0224     0.2834   216.2771   311.4763     2.4450     2.4741     0.5330     0.0000   858.8572
    152.5000   653.0789    74.6353    -5.5425   126.4055     0.1498    56.1073    56.0351   264.0909   224.6633     0.0223     0.2838   215.5128   311.4479     2.4465     2.4748     0.5294     0.0000   811.1429
    153.0000   653.7645    74.6353    -5.5713   127.0376     0.1454    55.9807    56.0401   263.4247   224.2168     0.0223     0.2842   214.6239   311.2249     2.4481     2.4753     0.5341     0.0000   842.6429
    153.5000   652.9113    74.6353    -5.5713   130.5177     0.1409    57.4168    56.0451   262.9658   223.6249     0.0222     0.2846   214.2121   311.2722     2.4493     2.4758     0.5603     0.0000   807.5000
    154.0000   652.7488    74.6353    -5.5427   131.6136     0.1362    61.4541    56.0501   262.4074   223.0391     0.0221     0.2849   213.9206   311.5389     2.4510     2.4762     0.5685     0.0000   889.9333
    154.5000   653.9541    74.6353    -5.5714   130.5014     0.1316    64.8516    56.0551   261.8896   222.4521     0.0221     0.2852   213.5431   311.6798     2.4526     2.4767     0.5602     0.0000   861.0714
    155.0000   652.7488    74.6353    -5.5980   127.9705     0.1271    60.7289    56.0601   261.5285   222.0076     0.0220     0.2855   213.1852   311.6828     2.4540     2.4769     0.5411     0.0000   862.5715
    155.5000   650.9680    74.6353    -5.5694   126.0568     0.1226    57.1346    56.0651   261.0517   221.4038     0.0219     0.2857   212.8665   311.8408     2.4555     2.4773     0.5267     0.0000   855.0000
    156.0000   651.6823    74.6353    -5.5982   122.4396     0.1180    54.4839    56.0701   260.5829   220.7845     0.0219     0.2859   212.3318   311.7748     2.4570     2.4776     0.4995     0.0000   862.7333
    156.5000   654.5009    74.6353    -5.5696   122.0128     0.1133    54.3590    56.0751   260.1138   220.3006     0.0218     0.2860   211.6264   311.5388     2.4583     2.4777     0.4963     0.0000   885.7857
    157.0000   653.9541    74.6353    -5.5694   122.1080     0.1088    55.8196    56.0801   259.7423   219.6305     0.0218     0.2861   211.3730   311.6573     2.4590     2.4781     0.4971     0.0000   858.7858
    157.5000   652.7488    74.6353    -5.5694   122.8988     0.1043    55.8649    56.0851   259.2498   218.9251     0.0217     0.2861   210.9747   311.7509     2.4601     2.4785     0.5030     0.0000   851.1428
    158.0000   653.0062    74.6353    -5.5966   121.9061     0.0998    55.9936    56.0901   258.7332   218.1804     0.0216     0.2861   210.4481   311.7409     2.4615     2.4787     0.4955     0.0000   846.7143
    158.5000   653.7645    74.6353    -5.5694   123.1506     0.0952    57.1829    56.0951   258.3411   217.6009     0.0216     0.2861   210.1586   311.8435     2.4617     2.4791     0.5049     0.0000   872.3572
    159.0000   652.0886    74.6353    -5.5425   124.1777     0.0907    57.0641    56.1000   257.8036   216.7951     0.0215     0.2860   209.5677   311.7901     2.4632     2.4794     0.5126     0.0000   820.7143
    159.5000   651.6078    74.6353    -5.5442   124.3221     0.0859    58.7143    56.1051   257.2600   215.9615     0.0215     0.2859   208.9241   311.6907     2.4633     2.4798     0.5137     0.0000   846.2667
    160.0000   650.7174    74.6353    -5.5443   124.2286     0.0812    57.1173    56.1101   256.8398   215.3304     0.0214     0.2858   208.6129   311.7994     2.4644     2.4803     0.5130     0.0000   861.6428
    160.5000   651.9871    74.6353    -5.5713   124.3768     0.0767    57.9619    56.1150   256.2692   214.4745     0.0213     0.2856   208.0621   311.8191     2.4644     2.4808     0.5141     0.0000   844.5715
    161.0000   651.3522    74.6353    -5.5427   122.2982     0.0721    57.9307    56.1201   255.6929   213.6226     0.0213     0.2854   207.5349   311.8688     2.4650     2.4814     0.4985     0.0000   923.4286
    161.5000   652.0344    74.6353    -5.5157   122.1836     0.0674    57.0002    56.1251   255.1266   212.7805     0.0212     0.2851   206.8949   311.7948     2.4658     2.4818     0.4976     0.0000   828.8000
    162.0000   653.4091    74.6353    -5.4602   122.4914     0.0627    55.1215    56.1301   254.6955   212.1538     0.0211     0.2848   206.3741   311.7050     2.4657     2.4822     0.4999     0.0000   842.0000
    162.5000   652.2477    74.6353    -5.5176   122.7777     0.0581    54.0183    56.1351   254.1322   211.3404     0.0211     0.2845   205.9538   311.8483     2.4661     2.4826     0.5021     0.0000   882.0000
