~VERSION INFORMATION
VERS.           1.2   :CWLS Log ASCII Standard - VERSION 1.2
WRAP.           NO    :One Line per depth step
PROD.  Schlumberger   :LAS Producer
PROG.  DLIS to ASCII 2.3                               :LAS Program name and version
CREA.        2015/05/30 23:46                          :LAS Creation date {YYYY/MM/DD hh:mm}
DLIS_CREA.  2015-May-30 15:01                          :DLIS Creation date and time {YYYY-MMM-DD hh:mm}
SOURCE.     b43ac578-4029-44ab-a201-dacd5736d378       :DLIS File Name
#--------------------------------------------------
~WELL INFORMATION
#MNEM.UNIT      DATA             DESCRIPTION
#---- ------ --------------   -----------------------------
STRT .F      5200.5000       :START DEPTH     
STOP .F      7212.5000       :STOP DEPTH     
STEP .F       0.5000         :STEP       
NULL .          -999.25      :NULL VALUE
COMP .                 COMPANY:  ADM COMPANY                        
WELL .                    WELL:  CCS#2                              
FLD  .                   FIELD:  WILDCAT                            
LOC  .                LOCATION:  LAT 39.885961                      
CNTY .                  COUNTY:  MACON                              
STAT .                   STATE:  ILLINOIS                           
CTRY .                 COUNTRY:  USA                                
SRVC .         SERVICE COMPANY:  Schlumberger                       
LATI .DEG             LATITUDE:  39.885961 degrees                  
LONG .DEG            LONGITUDE:  -88.888044 degrees                 
API  .              API NUMBER:  12-115-23713-00                    
DATE .                LOG DATE:  29-May-2015
UWI  .          UNIQUE WELL ID:  12-115-23713-00                    
#-----------------------------------------------------------------------------
~PARAMETER INFORMATION
#MNEM.UNIT    VALUE                      DESCRIPTION
#---- -----   --------------------       ------------------------
CN   .        ADM COMPANY                :Company Name
WN   .        CCS#2                      :Well Name
FN   .        WILDCAT                    :Field Name
FL   .        LAT 39.885961              :Field Location
FL1  .        LONG 39.885961             :Field Location, Line 1
COUN .        MACON                      :County or Parish
STAT .        ILLINOIS                   :State or Province
NATI .        USA                        :Nation
DATE .        29-May-2015                :Tools Above Rotary Table Date
APIN .        12-115-23713-00            :API Well Number
SECT .        32                         :Section
TOWN .        17N                        :Township
RANG .        3E                         :Range
DMF  .        KB                         :Drilling Measured From (Name of Drilling Elevation Reference)
LMF  .        KB                         :Logging Measured From (Name of Logging Elevation Reference)
PDAT .        GL                         :Permanent Datum
ENGI .        H. DIMITROV / M. MOHAMMED  :Engineer s Name
WITN .        NICK MALKEWICZ             :Witness s Name
LATI .        39.885961 degrees          :Latitude
LONG .        -88.888044 degrees         :Longitude
LUL  .        BRADFORD                   :Logging Unit Location
LUN  .        3003                       :Logging Unit Number
RUN  .        RUN 3B                     :Run Number
SON  .                                   :Service Order Number
BHT  .DEGF     127.00000                 :Bottom Hole Temperature
BS   .IN        12.25000                 :Bit Size
MDEN .LB/G      22.11532                 :Matrix Density for Density Porosity
DFD  .LB/G       9.20000                 :Drilling Fluid Density
DFV  .S         66.00000                 :Drilling Fluid Viscosity
DFL  .C3         7.60000                 :Drilling Fluid Loss
RMFS .OHMM       0.17000                 :Resistivity of Mud Filtrate Sample
EKB  .F        691.19995                 :Elevation of Kelly Bushing
EGL  .F        675.69995                 :Elevation of Ground Level
BLI  .F       7192.00000                 :Bottom Log Interval
BSAL .PPM     15100.00000                :Borehole Salinity
FLEV .F          8.00000                 :Depth of Drilling Fluid Level to LMF (Log Measured From)
MCST .DEGF      72.50000                 :Mudcake Sample Temperature
MFST .DEGF      72.50000                 :Mud Filtrate Sample Temperature
MRT  .DEGF     127.00000                 :Maximum Recorded Temperature
MST  .DEGF      72.50000                 :Mud Sample Temperature
RMCS .OHMM       0.14000                 :Resistivity of Mud Cake Sample
RMS  .OHMM       0.20000                 :Resistivity of Mud Sample
RW   .OHMM       1.00000                 :Connate Water Resistivity
TDD  .F       7193.00049                 :Driller Total Depth
TDL  .F       7192.00000                 :Logger Total Depth
TLI  .F       5231.00000                 :Top Log Interval
HIDE .        WILDCAT                    :Header Identifier
MATR .        SAND                       :Rock Matrix for Neutron Porosity Corrections
FNUM .           1.00000                 :F-Numerator for Formation Factor Formula
FEXP .           2.00000                 :Exponent "m" for Formation Factor Formula
DFT  .        Fresh Water                :Drilling Fluid Type
DFPH .          11.50000                 :Drilling Fluid pH
MCSS .        Calculated                 :Mudcake Sample Source
MFSS .        Calculated                 :Mud Filtrate Sample Source
FD   .LB/G       8.34540                 :Fluid Density
MSS  .        Active Tank                :Mud Sample Source
OS1  .                                   :Other Services Line 1
OS2  .                                   :Other Services Line 2
OS3  .                                   :Other Services Line 3
OS4  .                                   :Other Services Line 4
OS5  .                                   :Other Services Line 5
R1   .        THANKS FOR CHOOSING SCHLUMBERGER!!! :Remarks Line 1
R2   .        All WELL PROPERTIES PROVIDED BY CLIENT :Remarks Line 2
R3   .        ALL SCALES ON PRESENTATIONS AS PER

CLIENT REQUEST :Remarks Line 3
R4   .        MATRIX  SANDSTONE          :Remarks Line 4
R5   .        MATRIX DENSITY  2.65 G/CC  :Remarks Line 5
R6   .        ALL LOGGING INTERVALS AS PER CLIENT REQUEST :Remarks Line 6
R7   .        MRT = 127 DEGF FROM THE THERMOMETER :Remarks Line 7
R8   .                                   :Remarks Line 8
TCS  .        20 00 00                   :Time Circulation Stopped
TLAB .        11 17 00                   :Time Logger At Bottom
EPD  .C3         675.699951              :Elevation of Permanent Datum above Mean Sea Level
APD  .F          15.500000               :Elevation of Depth Reference (LMF) above Permanent Datum
#-----------------------------------------------------------------------------
~CURVE INFORMATION
#MNEM.UNIT   API CODE                                  DESCRIPTION
#---- -----  --------                                  -----------------------
DEPT .F                                                :DEPTH (BOREHOLE) {F12.4}
C1   .IN                                               :Caliper 1 {F11.4}
C2   .IN                                               :Caliper 2 {F11.4}
CDF  .LBF                                              :Calibrated Downhole Force {F11.4}
CTEM .DEGF                                             :Cartridge Temperature {F11.4}
DCAL .IN                                               :Differential Caliper {F11.4}
DEVI .DEG                                              :Hole Deviation {F11.4}
DEVIM.DEG                                              :Memorized Deviation {F11.4}
DTCO .US/F                                             :Delta-T Compressional {F11.4}
DTSM .US/F                                             :Delta-T Shear {F11.4}
ED   .F                                                :East Departure {F11.4}
GR_EDTC.GAPI                                           :Gamma Ray {F11.4}
GTEM .DEGF                                             :Generalized Borehole Temperature {F11.4}
HAZI .DEG                                              :Hole Azimuth Relative to True North {F11.4}
HAZIM.DEG                                              :Hole Azimuth Relative to True North {F11.4}
ITT  .S                                                :Integrated Transit Time {F11.4}
ND   .F                                                :North Departure {F11.4}
P1AZ .DEG                                              :Pad 1 Azimuth in Horizontal Plane (0 = True North) {F11.4}
PR   .                                                 :Poisson s Ratio {F11.4}
RB   .DEG                                              :Relative Bearing {F11.4}
SDEV .DEG                                              :Sonde Deviation {F11.4}
SDEVM.DEG                                              :Sonde Deviation {F11.4}
SPHI .CFCF                                             :Sonic Porosity {F11.4}
STIT .F                                                :Stuck Tool Indicator, Total {F11.4}
TENS .LBF                                              :Cable Tension {F11.4}
#-----------------------------------------------------------------------------
# 
#      DEPT         C1         C2        CDF        CTEM       DCAL       DEVI      DEVIM       DTCO       DTSM        ED      GR_EDTC      GTEM       HAZI      HAZIM       ITT         ND        P1AZ        PR         RB        SDEV      SDEVM       SPHI       STIT       TENS
#
~A  
# ...
   7071.0000    15.8484    15.6046  1528.9637   126.0235     3.0939     3.4356     3.4527    65.2798    96.0320   -36.6302    73.5598   126.0083    72.9933    73.6498     0.0060   103.7060   252.2321     0.0705   179.2399     3.4356     3.4527     0.0888     0.0000  3574.0000
   7071.5000    16.2454    16.0038  1508.8309   126.0235     3.1773     3.4376     3.4458    65.5919    96.2882   -36.6021    67.5997   126.0123    72.9720    73.7786     0.0060   103.7137   252.1924     0.0671   179.2217     3.4376     3.4458     0.0914     0.0000  3472.0000
   7072.0000    16.2371    16.4548  1495.7218   126.0235     3.1879     3.4373     3.4401    65.6975    97.0700   -36.5743    63.1383   126.0164    72.9839    73.9348     0.0059   103.7212   252.2848     0.0774   179.3021     3.4373     3.4401     0.0923     0.0000  3504.0002
   7072.5000    16.2868    16.6105  1513.4890   126.0235     3.1702     3.4365     3.4327    65.6283    98.5149   -36.5465    64.7651   126.0206    72.9910    74.1494     0.0059   103.7287   252.2576     0.1011   179.2678     3.4365     3.4327     0.0917     0.0000  3553.0000
   7073.0000    16.2413    16.6105  1542.7813   126.0235     2.7289     3.4341     3.4281    65.3481   101.6620   -36.5183    62.9021   126.0246    73.0129    74.3293     0.0059   103.7364   252.0545     0.1479   179.0431     3.4341     3.4281     0.0894     0.0000  3539.6667
   7073.5000    16.1792    16.5466  1536.7599   126.0235     2.2173     3.4343     3.4229    65.2492   104.7829   -36.4912    61.1733   126.0287    73.0254    74.4994     0.0058   103.7437   251.6887     0.1833   178.6657     3.4343     3.4229     0.0886     0.0000  3572.3333
   7074.0000    15.7822    16.0118  1531.8496   126.0235     2.1635     3.4351     3.4175    65.4916   104.0758   -36.4639    53.7664   126.0328    73.0577    74.6751     0.0058   103.7510   251.6147     0.1722   178.5597     3.4351     3.4175     0.0906     0.0000  3534.0000
   7074.5000    15.5423    15.5966  1514.6392   126.0235     2.0976     3.4437     3.4124    63.4126   103.5843   -36.4362    48.5042   126.0369    73.0974    74.8413     0.0058   103.7585   251.7256     0.2003   178.6308     3.4437     3.4124     0.0731     0.0000  3481.0000
   7075.0000    14.7565    15.2214  1496.6328   126.0235     1.3704     3.4493     3.4049    62.9110   103.4904   -36.4081    48.1893   126.0410    73.1720    75.0003     0.0057   103.7661   251.9241     0.2069   178.7544     3.4493     3.4049     0.0687     0.0000  3521.5000
   7075.5000    14.0037    14.2634  1494.7887   126.0235     1.6473     3.4564     3.3981    63.2077   101.6420   -36.3799    53.7753   126.0451    73.2562    75.1399     0.0057   103.7736   251.9172     0.1847   178.6636     3.4564     3.3981     0.0713     0.0000  3449.0000
   7076.0000    14.4008    14.5668  1503.4095   126.0235     1.6803     3.4638     3.3901    60.4429    98.8895   -36.3524    60.4247   126.0492    73.3476    75.2809     0.0057   103.7810   251.5693     0.2018   178.2249     3.4638     3.3901     0.0459     0.0000  3476.3333
   7076.5000    14.4546    14.6147  1534.5825   126.0235     1.8096     3.4707     3.3785    60.8359    93.1525   -36.3255    63.7808   126.0533    73.4257    75.3811     0.0056   103.7882   251.2560     0.1281   177.8344     3.4707     3.3785     0.0497     0.0000  3650.6667
   7077.0000    14.2684    14.5668  1591.3016   126.0235     1.4039     3.4790     3.3700    61.5516    95.5860   -36.2982    63.3409   126.0574    73.5102    75.4857     0.0056   103.7955   250.7382     0.1458   177.2331     3.4790     3.3700     0.0564     0.0000  3644.0000
   7077.5000    14.0120    14.2634  1609.8713   126.0235     1.4367     3.4839     3.3592    61.7437    95.9421   -36.2707    64.0941   126.0615    73.5383    75.5751     0.0056   103.8028   250.5609     0.1465   177.0282     3.4839     3.3592     0.0581     0.0000  3652.0000
   7078.0000    14.1526    14.5189  1581.8077   126.0235     1.9225     3.4852     3.3476    61.7043    95.4234   -36.2432    63.5146   126.0656    73.5415    75.6343     0.0055   103.8101   250.4516     0.1407   176.9156     3.4852     3.3476     0.0578     0.0000  3619.0000
   7078.5000    14.6738    14.9899  1569.4882   126.0235     2.2946     3.4848     3.3284    62.4003    95.9780   -36.2156    62.1029   126.0697    73.5313    75.6654     0.0055   103.8175   250.3582     0.1339   176.8328     3.4848     3.3284     0.0641     0.0000  3592.0000
   7079.0000    15.1039    15.5966  1565.5593   126.0235     2.5122     3.4788     3.3136    62.3862    96.3956   -36.1882    62.5605   126.0738    73.5238    75.6398     0.0055   103.8247   250.4982     0.1396   176.9798     3.4788     3.3136     0.0640     0.0000  3645.0002
   7079.5000    15.4844    15.9279  1563.1335   126.0235     2.5990     3.4732     3.2992    62.6848    96.9106   -36.1604    61.7325   126.0779    73.5180    75.5826     0.0054   103.8321   250.3042     0.1403   176.7922     3.4732     3.2992     0.0667     0.0000  3580.0000
   7080.0000    15.6085    16.1076  1547.2615   126.0235     2.6094     3.4672     3.2845    63.2864    97.4149   -36.1328    63.6330   126.0820    73.5220    75.5113     0.0054   103.8394   250.1395     0.1349   176.6238     3.4672     3.2845     0.0720     0.0000  3555.3335
   7080.5000    15.5630    16.4828  1533.1160   126.0235     2.4694     3.4597     3.2675    63.6610    99.6921   -36.1048    65.7603   126.0861    73.5806    75.4266     0.0054   103.8468   249.9398     0.1557   176.3658     3.4597     3.2675     0.0752     0.0000  3542.0000
   7081.0000    15.3603    15.7802  1529.8212   126.0235     1.8565     3.4506     3.2562    64.1597   103.4682   -36.0778    74.4871   126.0902    73.6652    75.3596     0.0054   103.8539   249.9534     0.1876   176.2950     3.4506     3.2562     0.0795     0.0000  3525.3333
   7081.5000    14.4918    14.5668  1523.0065   126.0235     2.0840     3.4434     3.2480    64.5103   105.7832   -36.0510    80.5743   126.0943    73.8104    75.3174     0.0053   103.8610   250.4396     0.2040   176.6355     3.4434     3.2480     0.0825     0.0000  3520.0000
   7082.0000    14.8557    15.2294  1510.8960   126.0235     2.3134     3.4378     3.2415    64.4070   105.4053   -36.0234    83.9098   126.0984    73.9724    75.3211     0.0053   103.8682   250.4828     0.2021   176.5167     3.4378     3.2415     0.0816     0.0000  3519.6667
   7082.5000    15.2611    15.5807  1526.4281   126.0235     2.6627     3.4327     3.2402    64.4489   104.0011   -35.9957    83.2929   126.1025    74.1494    75.3143     0.0053   103.8755   250.1537     0.1883   176.0115     3.4327     3.2402     0.0819     0.0000  3531.0000
   7083.0000    15.5258    17.0336  1539.7960   126.0235     2.8154     3.4281     3.2419    64.5684   102.3864   -35.9680    79.8351   126.1066    74.3293    75.3196     0.0052   103.8827   248.6458     0.1698   174.3265     3.4281     3.2419     0.0829     0.0000  3558.0000
   7083.5000    15.6581    16.0118  1536.0266   126.0235     2.8260     3.4227     3.2437    65.1007   100.6671   -35.9412    74.8800   126.1107    74.4978    75.3375     0.0052   103.8898   248.4125     0.1406   173.9256     3.4227     3.2437     0.0874     0.0000  3509.6667
   7084.0000    15.7325    16.0597  1530.4276   126.0235     2.8476     3.4180     3.2448    65.6923   100.5285   -35.9145    66.4525   126.1148    74.6704    75.3335     0.0052   103.8968   248.4032     0.1274   173.7437     3.4180     3.2448     0.0922     0.0000  3522.0000
   7084.5000    15.6664    15.9479  1529.2056   126.0235     3.0738     3.4124     3.2472    66.1695   102.1449   -35.8866    63.4073   126.1189    74.8413    75.3322     0.0051   103.9041   247.7955     0.1385   172.9664     3.4124     3.2472     0.0961     0.0000  3540.5002
   7085.0000    15.9145    15.9559  1538.3740   126.0235     3.0956     3.4049     3.2468    66.0818   103.3116   -35.8591    62.3008   126.1230    75.0003    75.3315     0.0051   103.9113   246.3418     0.1538   171.3562     3.4049     3.2468     0.0954     0.0000  3486.0000
