~VERSION INFORMATION
VERS.           1.2   :CWLS Log ASCII Standard - VERSION 1.2
WRAP.           NO    :One Line per depth step
PROD.  Schlumberger   :LAS Producer
PROG.  DLIS to ASCII 2.3                               :LAS Program name and version
CREA.        2015/05/30 05:44                          :LAS Creation date {YYYY/MM/DD hh:mm}
DLIS_CREA.  2015-May-29 22:59                          :DLIS Creation date and time {YYYY-MMM-DD hh:mm}
SOURCE.     3feb4549-4107-45e4-8f62-928498d876c9       :DLIS File Name
#--------------------------------------------------
~WELL INFORMATION
#MNEM.UNIT      DATA             DESCRIPTION
#---- ------ --------------   -----------------------------
STRT .F      5218.5000       :START DEPTH     
STOP .F      7211.0000       :STOP DEPTH     
STEP .F       0.5000         :STEP       
NULL .          -999.25      :NULL VALUE
COMP .                 COMPANY:  ADM COMPANY                        
WELL .                    WELL:  CCS#2                              
FLD  .                   FIELD:  WILDCAT                            
LOC  .                LOCATION:  LAT 39.885961                      
CNTY .                  COUNTY:  MACON                              
STAT .                   STATE:  ILLINOIS                           
CTRY .                 COUNTRY:  USA                                
SRVC .         SERVICE COMPANY:  Schlumberger                       
LATI .DEG             LATITUDE:  39.885961 degrees                  
LONG .DEG            LONGITUDE:  -88.888044 degrees                 
API  .              API NUMBER:  12-115-23713-00                    
DATE .                LOG DATE:  29-May-2015
UWI  .          UNIQUE WELL ID:  12-115-23713-00                    
#-----------------------------------------------------------------------------
~PARAMETER INFORMATION
#MNEM.UNIT    VALUE                      DESCRIPTION
#---- -----   --------------------       ------------------------
CN   .        ADM COMPANY                :Company Name
WN   .        CCS#2                      :Well Name
FN   .        WILDCAT                    :Field Name
FL   .        LAT 39.885961              :Field Location
FL1  .        LONG 39.885961             :Field Location, Line 1
COUN .        MACON                      :County or Parish
STAT .        ILLINOIS                   :State or Province
NATI .        USA                        :Nation
DATE .        29-May-2015                :Tools Above Rotary Table Date
APIN .        12-115-23713-00            :API Well Number
SECT .        32                         :Section
TOWN .        17N                        :Township
RANG .        3E                         :Range
DMF  .        KB                         :Drilling Measured From (Name of Drilling Elevation Reference)
LMF  .        KB                         :Logging Measured From (Name of Logging Elevation Reference)
PDAT .        GL                         :Permanent Datum
ENGI .        H. DIMITROV / M. MOHAMMED  :Engineer s Name
WITN .        NICK MALKEWICZ             :Witness s Name
LATI .        39.885961 degrees          :Latitude
LONG .        -88.888044 degrees         :Longitude
LUL  .        BRADFORD                   :Logging Unit Location
LUN  .        3003                       :Logging Unit Number
RUN  .        Run 3C                     :Run Number
SON  .                                   :Service Order Number
BHT  .DEGF     127.00000                 :Bottom Hole Temperature
BS   .IN        12.25000                 :Bit Size
DFD  .LB/G       9.20000                 :Drilling Fluid Density
DFV  .S         66.00000                 :Drilling Fluid Viscosity
DFL  .C3         7.60000                 :Drilling Fluid Loss
RMFS .OHMM       0.17000                 :Resistivity of Mud Filtrate Sample
EKB  .F        691.19995                 :Elevation of Kelly Bushing
EGL  .F        675.69995                 :Elevation of Ground Level
BLI  .F       7192.00000                 :Bottom Log Interval
BSAL .PPM     15100.00000                :Borehole Salinity
FLEV .F          8.00000                 :Depth of Drilling Fluid Level to LMF (Log Measured From)
MCST .DEGF      72.50000                 :Mudcake Sample Temperature
MFST .DEGF      72.50000                 :Mud Filtrate Sample Temperature
MRT  .DEGF     127.00000                 :Maximum Recorded Temperature
MST  .DEGF      72.50000                 :Mud Sample Temperature
RMCS .OHMM       0.14000                 :Resistivity of Mud Cake Sample
RMS  .OHMM       0.20000                 :Resistivity of Mud Sample
RW   .OHMM       1.00000                 :Connate Water Resistivity
TDD  .F       7193.00049                 :Driller Total Depth
TDL  .F       7193.00049                 :Logger Total Depth
TLI  .F       5240.00000                 :Top Log Interval
HIDE .        WILDCAT                    :Header Identifier
MATR .        SAND                       :Rock Matrix for Neutron Porosity Corrections
FNUM .           1.00000                 :F-Numerator for Formation Factor Formula
FEXP .           2.00000                 :Exponent "m" for Formation Factor Formula
DFT  .        Fresh Water                :Drilling Fluid Type
DFPH .          11.50000                 :Drilling Fluid pH
MCSS .        Calculated                 :Mudcake Sample Source
MFSS .        Calculated                 :Mud Filtrate Sample Source
FD   .LB/G       8.34540                 :Fluid Density
MSS  .        Active Tank                :Mud Sample Source
OS1  .                                   :Other Services Line 1
OS2  .                                   :Other Services Line 2
OS3  .                                   :Other Services Line 3
OS4  .                                   :Other Services Line 4
OS5  .                                   :Other Services Line 5
R1   .        THANKS FOR CHOOSING SCHLUMBERGER!!! :Remarks Line 1
R2   .        All WELL PROPERTIES PROVIDED BY CLIENT :Remarks Line 2
R3   .        ALL SCALES ON PRESENTATIONS AS PER

CLIENT REQUEST :Remarks Line 3
R4   .        MATRIX  SANDSTONE          :Remarks Line 4
R5   .        MATRIX DENSITY  2.65 G/CC  :Remarks Line 5
R6   .        ALL LOGGING INTERVALS AS PER CLIENT REQUEST :Remarks Line 6
R7   .        MRT = 127 DEGF FROM THE THERMOMETER :Remarks Line 7
R8   .                                   :Remarks Line 8
TCS  .        20 00 00                   :Time Circulation Stopped
TLAB .        14 31 00                   :Time Logger At Bottom
EPD  .C3         675.699951              :Elevation of Permanent Datum above Mean Sea Level
APD  .F          15.500000               :Elevation of Depth Reference (LMF) above Permanent Datum
#-----------------------------------------------------------------------------
~CURVE INFORMATION
#MNEM.UNIT   API CODE                                  DESCRIPTION
#---- -----  --------                                  -----------------------
DEPT .F                                                :DEPTH (BOREHOLE) {F12.4}
BFV  .CFCF                                             :Bound Fluid Volume {F11.4}
CBP1 .CFCF                                             :CMR Bin Porosity 1 {F11.4}
CBP2 .CFCF                                             :CMR Bin Porosity 2 {F11.4}
CBP3 .CFCF                                             :CMR Bin Porosity 3 {F11.4}
CBP4 .CFCF                                             :CMR Bin Porosity 4 {F11.4}
CBP5 .CFCF                                             :CMR Bin Porosity 5 {F11.4}
CBP6 .CFCF                                             :CMR Bin Porosity 6 {F11.4}
CBP7 .CFCF                                             :CMR Bin Porosity 7 {F11.4}
CBP8 .CFCF                                             :CMR Bin Porosity 8 {F11.4}
CDF  .LBF                                              :Calibrated Downhole Force {F11.4}
CMFF .CFCF                                             :CMR Free Fluid {F11.4}
CMFF_SIG.CFCF                                          :Standard Deviation of CMR Free Fluid {F11.4}
CMR_PHI_CONV.                                          :CMR Porosity Conversion factor {F11.4}
CMRP_3MS.CFCF                                          :CMR Porosity with T2 values greater than 3 ms {F11.4}
CTEM .DEGF                                             :Cartridge Temperature {F11.4}
DCAL .IN                                               :Differential Caliper {F11.4}
ED   .F                                                :East Departure {F11.4}
GR_EDTC.GAPI                                           :Gamma Ray {F11.4}
GTEM .DEGF                                             :Generalized Borehole Temperature {F11.4}
HCGR .GAPI                                             :HNGS Computed Gamma Ray {F11.4}
HFK  .%                                                :HNGS Formation Potassium Concentration {F11.4}
HSGR .GAPI                                             :HNGS Standard Gamma-Ray {F11.4}
HTHO .PPM                                              :HNGS Formation Thorium Concentration {F11.4}
HURA .PPM                                              :HNGS Formation Uranium Concentration {F11.4}
KSDR .MD                                               :SDR Permeability {F11.4}
KTIM .MD                                               :Timur/Coates Permeability {F11.4}
ND   .F                                                :North Departure {F11.4}
STIT .F                                                :Stuck Tool Indicator, Total {F11.4}
T2LM .MS                                               :T2 Logarithmic Mean {F11.4}
T2LM_SIG.MS                                            :Standard Deviation of T2 Logarithmic Mean {F11.4}
TCMR .CFCF                                             :Total CMR Porosity {F11.4}
TENS .LBF                                              :Cable Tension {F11.4}
#-----------------------------------------------------------------------------
# 
#      DEPT        BFV        CBP1       CBP2       CBP3       CBP4       CBP5       CBP6       CBP7       CBP8       CDF        CMFF     CMFF_SIG  CMR_PHI_CO  CMRP_3MS     CTEM       DCAL        ED      GR_EDTC      GTEM       HCGR       HFK        HSGR       HTHO       HURA       KSDR       KTIM        ND        STIT       T2LM     T2LM_SIG     TCMR       TENS
#                                                                                                                                                   NV
~A  
# ...
   6802.5000     0.0762     0.0006     0.0147     0.0286     0.0324     0.0369     0.0295     0.0031     0.0000  1196.2318     0.0695     0.0039     0.0006     0.1304   126.9818     0.0000     6.9622    85.6811   123.8085    84.9456     3.6607    94.1438     5.8005     1.3709     1.1514     3.7480    34.5245     0.0000    25.2628  -999.2500     0.1457  2984.0000
   6803.0000     0.0549     0.0006     0.0121     0.0179     0.0243     0.0355     0.0347     0.0079     0.0030  1199.6523     0.0811     0.0037     0.0006     0.1233   127.0878     0.0000     6.9829    85.8738   123.8126    84.6264     3.6544    93.6025     5.7351     1.3656     2.3312     8.0681    34.5249     0.0000    41.3601  -999.2500     0.1360  2995.6365
   6803.5000     0.0443     0.0028     0.0111     0.0095     0.0210     0.0352     0.0433     0.0040     0.0015  1189.5177     0.0841     0.0036     0.0006     0.1145   127.0270     0.0000     7.0035    87.7339   123.8167    82.7180     3.5573    92.4997     5.6913     1.4217     2.0940     9.8741    34.5252     0.0000    43.5063  -999.2500     0.1284  2948.5002
   6804.0000     0.0408     0.0053     0.0106     0.0048     0.0201     0.0368     0.0418     0.0022     0.0000  1187.4590     0.0809     0.0035     0.0006     0.1058   126.9966     0.0000     7.0240    87.0414   123.8208    80.0128     3.4428    89.2918     5.4947     1.4378     1.4353     8.8006    34.5255     0.0000    39.8712  -999.2500     0.1217  2955.0000
   6804.5000     0.0405     0.0065     0.0104     0.0043     0.0193     0.0383     0.0304     0.0045     0.0010  1185.3160     0.0742     0.0034     0.0006     0.0979   126.9966     0.0000     7.0444    82.4979   123.8249    75.5315     3.2329    83.6620     5.2869     1.2216     0.9296     5.9185    34.5258     0.0000    36.5498  -999.2500     0.1147  2931.5454
   6805.0000     0.0395     0.0053     0.0107     0.0069     0.0166     0.0349     0.0233     0.0040     0.0050  1188.7723     0.0671     0.0034     0.0006     0.0907   127.0417     0.0000     7.0647    74.9937   123.8290    65.9097     2.8303    73.0467     4.5592     1.0744     0.7306     3.7348    34.5261     0.0000    37.5618  -999.2500     0.1067  2968.0833
   6805.5000     0.0406     0.0047     0.0074     0.0102     0.0183     0.0213     0.0234     0.0119     0.0061  1189.5781     0.0627     0.0035     0.0006     0.0912   127.0118     0.0000     7.0849    65.5052   123.8331    56.7894     2.4544    62.8094     3.8363     0.8782     1.0476     2.7524    34.5264     0.0000    47.9925  -999.2500     0.1033  3023.7500
   6806.0000     0.0455     0.0077     0.0060     0.0091     0.0227     0.0170     0.0246     0.0159     0.0036  1183.7700     0.0611     0.0036     0.0006     0.0929   127.0574     0.0000     7.1051    56.6213   123.8372    51.9796     2.2628    56.5345     3.4160     0.7160     0.9785     2.3498    34.5267     0.0000    43.7183  -999.2500     0.1066  2916.1667
   6806.5000     0.0506     0.0114     0.0062     0.0074     0.0255     0.0190     0.0253     0.0156     0.0026  1185.9430     0.0626     0.0037     0.0006     0.0955   127.0274     0.0000     7.1252    52.8576   123.8413    51.5241     2.2329    55.5153     3.4451     0.5849     0.8775     2.5324    34.5270     0.0000    36.7316  -999.2500     0.1132  2966.0833
   6807.0000     0.0539     0.0133     0.0079     0.0074     0.0254     0.0246     0.0245     0.0126     0.0037  1188.7069     0.0653     0.0039     0.0006     0.0981   127.0588     0.0000     7.1452    51.7956   123.8454    53.1082     2.3047    57.1080     3.5326     0.5836     0.8377     2.9677    34.5272     0.0000    32.1810  -999.2500     0.1192  2985.9092
   6807.5000     0.0555     0.0111     0.0110     0.0091     0.0243     0.0311     0.0217     0.0103     0.0024  1186.3386     0.0655     0.0040     0.0006     0.0989   127.0426     0.0000     7.1651    57.8943   123.8495    59.7510     2.5777    62.8723     4.0643     0.4783     0.6905     2.9856    34.5275     0.0000    28.3702  -999.2500     0.1210  2953.4548
   6808.0000     0.0542     0.0060     0.0117     0.0116     0.0250     0.0356     0.0217     0.0055     0.0025  1185.8719     0.0653     0.0039     0.0006     0.1019   127.0588     0.0000     7.1850    66.9522   123.8536    67.7213     2.9045    70.9168     4.7061     0.5505     0.7055     2.9648    34.5277     0.0000    29.3792  -999.2500     0.1196  2963.7273
   6808.5000     0.0501     0.0027     0.0108     0.0112     0.0254     0.0381     0.0247     0.0055     0.0010  1191.6061     0.0694     0.0039     0.0006     0.1059   127.0755     0.0000     7.2048    74.0214   123.8577    75.8287     3.2686    78.6824     5.1733     0.5215     0.9551     4.0060    34.5279     0.0000    34.0459  -999.2500     0.1194  2966.5454
   6809.0000     0.0466     0.0010     0.0098     0.0100     0.0257     0.0383     0.0304     0.0077     0.0000  1190.5496     0.0764     0.0039     0.0006     0.1121   127.0902     0.0000     7.2247    72.5347   123.8618    74.4972     3.2177    76.9915     5.0448     0.4142     1.6077     6.4282    34.5281     0.0000    40.8501  -999.2500     0.1230  2980.2729
   6809.5000     0.0449     0.0005     0.0098     0.0091     0.0256     0.0375     0.0356     0.0112     0.0000  1193.3475     0.0843     0.0039     0.0006     0.1190   127.1252     0.0000     7.2444    62.9344   123.8659    65.5454     2.8180    68.5684     4.5149     0.4361     2.5834     9.9746    34.5283     0.0000    47.7878  -999.2500     0.1293  3031.7273
   6810.0000     0.0438     0.0005     0.0110     0.0081     0.0241     0.0387     0.0343     0.0174     0.0000  1192.7798     0.0904     0.0039     0.0006     0.1226   127.1712     0.0000     7.2641    55.7008   123.8700    55.4945     2.3603    58.9127     3.9722     0.5137     3.5545    13.8120    34.5285     0.0000    52.3713  -999.2500     0.1342  2973.0000
   6810.5000     0.0431     0.0017     0.0120     0.0056     0.0238     0.0415     0.0315     0.0180     0.0010  1188.8580     0.0920     0.0039     0.0006     0.1214   127.1576     0.0000     7.2836    53.8784   123.8741    50.7194     2.1492    55.0189     3.6771     0.6382     3.6646    15.2038    34.5287     0.0000    52.3943  -999.2500     0.1352  3004.0000
   6811.0000     0.0497     0.0071     0.0128     0.0044     0.0255     0.0400     0.0291     0.0144     0.0005  1189.9204     0.0840     0.0040     0.0006     0.1139   127.1712     0.0000     7.3032    55.7419   123.8782    51.3224     2.1667    56.0139     3.7682     0.7211     2.2335    10.1102    34.5288     0.0000    40.0983  -999.2500     0.1338  2993.7273
   6811.5000     0.0685     0.0145     0.0142     0.0093     0.0304     0.0376     0.0247     0.0087     0.0007  1191.2594     0.0717     0.0040     0.0006     0.1114   127.1074     0.0000     7.3225    58.8670   123.8823    54.8810     2.3286    61.1406     3.9608     0.8830     0.9568     4.8722    34.5290     0.0000    25.3152  -999.2500     0.1401  3001.4546
   6812.0000     0.0919     0.0210     0.0159     0.0184     0.0366     0.0373     0.0207     0.0031     0.0022  1190.5696     0.0633     0.0041     0.0006     0.1183   127.1576     0.0000     7.3418    62.5572   123.8864    61.3864     2.6110    68.6750     4.3931     1.0466     0.5732     2.8132    34.5291     0.0000    15.5442  -999.2500     0.1552  3036.7273
   6812.5000     0.1000     0.0225     0.0164     0.0224     0.0387     0.0420     0.0242     0.0004     0.0040  1191.5778     0.0707     0.0041     0.0006     0.1318   127.1393     0.0000     7.3610    66.8633   123.8905    66.6465     2.8089    73.9792     4.9207     1.0001     0.8643     4.2381    34.5292     0.0000    15.9523  -999.2500     0.1707  3015.5454
   6813.0000     0.1110     0.0239     0.0191     0.0251     0.0429     0.0477     0.0259     0.0001     0.0053  1191.0525     0.0790     0.0041     0.0006     0.1471   127.2753     0.0000     7.3804    70.6560   123.8946    67.5916     2.8678    75.8104     4.8792     1.1046     1.4000     6.7177    34.5293     0.0000    16.2302  -999.2500     0.1901  3009.1001
