~VERSION INFORMATION
VERS.           1.2   :CWLS Log ASCII Standard - VERSION 1.2
WRAP.           NO    :One Line per depth step
PROD.  Schlumberger   :LAS Producer
PROG.  DLIS to ASCII 2.3                               :LAS Program name and version
CREA.        2015/01/14 20:43                          :LAS Creation date {YYYY/MM/DD hh:mm}
DLIS_CREA.  2015-Jan-14 13:25                          :DLIS Creation date and time {YYYY-MMM-DD hh:mm}
SOURCE.     d5fbb1e7-1f44-4e43-b8fb-7fdeb49dde7f       :DLIS File Name
#--------------------------------------------------
~WELL INFORMATION
#MNEM.UNIT      DATA             DESCRIPTION
#---- ------ --------------   -----------------------------
STRT .F       8.0000         :START DEPTH     
STOP .F      353.0000        :STOP DEPTH     
STEP .F       0.5000         :STEP       
NULL .          -999.25      :NULL VALUE
COMP .                 COMPANY:  ADM Company                        
WELL .                    WELL:  CCS#2                              
FLD  .                   FIELD:  Wildcat                            
LOC  .                LOCATION:  Latitude: 39.885961                
CNTY .                  COUNTY:  Macon                              
STAT .                   STATE:  Illinois                           
CTRY .                 COUNTRY:  USA                                
SRVC .         SERVICE COMPANY:  Schlumberger                       
LATI .DEG             LATITUDE:  39° 53' 9.46" N                    
LONG .DEG            LONGITUDE:  88° 53' 16.959" W                  
API  .              API NUMBER:  12-115-23713-00                    
DATE .                LOG DATE:  12-Jan-2015
UWI  .          UNIQUE WELL ID:                                     
#-----------------------------------------------------------------------------
~PARAMETER INFORMATION
#MNEM.UNIT    VALUE                      DESCRIPTION
#---- -----   --------------------       ------------------------
CN   .        ADM Company                :Company Name
WN   .        CCS#2                      :Well Name
FN   .        Wildcat                    :Field Name
FL   .        Latitude  39.885961        :Field Location
FL1  .        Longitude  -88.888044      :Field Location, Line 1
COUN .        Macon                      :County or Parish
STAT .        Illinois                   :State or Province
NATI .        USA                        :Nation
DATE .        12-Jan-2015                :Tools Above Rotary Table Date
APIN .        12-115-23713-00            :API Well Number
SECT .        32                         :Section
TOWN .        17N                        :Township
RANG .        3E                         :Range
DMF  .        KB                         :Drilling Measured From (Name of Drilling Elevation Reference)
LMF  .        KB                         :Logging Measured From (Name of Logging Elevation Reference)
PDAT .        GL                         :Permanent Datum
ENGI .        Devin Arnold               :Engineer s Name
WITN .        Nick Malkewicz             :Witness s Name
LATI .        39° 53' 9.46  N            :Latitude
LONG .        88° 53' 16.959  W          :Longitude
LUL  .        Bradford                   :Logging Unit Location
LUN  .        3095                       :Logging Unit Number
RUN  .        1                          :Run Number
SON  .        D71E-00006                 :Service Order Number
BHT  .DEGF      58.00000                 :Bottom Hole Temperature
BS   .IN        26.00000                 :Bit Size
MDEN .G/C3       2.71000                 :Matrix Density for Density Porosity
DFD  .LB/G      10.10000                 :Drilling Fluid Density
DFV  .S         60.00000                 :Drilling Fluid Viscosity
DFL  .C3      -999.25000                 :Drilling Fluid Loss
RMFS .OHMM       1.23200                 :Resistivity of Mud Filtrate Sample
EKB  .F        691.19995                 :Elevation of Kelly Bushing
EGL  .F        675.69995                 :Elevation of Ground Level
BLI  .F        342.00000                 :Bottom Log Interval
BSAL .PPM        0.00000                 :Borehole Salinity
FLEV .F          8.00000                 :Depth of Drilling Fluid Level to LMF (Log Measured From)
MCST .DEGF      42.80000                 :Mudcake Sample Temperature
MFST .DEGF      42.80000                 :Mud Filtrate Sample Temperature
MRT  .DEGF      58.00000                 :Maximum Recorded Temperature
MST  .DEGF      42.80000                 :Mud Sample Temperature
RMCS .OHMM       1.84800                 :Resistivity of Mud Cake Sample
RMS  .OHMM       1.54000                 :Resistivity of Mud Sample
RW   .OHMM       1.00000                 :Connate Water Resistivity
TDD  .F        349.00000                 :Driller Total Depth
TDL  .F        349.00000                 :Logger Total Depth
TLI  .F         50.00000                 :Top Log Interval
HIDE .        Wildcat                    :Header Identifier
MATR .        LIME                       :Rock Matrix for Neutron Porosity Corrections
FNUM .           1.00000                 :F-Numerator for Formation Factor Formula
FEXP .           2.00000                 :Exponent "m" for Formation Factor Formula
DFT  .        Fresh Mud                  :Drilling Fluid Type
DFPH .        -999.25000                 :Drilling Fluid pH
MCSS .        Calculated                 :Mudcake Sample Source
MFSS .        Calculated                 :Mud Filtrate Sample Source
FD   .G/C3       1.00000                 :Fluid Density
MSS  .        Active Tank                :Mud Sample Source
OS1  .                                   :Other Services Line 1
OS2  .                                   :Other Services Line 2
OS3  .                                   :Other Services Line 3
OS4  .                                   :Other Services Line 4
OS5  .                                   :Other Services Line 5
R1   .        Matrix Density  Limestone. :Remarks Line 1
R2   .        Mud Sample taken on location. :Remarks Line 2
R3   .        Presentations as per client request. :Remarks Line 3
R4   .        No Chemical Sources ran due to possible potable water zones. :Remarks Line 4
R5   .        Bottom Hole Temperature taken from GM2 temperature log provided by the client. 58degF :Remarks Line 5
R6   .                                   :Remarks Line 6
R7   .                                   :Remarks Line 7
R8   .        APS ran outside max bit size range of 20in causing faulty data. :Remarks Line 8
TCS  .        19 45 00                   :Time Circulation Stopped
TLAB .        01 15 00                   :Time Logger At Bottom
NMT  .        NOBARITE                   :HRDD Mud Type for Nuclear Devices
EPD  .C3         675.699951              :Elevation of Permanent Datum above Mean Sea Level
APD  .F          15.500000               :Elevation of Depth Reference (LMF) above Permanent Datum
#-----------------------------------------------------------------------------
~CURVE INFORMATION
#MNEM.UNIT   API CODE                                  DESCRIPTION
#---- -----  --------                                  -----------------------
DEPT .F                                                :DEPTH (BOREHOLE) {F12.4}
AF10 .OHMM                                             :Array Induction Four Foot Resistivity A10 {F11.4}
AF20 .OHMM                                             :Array Induction Four Foot Resistivity A20 {F11.4}
AF30 .OHMM                                             :Array Induction Four Foot Resistivity A30 {F11.4}
AF60 .OHMM                                             :Array Induction Four Foot Resistivity A60 {F11.4}
AF90 .OHMM                                             :Array Induction Four Foot Resistivity A90 {F11.4}
AO10 .OHMM                                             :Array Induction One Foot Resistivity A10 {F11.4}
AO20 .OHMM                                             :Array Induction One Foot Resistivity A20 {F11.4}
AO30 .OHMM                                             :Array Induction One Foot Resistivity A30 {F11.4}
AO60 .OHMM                                             :Array Induction One Foot Resistivity A60 {F11.4}
AO90 .OHMM                                             :Array Induction One Foot Resistivity A90 {F11.4}
AT10 .OHMM                                             :Array Induction Two Foot Resistivity A10 {F11.4}
AT20 .OHMM                                             :Array Induction Two Foot Resistivity A20 {F11.4}
AT30 .OHMM                                             :Array Induction Two Foot Resistivity A30 {F11.4}
AT60 .OHMM                                             :Array Induction Two Foot Resistivity A60 {F11.4}
AT90 .OHMM                                             :Array Induction Two Foot Resistivity A90 {F11.4}
AFEC .HZ                                               :Far Detector Count Rate {F11.4}
ANEC .HZ                                               :Near Detector Count Rate {F11.4}
AORT .OHMM                                             :Array Induction One Foot Rt {F11.4}
AORX .OHMM                                             :Array Induction One Foot Rxo {F11.4}
APDC .CFCF                                             :Near/Array Corrected Dolomite Porosity {F11.4}
APLC .PU                                               :Near/Array Corrected Limestone Porosity {F11.4}
APSC .CFCF                                             :Near/Array Corrected Sandstone Porosity {F11.4}
CDF  .LBF                                              :Calibrated Downhole Force {F11.4}
CTEM .DEGF                                             :Cartridge Temperature {F11.4}
DCAL .IN                                               :Differential Caliper {F11.4}
ED   .F                                                :East Departure {F11.4}
FPLC .CFCF                                             :Near/Far Corrected Limestone Porosity {F11.4}
GR_EDTC.GAPI                                           :Gamma Ray {F11.4}
GTEM .DEGF                                             :Generalized Borehole Temperature {F11.4}
HASC .CFCF                                             :APS High Resolution Near/Array Corrected Sandstone Porosity {F11.4}
HSIG .CU                                               :APS High Resolution Formation Capture Cross Section {F11.4}
HSTO .IN                                               :APS High Resolution Effective Standoff in Limestone {F11.4}
ND   .F                                                :North Departure {F11.4}
QSGF .                                                 :Quality of Formation Sigma {F11.4}
SIGF .CU                                               :Formation Capture Cross Section {F11.4}
SP   .MV                                               :Spontaneous Potential {F11.4}
SPAR .MV                                               :SP, Armor Return Compensated {F11.4}
STIT .F                                                :Stuck Tool Indicator, Total {F11.4}
STOF .IN                                               :Effective Standoff in Limestone {F11.4}
STPC .CFCF                                             :Corrected Standoff Porosity {F11.4}
TENS .LBF                                              :Cable Tension {F11.4}
#-----------------------------------------------------------------------------
# 
#      DEPT        AF10       AF20       AF30       AF60       AF90       AO10       AO20       AO30       AO60       AO90       AT10       AT20       AT30       AT60       AT90       AFEC       ANEC       AORT       AORX       APDC       APLC       APSC       CDF        CTEM       DCAL        ED        FPLC     GR_EDTC      GTEM       HASC       HSIG       HSTO        ND        QSGF       SIGF        SP        SPAR       STIT       STOF       STPC       TENS
#
~A  
# ...
    188.0000     6.4018     6.7682     7.0173     7.6961     7.7939     5.9812     6.4812     6.8720     7.4193     7.4700     6.4350     6.9021     7.1379     7.7999     8.1277   400.0000  2453.7144     7.5799     6.2971     0.7659    76.8864     0.7738   634.3898    89.4588     0.0000    -0.1423     0.6070    59.5347    56.3900     0.7850    27.5804     0.0959     0.2011     0.2280    27.3942  -193.3727  -193.3466     0.0000     0.1693     0.7907   905.5926
    188.5000     6.1892     6.4747     6.7017     7.2936     7.4290     5.6545     6.0828     6.2717     6.6771     6.7178     5.7939     6.1128     6.3462     6.8832     7.1622   382.0000  2399.4285     6.7815     5.8187     0.7730    77.5858     0.7806   633.6915    89.4588     0.0000    -0.1451     0.5970    62.7920    56.3950     0.7230    27.1094     0.4376     0.1981     0.2186    27.3384  -193.2455  -193.6265     0.0000     0.1299     0.7906   907.7143
    189.0000     6.0628     6.2700     6.4836     7.0207     7.1480     5.6423     5.8529     5.8938     6.3584     6.3956     5.6315     5.8232     6.0438     6.4884     6.7233   388.0000  2382.2856     6.4154     5.6426     0.7635    76.6536     0.7716   633.0313    89.4588     0.0000    -0.1479     0.6867    66.1995    56.4000     0.7432    26.7369     0.3200     0.1950     0.2410    27.0351  -193.0903  -193.8744     0.0000     0.1920     0.7919   888.0370
    189.5000     6.0475     6.1743     6.3706     6.8711     7.0081     5.7598     5.7673     5.9024     6.2526     6.2872     5.8527     5.9105     6.1129     6.5613     6.7352   366.2857  2442.2856     6.2696     5.7598     0.7624    76.5440     0.7705   632.1552    89.5294     0.0000    -0.1507     0.7407    69.9498    56.4050     0.7373    26.5296     0.3601     0.1918     0.2371    27.1030  -193.0370  -194.1341     0.0000     0.1833     0.7901   873.5357
    190.0000     6.0519     6.1454     6.3239     6.7925     6.9224     6.3728     6.4077     6.5558     6.8334     6.8730     6.2048     6.3110     6.5214     7.0143     7.2285   365.7143  2446.0000     6.8334     6.2712     0.7696    77.2545     0.7774   633.5669    89.4588     0.0000    -0.1534     0.8478    75.6216    56.4100     0.8214    27.3216    -0.1084     0.1886     0.2332    26.6922  -193.1696  -194.3715     0.0000     0.1447     0.7901   864.4445
    190.5000     6.0585     6.0788     6.2362     6.6692     6.8077     7.0330     6.9737     7.2259     7.6019     7.6534     6.5097     6.5479     6.6785     7.2084     7.3408   366.8571  2462.2856     7.5921     6.9692     0.8027    80.5145     0.8089   634.9103    89.5294     0.0000    -0.1560     0.7385    77.8578    56.4150     0.8203    26.4369    -0.1026     0.1853     0.2021    26.7770  -193.0995  -194.5311     0.0000    -0.0347     0.7901   876.4445
    191.0000     5.9056     5.8935     6.0283     6.4140     6.5595     6.2312     6.1041     6.2081     6.5453     6.5847     6.3206     6.3104     6.4243     6.8700     6.9960   398.2857  2432.5715     6.5177     6.1943     0.8007    80.3218     0.8070   633.2772    89.4588     0.0000    -0.1586     0.7656    75.8713    56.4200     0.8054    25.4865    -0.0178     0.1821     0.2107    26.3077  -193.4954  -194.6984     0.0000    -0.0241     0.7901   821.2593
    191.5000     5.6333     5.6034     5.7172     6.0519     6.1765     6.5140     6.4901     6.7563     7.3957     7.4474     5.8941     5.8661     6.0563     6.4654     6.4808   365.1429  2445.1428     7.2370     6.4815     0.7680    77.0957     0.7759   633.8693    89.3490     0.0000    -0.1612     0.7823    74.4947    56.4250     0.7462    25.5817     0.3191     0.1787     0.2546    25.4954  -194.9815  -195.0157     0.0000     0.1465     0.7893   825.0000
    192.0000     5.3477     5.2982     5.3899     5.6759     5.7874     5.2051     5.1531     5.2387     5.5667     5.5989     5.1599     5.1273     5.2247     5.5167     5.5786   360.5000  2481.1428     5.5889     5.2439     0.7696    77.2567     0.7774   635.7229    89.3176     0.0000    -0.1637     0.7705    68.9426    56.4300     0.7258    24.5045     0.4186     0.1753     0.2560    25.4053  -196.4444  -195.2676     0.0000     0.1455     0.7903   850.2223
    192.5000     5.1148     5.0566     5.1336     5.3932     5.4848     4.2946     4.3314     4.4330     4.6855     4.7081     4.6813     4.6339     4.6830     4.9177     4.9319   394.2857  2399.4285     4.9838     4.7523     0.7860    78.8652     0.7929   630.3410    89.2471     0.0000    -0.1662     0.6153    67.5002    56.4350     0.8462    26.1272    -0.2227     0.1718     0.2319    25.5782  -197.5764  -195.4821     0.0000     0.0489     0.7892   821.4286
    193.0000     4.9718     4.9228     4.9901     5.2316     5.3142     4.7940     4.7478     4.7422     5.0087     5.0351     4.7548     4.7285     4.7971     5.0353     5.0293   408.5714  2404.0000     5.0210     4.7967     0.8131    81.5447     0.8189   634.2628    89.1765     0.0000    -0.1687     0.5567    64.0944    56.4400     0.7983    25.7808     0.0178     0.1682     0.2082    26.1179  -198.2593  -195.5856     0.0000    -0.0953     0.7891   851.9630
    193.5000     4.9002     4.8684     4.9264     5.1604     5.2405     5.1577     4.9867     4.9303     5.1916     5.2205     4.9152     4.8945     4.9347     5.1842     5.1643   382.2857  2378.8572     5.1255     4.8847     0.7574    76.0431     0.7657   633.7676    89.0562     0.0000    -0.1711     0.5882    63.6448    56.4450     0.7621    26.6988    -0.0827     0.1647     0.2517    26.5868  -198.8728  -195.7645     0.0000     0.2003     0.7889   874.6297
    194.0000     4.8681     4.8536     4.9017     5.1366     5.2127     4.9228     4.8888     4.8868     5.1261     5.1547     4.9160     4.8984     4.9254     5.1968     5.1681   376.5714  2408.5000     5.1105     4.8672     0.7155    71.9137     0.7260   632.1712    88.8941     0.0000    -0.1734     0.7295    63.1108    56.4500     0.7147    27.1869     0.4705     0.1611     0.3323    27.1382  -198.9005  -195.9742     0.0000     0.4082     0.7886   848.3333
    194.5000     4.8499     4.8698     4.9098     5.1639     5.2215     4.8330     4.8558     4.9096     5.2096     5.2399     4.8344     4.8542     4.8898     5.1928     5.1386   361.7143  2452.5715     5.2096     4.8330     0.7741    77.7000     0.7817   632.6758    88.8941     0.0000    -0.1757     0.9259    64.4321    56.4550     0.7591    27.5488    -0.0504     0.1574     0.2129    27.4915  -195.5278  -196.2546     0.0000     0.1165     0.7897   895.1481
    195.0000     4.8724     4.9222     4.9542     5.2133     5.2723     4.7391     4.7341     4.7830     5.0975     5.1269     4.7650     4.7928     4.8544     5.1310     5.1225   344.0000  2376.0000     5.0975     4.7432     0.8172    81.9437     0.8227   631.9775    88.7529     0.0000    -0.1780     0.8296    67.3411    56.4600     0.8553    28.3483    -0.2662     0.1536     0.1770    28.0992  -194.7963  -196.7057     0.0000    -0.1100     0.7901   903.6071
    195.5000     4.9474     5.0167     5.0449     5.3123     5.3702     4.6703     4.7912     4.7972     5.1048     5.1353     4.8247     4.8888     4.9176     5.1797     5.1669   401.7143  2473.1428     5.1063     4.6926     0.8174    81.9718     0.8230   633.7775    88.6118     0.0000    -0.1802     0.7660    70.7622    56.4650     0.8154    28.9515    -0.0644     0.1498     0.1759    28.1794  -195.0804  -197.3398     0.0000    -0.1040     0.7914   875.5186
    196.0000     5.0868     5.1871     5.2205     5.5296     5.5709     4.8955     5.1320     5.2121     5.6118     5.6476     4.9565     5.0334     5.0620     5.3271     5.5082   378.5000  2430.8572     5.6219     4.9373     0.7515    75.4682     0.7602   632.6503    88.5412     0.0000    -0.1823     0.6345    69.3752    56.4700     0.7610    28.1896     0.2490     0.1459     0.2352    28.7277  -195.8819  -198.1713     0.0000     0.2612     0.7924   879.0000
    196.5000     5.3584     5.5120     5.5669     5.9498     5.9929     4.9877     5.1459     5.1754     5.6479     5.6832     5.1156     5.2058     5.2258     5.5607     5.7431   380.0000  2456.5715     5.6953     5.0023     0.7761    77.8980     0.7836   633.5898    88.6118     0.0000    -0.1845     0.6916    69.6325    56.4750     0.7839    30.4727     0.1029     0.1420     0.2115    27.7414  -196.9699  -199.2258     0.0000     0.1281     0.7925   856.5715
