~VERSION INFORMATION
VERS.           1.2   :CWLS Log ASCII Standard - VERSION 1.2
WRAP.           NO    :One Line per depth step
PROD.  Schlumberger   :LAS Producer
PROG.  DLIS to ASCII 2.3                               :LAS Program name and version
CREA.        2015/05/06 16:26                          :LAS Creation date {YYYY/MM/DD hh:mm}
DLIS_CREA.  2015-May-04 11:59                          :DLIS Creation date and time {YYYY-MMM-DD hh:mm}
SOURCE.     301ad50a-0e97-4ef4-9f57-5a70afd84532       :DLIS File Name
#--------------------------------------------------
~WELL INFORMATION
#MNEM.UNIT      DATA             DESCRIPTION
#---- ------ --------------   -----------------------------
STRT .F      23.5000         :START DEPTH     
STOP .F      5264.5000       :STOP DEPTH     
STEP .F       0.5000         :STEP       
NULL .          -999.25      :NULL VALUE
COMP .                 COMPANY:  ADM COMPANY                        
WELL .                    WELL:  CCS#2                              
FLD  .                   FIELD:  WILDCAT                            
LOC  .                LOCATION:  Latitude: 39.885961                
CNTY .                  COUNTY:  MACON                              
STAT .                   STATE:  ILLINOIS                           
CTRY .                 COUNTRY:  USA                                
SRVC .         SERVICE COMPANY:  Schlumberger                       
LATI .DEG             LATITUDE:  39° 53' 9.46" N                    
LONG .DEG            LONGITUDE:  88° 53' 16.958" W                  
API  .              API NUMBER:  12-115-23713-00                    
DATE .                LOG DATE:  03-May-2015
UWI  .          UNIQUE WELL ID:                                     
#-----------------------------------------------------------------------------
~PARAMETER INFORMATION
#MNEM.UNIT    VALUE                      DESCRIPTION
#---- -----   --------------------       ------------------------
CN   .        ADM COMPANY                :Company Name
WN   .        CCS#2                      :Well Name
FN   .        WILDCAT                    :Field Name
FL   .        Latitude  39.885961        :Field Location
FL1  .        Longitude  -88.888044      :Field Location, Line 1
COUN .        MACON                      :County or Parish
STAT .        ILLINOIS                   :State or Province
NATI .        USA                        :Nation
DATE .        03-May-2015                :Tools Above Rotary Table Date
APIN .        12-115-23713-00            :API Well Number
SECT .        32                         :Section
TOWN .        17N                        :Township
RANG .        3E                         :Range
DMF  .        KB                         :Drilling Measured From (Name of Drilling Elevation Reference)
LMF  .        KB                         :Logging Measured From (Name of Logging Elevation Reference)
PDAT .        GL                         :Permanent Datum
ENGI .        Yazan Alhabahbeh           :Engineer s Name
WITN .        Nick Malkewicz             :Witness s Name
LATI .        39° 53' 9.46  N            :Latitude
LONG .        88° 53' 16.958  W          :Longitude
LUL  .        BRADFORD                   :Logging Unit Location
LUN  .        3019                       :Logging Unit Number
RUN  .        2B                         :Run Number
SON  .        D9QJ-00005                 :Service Order Number
BHT  .DEGF     132.00000                 :Bottom Hole Temperature
BS   .IN        17.50000                 :Bit Size
MDEN .G/C3       2.71000                 :Matrix Density for Density Porosity
DFD  .LB/G       9.15000                 :Drilling Fluid Density
DFV  .S         61.00000                 :Drilling Fluid Viscosity
DFL  .C3      -999.25000                 :Drilling Fluid Loss
RMFS .OHMM       0.16000                 :Resistivity of Mud Filtrate Sample
EKB  .F        691.19995                 :Elevation of Kelly Bushing
EGL  .F        675.69995                 :Elevation of Ground Level
BLI  .F       5252.00000                 :Bottom Log Interval
BSAL .PPM     14700.00000                :Borehole Salinity
FLEV .F          8.00000                 :Depth of Drilling Fluid Level to LMF (Log Measured From)
MCST .DEGF      74.30000                 :Mudcake Sample Temperature
MFST .DEGF      72.50000                 :Mud Filtrate Sample Temperature
MRT  .DEGF     135.00000                 :Maximum Recorded Temperature
MST  .DEGF      73.50000                 :Mud Sample Temperature
RMCS .OHMM       0.26600                 :Resistivity of Mud Cake Sample
RMS  .OHMM       0.19000                 :Resistivity of Mud Sample
RW   .OHMM       1.00000                 :Connate Water Resistivity
TDD  .F       5252.00000                 :Driller Total Depth
TDL  .F       5252.00000                 :Logger Total Depth
TLI  .F        200.00000                 :Top Log Interval
HIDE .        WILDCAT                    :Header Identifier
MATR .        LIME                       :Rock Matrix for Neutron Porosity Corrections
FNUM .           1.00000                 :F-Numerator for Formation Factor Formula
FEXP .           2.00000                 :Exponent "m" for Formation Factor Formula
DFT  .        SALT WATER                 :Drilling Fluid Type
DFPH .          11.00000                 :Drilling Fluid pH
MCSS .        Calculated                 :Mudcake Sample Source
MFSS .        Calculated                 :Mud Filtrate Sample Source
FD   .G/C3       1.00000                 :Fluid Density
MSS  .        Active Tank                :Mud Sample Source
OS1  .                                   :Other Services Line 1
OS2  .                                   :Other Services Line 2
OS3  .                                   :Other Services Line 3
OS4  .                                   :Other Services Line 4
OS5  .                                   :Other Services Line 5
R1   .        THANKS FOR CHOOSING

SCHLUMBERGER!!! :Remarks Line 1
R2   .        MATRIX  LIMESTONE          :Remarks Line 2
R3   .        MATRIX DENSITY  2.71 G/CC  :Remarks Line 3
R4   .        All WELL PROPERTIES PROVIDED BY

CLIENT . :Remarks Line 4
R5   .        ALL SCALES ON PRESENTATIONS AS PER

CLIENT REQUEST :Remarks Line 5
R6   .        Temp recorded by sensors inside the tool . :Remarks Line 6
R7   .                                   :Remarks Line 7
R8   .                                   :Remarks Line 8
TCS  .        04 45 00                   :Time Circulation Stopped
TLAB .        22 39 00                   :Time Logger At Bottom
EPD  .C3         675.699951              :Elevation of Permanent Datum above Mean Sea Level
APD  .F          15.500000               :Elevation of Depth Reference (LMF) above Permanent Datum
#-----------------------------------------------------------------------------
~CURVE INFORMATION
#MNEM.UNIT   API CODE                                  DESCRIPTION
#---- -----  --------                                  -----------------------
DEPT .F                                                :DEPTH (BOREHOLE) {F12.4}
C1   .IN                                               :Caliper 1 {F11.4}
C2   .IN                                               :Caliper 2 {F11.4}
CDF  .LBF                                              :Calibrated Downhole Force {F11.4}
CTEM .DEGF                                             :Cartridge Temperature {F11.4}
DCAL .IN                                               :Differential Caliper {F11.4}
DEVI .DEG                                              :Hole Deviation {F11.4}
DEVIM.DEG                                              :Memorized Deviation {F11.4}
DTCO .US/F                                             :Delta-T Compressional {F11.4}
DTSM .US/F                                             :Delta-T Shear {F11.4}
ED   .F                                                :East Departure {F11.4}
GR_EDTC.GAPI                                           :Gamma Ray {F11.4}
GTEM .DEGF                                             :Generalized Borehole Temperature {F11.4}
HAZI .DEG                                              :Hole Azimuth Relative to True North {F11.4}
HAZIM.DEG                                              :Hole Azimuth Relative to True North {F11.4}
ITT  .S                                                :Integrated Transit Time {F11.4}
ND   .F                                                :North Departure {F11.4}
P1AZ .DEG                                              :Pad 1 Azimuth in Horizontal Plane (0 = True North) {F11.4}
PR   .                                                 :Poisson s Ratio {F11.4}
RB   .DEG                                              :Relative Bearing {F11.4}
SDEV .DEG                                              :Sonde Deviation {F11.4}
SDEVM.DEG                                              :Sonde Deviation {F11.4}
SPHI .CFCF                                             :Sonic Porosity {F11.4}
STIT .F                                                :Stuck Tool Indicator, Total {F11.4}
TENS .LBF                                              :Cable Tension {F11.4}
#-----------------------------------------------------------------------------
# 
#      DEPT         C1         C2        CDF        CTEM       DCAL       DEVI      DEVIM       DTCO       DTSM        ED      GR_EDTC      GTEM       HAZI      HAZIM       ITT         ND        P1AZ        PR         RB        SDEV      SDEVM       SPHI       STIT       TENS
#
~A  
# ...
   4895.5000    19.3488    17.7805   247.1466   141.8353     0.6403     4.6768     4.4025    58.9726    92.8822     0.0000    84.1300   127.6557   337.1851   337.7997     0.0171     0.0000   331.8327     0.1623   354.6701     5.2707     4.9284     0.0224     0.0000  3049.6667
   4896.0000    19.3685    17.7880   247.5613   141.8353     0.6546     4.6686     4.3847    58.1290    93.0534     0.0000    88.3333   127.6618   337.3178   337.8365     0.0171     0.0000   331.7093     0.1800   354.4150     5.2614     4.9073     0.0160     0.0000  3015.0000
   4896.5000    19.3646    17.7880   246.9179   141.8353     0.6546     4.6605     4.3670    54.9225    89.5488     0.0000    87.7607   127.6679   337.4295   337.8545     0.0171     0.0000   331.7274     0.1985   354.3217     5.2510     4.8852    -0.0081     0.0000  2965.6665
   4897.0000    19.2898    17.8103   246.3171   141.8353     0.6403     4.6563     4.3544    53.6767    88.5695     0.0000    69.9875   127.6740   337.5449   337.8686     0.0171     0.0000   331.7311     0.2098   354.2104     5.2419     4.8664    -0.0175     0.0000  3004.7500
   4897.5000    19.2858    17.7805   245.4875   141.8353     0.6555     4.6500     4.3409    52.5542    85.7065     0.0000    55.0583   127.6801   337.5871   337.8730     0.0170     0.0000   331.8570     0.1987   354.2937     5.2338     4.8495    -0.0259     0.0000  2926.7500
   4898.0000    19.3567    17.7805   245.0728   141.8353     0.6699     4.6402     4.3255    51.7781    84.4997     0.0000    42.5007   127.6862   337.6262   337.8716     0.0170     0.0000   331.9583     0.1994   354.3555     5.2252     4.8336    -0.0317     0.0000  2979.0002
   4898.5000    19.3173    17.7768   247.9316   141.8353     0.5824     4.6355     4.3124    49.8864    78.3769     0.0000    34.5869   127.6923   337.6411   337.8869     0.0170     0.0000   332.0677     0.1595   354.4496     5.2173     4.8157    -0.0460     0.0000  3018.6667
   4899.0000    19.3528    17.7880   245.8360   141.8353     0.6125     4.6267     4.3001    48.0878    79.2072     0.0000    28.8540   127.6984   337.6341   337.8807     0.0170     0.0000   332.4553     0.2081   354.8425     5.2083     4.8022    -0.0595     0.0000  2974.2500
   4899.5000    19.3134    17.7731   244.4655   141.8353     0.5824     4.6199     4.2888    49.2111    78.0451     0.0000    26.0164   127.7045   337.6225   337.9107     0.0169     0.0000   332.7522     0.1700   355.1496     5.1978     4.7865    -0.0510     0.0000  2926.0002
   4900.0000    19.2898    17.7880   245.9023   141.8353     0.6288     4.6115     4.2773    49.9078    78.8935     0.0000    29.6639   127.7106   337.5800   337.9247     0.0169     0.0000   332.7891     0.1664   355.2286     5.1862     4.7714    -0.0458     0.0000  3033.0000
   4900.5000    19.3882    17.8215   244.8802   141.8353     0.5824     4.5952     4.2613    50.4238    76.2048     0.0000    34.5208   127.7167   337.5471   337.9806     0.0169     0.0000   332.8973     0.1106   355.3690     5.1708     4.7558    -0.0419     0.0000  2988.0000
   4901.0000    19.2780    17.7805   245.7097   141.8353     0.5824     4.5860     4.2517    51.0519    77.5954     0.0000    42.0878   127.7228   337.5033   338.0472     0.0169     0.0000   332.8223     0.1184   355.3379     5.1538     4.7393    -0.0372     0.0000  3040.6667
   4901.5000    19.2937    17.8029   245.0876   141.8353     0.5824     4.5680     4.2388    52.9137    82.4315     0.0000    48.8087   127.7289   337.4727   338.1396     0.0168     0.0000   333.1288     0.1496   355.6734     5.1323     4.7239    -0.0232     0.0000  2962.7500
   4902.0000    19.1520    17.8327   243.6721   141.8353     0.5523     4.5566     4.2298    53.6923    84.4518     0.0000    56.7254   127.7350   337.4751   338.2239     0.0168     0.0000   333.3898     0.1608   355.9309     5.1111     4.7070    -0.0174     0.0000  3071.3335
   4902.5000    19.0575    17.7880   246.3319   141.8353     0.5673     4.5396     4.2187    54.8580    85.9265     0.0000    64.1107   127.7410   337.4793   338.3078     0.0168     0.0000   333.2772     0.1560   355.8143     5.0854     4.6895    -0.0086     0.0000  3006.3333
   4903.0000    19.1795    17.7842   245.2950   141.8353     0.5696     4.5146     4.1985    57.1782    88.9044     0.0000    70.4998   127.7471   337.5072   338.4079     0.0168     0.0000   332.8120     0.1473   355.3230     5.0601     4.6695     0.0089     0.0000  3021.2500
   4903.5000    19.2780    17.7768   247.0880   141.8353     0.5846     4.4902     4.1801    57.8690    90.8051     0.0000    75.2563   127.7532   337.5569   338.5004     0.0167     0.0000   333.0644     0.1581   355.5247     5.0345     4.6509     0.0141     0.0000  3023.2500
   4904.0000    19.2189    17.7805   246.9096   141.8353     0.5824     4.4701     4.1648    58.7198    93.6109     0.0000    76.8371   127.7593   337.6273   338.5545     0.0167     0.0000   332.6384     0.1756   355.0300     5.0066     4.6297     0.0204     0.0000  3045.0000
   4904.5000    19.2740    17.8140   246.1245   141.8353     0.5684     4.4454     4.1452    58.8500    96.2286     0.0000    81.1999   127.7654   337.6779   338.5824     0.0167     0.0000   332.2151     0.2013   354.5577     4.9784     4.6080     0.0214     0.0000  3021.5000
   4905.0000    19.2228    17.8327   245.7097   141.8353     0.5673     4.4246     4.1294    60.0950    98.3362     0.0000    83.4703   127.7715   337.7592   338.5834     0.0166     0.0000   332.1376     0.2020   354.3992     4.9503     4.5866     0.0308     0.0000  2951.5000
   4905.5000    19.2268    17.7768   247.3243   141.8353     0.5672     4.4044     4.1110    60.6163    99.8682     0.0000    86.9714   127.7776   337.8015   338.5405     0.0166     0.0000   332.1487     0.2084   354.3679     4.9254     4.5642     0.0347     0.0000  3074.7500
   4906.0000    19.2543    17.7805   247.3688   141.8353     0.5696     4.3851     4.0927    61.0326   101.4363     0.0000    91.9081   127.7837   337.8442   338.5130     0.0166     0.0000   332.2857     0.2163   354.4617     4.9027     4.5427     0.0378     0.0000  3014.7500
   4906.5000    19.2228    17.8178   245.4032   141.8353     0.5824     4.3706     4.0764    61.5081   101.9278     0.0000    99.6569   127.7898   337.8519   338.4879     0.0165     0.0000   332.2751     0.2137   354.4434     4.8835     4.5217     0.0414     0.0000  2954.7500
   4907.0000    19.2465    17.8364   246.5393   141.8353     0.5673     4.3545     4.0586    61.0267   101.8931     0.0000   104.6943   127.7959   337.8639   338.4681     0.0165     0.0000   332.3304     0.2203   354.4862     4.8646     4.5008     0.0378     0.0000  2970.3335
   4907.5000    19.2228    17.7805   247.9464   141.8353     0.5672     4.3418     4.0403    60.3906   101.6376     0.0000   103.0926   127.8020   337.8734   338.4726     0.0165     0.0000   332.2560     0.2271   354.4025     4.8478     4.4776     0.0330     0.0000  2943.5000
   4908.0000    19.1598    17.8401   247.1466   141.8353     0.5522     4.3307     4.0260    60.0864   102.4122     0.0000    99.1642   127.8081   337.8770   338.4958     0.0165     0.0000   332.2993     0.2375   354.4420     4.8315     4.4578     0.0307     0.0000  2982.6667
   4908.5000    19.1165    17.8103   245.5024   141.8353     0.5673     4.3195     4.0129    59.6195   102.7678     0.0000    95.5256   127.8142   337.8869   338.5026     0.0164     0.0000   332.3121     0.2464   354.4447     4.8157     4.4403     0.0272     0.0000  3007.7500
   4909.0000    19.0575    17.7880   246.7318   141.8353     0.5523     4.3105     3.9993    59.6603   102.5018     0.0000    87.6373   127.8203   337.8807   338.6328     0.0164     0.0000   332.5120     0.2438   354.6501     4.8022     4.4216     0.0275     0.0000  2992.2500
   4909.5000    19.0496    17.7805   246.9540   141.8353     0.5707     4.2980     3.9857    59.6938   101.8405     0.0000    81.8165   127.8264   337.9107   338.7411     0.0164     0.0000   332.6614     0.2383   354.7688     4.7865     4.4048     0.0278     0.0000  2977.3335
