~VERSION INFORMATION
VERS.           1.2   :CWLS Log ASCII Standard - VERSION 1.2
WRAP.           NO    :One Line per depth step
PROD.  Schlumberger   :LAS Producer
PROG.  DLIS to ASCII 2.3                               :LAS Program name and version
CREA.        2015/05/30 23:46                          :LAS Creation date {YYYY/MM/DD hh:mm}
DLIS_CREA.  2015-May-30 15:01                          :DLIS Creation date and time {YYYY-MMM-DD hh:mm}
SOURCE.     b43ac578-4029-44ab-a201-dacd5736d378       :DLIS File Name
#--------------------------------------------------
~WELL INFORMATION
#MNEM.UNIT      DATA             DESCRIPTION
#---- ------ --------------   -----------------------------
STRT .F      5200.5000       :START DEPTH     
STOP .F      7212.5000       :STOP DEPTH     
STEP .F       0.5000         :STEP       
NULL .          -999.25      :NULL VALUE
COMP .                 COMPANY:  ADM COMPANY                        
WELL .                    WELL:  CCS#2                              
FLD  .                   FIELD:  WILDCAT                            
LOC  .                LOCATION:  LAT 39.885961                      
CNTY .                  COUNTY:  MACON                              
STAT .                   STATE:  ILLINOIS                           
CTRY .                 COUNTRY:  USA                                
SRVC .         SERVICE COMPANY:  Schlumberger                       
LATI .DEG             LATITUDE:  39.885961 degrees                  
LONG .DEG            LONGITUDE:  -88.888044 degrees                 
API  .              API NUMBER:  12-115-23713-00                    
DATE .                LOG DATE:  29-May-2015
UWI  .          UNIQUE WELL ID:  12-115-23713-00                    
#-----------------------------------------------------------------------------
~PARAMETER INFORMATION
#MNEM.UNIT    VALUE                      DESCRIPTION
#---- -----   --------------------       ------------------------
CN   .        ADM COMPANY                :Company Name
WN   .        CCS#2                      :Well Name
FN   .        WILDCAT                    :Field Name
FL   .        LAT 39.885961              :Field Location
FL1  .        LONG 39.885961             :Field Location, Line 1
COUN .        MACON                      :County or Parish
STAT .        ILLINOIS                   :State or Province
NATI .        USA                        :Nation
DATE .        29-May-2015                :Tools Above Rotary Table Date
APIN .        12-115-23713-00            :API Well Number
SECT .        32                         :Section
TOWN .        17N                        :Township
RANG .        3E                         :Range
DMF  .        KB                         :Drilling Measured From (Name of Drilling Elevation Reference)
LMF  .        KB                         :Logging Measured From (Name of Logging Elevation Reference)
PDAT .        GL                         :Permanent Datum
ENGI .        H. DIMITROV / M. MOHAMMED  :Engineer s Name
WITN .        NICK MALKEWICZ             :Witness s Name
LATI .        39.885961 degrees          :Latitude
LONG .        -88.888044 degrees         :Longitude
LUL  .        BRADFORD                   :Logging Unit Location
LUN  .        3003                       :Logging Unit Number
RUN  .        RUN 3B                     :Run Number
SON  .                                   :Service Order Number
BHT  .DEGF     127.00000                 :Bottom Hole Temperature
BS   .IN        12.25000                 :Bit Size
MDEN .LB/G      22.11532                 :Matrix Density for Density Porosity
DFD  .LB/G       9.20000                 :Drilling Fluid Density
DFV  .S         66.00000                 :Drilling Fluid Viscosity
DFL  .C3         7.60000                 :Drilling Fluid Loss
RMFS .OHMM       0.17000                 :Resistivity of Mud Filtrate Sample
EKB  .F        691.19995                 :Elevation of Kelly Bushing
EGL  .F        675.69995                 :Elevation of Ground Level
BLI  .F       7192.00000                 :Bottom Log Interval
BSAL .PPM     15100.00000                :Borehole Salinity
FLEV .F          8.00000                 :Depth of Drilling Fluid Level to LMF (Log Measured From)
MCST .DEGF      72.50000                 :Mudcake Sample Temperature
MFST .DEGF      72.50000                 :Mud Filtrate Sample Temperature
MRT  .DEGF     127.00000                 :Maximum Recorded Temperature
MST  .DEGF      72.50000                 :Mud Sample Temperature
RMCS .OHMM       0.14000                 :Resistivity of Mud Cake Sample
RMS  .OHMM       0.20000                 :Resistivity of Mud Sample
RW   .OHMM       1.00000                 :Connate Water Resistivity
TDD  .F       7193.00049                 :Driller Total Depth
TDL  .F       7192.00000                 :Logger Total Depth
TLI  .F       5231.00000                 :Top Log Interval
HIDE .        WILDCAT                    :Header Identifier
MATR .        SAND                       :Rock Matrix for Neutron Porosity Corrections
FNUM .           1.00000                 :F-Numerator for Formation Factor Formula
FEXP .           2.00000                 :Exponent "m" for Formation Factor Formula
DFT  .        Fresh Water                :Drilling Fluid Type
DFPH .          11.50000                 :Drilling Fluid pH
MCSS .        Calculated                 :Mudcake Sample Source
MFSS .        Calculated                 :Mud Filtrate Sample Source
FD   .LB/G       8.34540                 :Fluid Density
MSS  .        Active Tank                :Mud Sample Source
OS1  .                                   :Other Services Line 1
OS2  .                                   :Other Services Line 2
OS3  .                                   :Other Services Line 3
OS4  .                                   :Other Services Line 4
OS5  .                                   :Other Services Line 5
R1   .        THANKS FOR CHOOSING SCHLUMBERGER!!! :Remarks Line 1
R2   .        All WELL PROPERTIES PROVIDED BY CLIENT :Remarks Line 2
R3   .        ALL SCALES ON PRESENTATIONS AS PER

CLIENT REQUEST :Remarks Line 3
R4   .        MATRIX  SANDSTONE          :Remarks Line 4
R5   .        MATRIX DENSITY  2.65 G/CC  :Remarks Line 5
R6   .        ALL LOGGING INTERVALS AS PER CLIENT REQUEST :Remarks Line 6
R7   .        MRT = 127 DEGF FROM THE THERMOMETER :Remarks Line 7
R8   .                                   :Remarks Line 8
TCS  .        20 00 00                   :Time Circulation Stopped
TLAB .        11 17 00                   :Time Logger At Bottom
EPD  .C3         675.699951              :Elevation of Permanent Datum above Mean Sea Level
APD  .F          15.500000               :Elevation of Depth Reference (LMF) above Permanent Datum
#-----------------------------------------------------------------------------
~CURVE INFORMATION
#MNEM.UNIT   API CODE                                  DESCRIPTION
#---- -----  --------                                  -----------------------
DEPT .F                                                :DEPTH (BOREHOLE) {F12.4}
C1   .IN                                               :Caliper 1 {F11.4}
C2   .IN                                               :Caliper 2 {F11.4}
CDF  .LBF                                              :Calibrated Downhole Force {F11.4}
CTEM .DEGF                                             :Cartridge Temperature {F11.4}
DCAL .IN                                               :Differential Caliper {F11.4}
DEVI .DEG                                              :Hole Deviation {F11.4}
DEVIM.DEG                                              :Memorized Deviation {F11.4}
DTCO .US/F                                             :Delta-T Compressional {F11.4}
DTSM .US/F                                             :Delta-T Shear {F11.4}
ED   .F                                                :East Departure {F11.4}
GR_EDTC.GAPI                                           :Gamma Ray {F11.4}
GTEM .DEGF                                             :Generalized Borehole Temperature {F11.4}
HAZI .DEG                                              :Hole Azimuth Relative to True North {F11.4}
HAZIM.DEG                                              :Hole Azimuth Relative to True North {F11.4}
ITT  .S                                                :Integrated Transit Time {F11.4}
ND   .F                                                :North Departure {F11.4}
P1AZ .DEG                                              :Pad 1 Azimuth in Horizontal Plane (0 = True North) {F11.4}
PR   .                                                 :Poisson s Ratio {F11.4}
RB   .DEG                                              :Relative Bearing {F11.4}
SDEV .DEG                                              :Sonde Deviation {F11.4}
SDEVM.DEG                                              :Sonde Deviation {F11.4}
SPHI .CFCF                                             :Sonic Porosity {F11.4}
STIT .F                                                :Stuck Tool Indicator, Total {F11.4}
TENS .LBF                                              :Cable Tension {F11.4}
#-----------------------------------------------------------------------------
# 
#      DEPT         C1         C2        CDF        CTEM       DCAL       DEVI      DEVIM       DTCO       DTSM        ED      GR_EDTC      GTEM       HAZI      HAZIM       ITT         ND        P1AZ        PR         RB        SDEV      SDEVM       SPHI       STIT       TENS
#
~A  
# ...
   5461.5000    12.2170    12.2157  1560.0525   124.0471     0.0236     0.7931     0.6844    70.5740   126.8088   -55.2273   151.6069   112.7970   353.0858   353.5608     0.1169    99.6562   105.5043     0.2756   112.4205     0.7931     0.6844     0.1291     0.0000  3161.0002
   5462.0000    12.2088    12.2117  1569.2706   124.0471     0.0005     0.7841     0.6794    70.3700   126.7569   -55.2306   149.0488   112.8011   353.0268   353.5900     0.1169    99.6673   103.9839     0.2772   110.9589     0.7841     0.6794     0.1276     0.0000  3148.3333
   5462.5000    12.2170    12.2196  1572.2383   124.0471    -0.0104     0.7763     0.6733    69.8230   126.8243   -55.2339   142.7663   112.8052   352.9354   353.5065     0.1168    99.6785   102.9524     0.2825   110.0188     0.7763     0.6733     0.1237     0.0000  3165.6667
   5463.0000    12.2088    12.2157  1571.1521   124.0471     0.0463     0.7676     0.6670    69.7398   126.3941   -55.2371   147.4941   112.8093   352.8559   353.3637     0.1168    99.6897   101.7588     0.2812   108.9045     0.7676     0.6670     0.1231     0.0000  3138.3333
   5463.5000    12.2460    12.2117  1564.1409   124.0471     0.0120     0.7590     0.6586    70.0887   124.8928   -55.2403   149.8339   112.8135   352.7515   353.2006     0.1168    99.7006   100.5879     0.2701   107.8379     0.7590     0.6586     0.1256     0.0000  3114.3335
   5464.0000    12.2046    12.2117  1561.4746   124.0471     0.0108     0.7520     0.6490    70.4878   126.7554   -55.2436   155.1411   112.8176   352.6624   352.9206     0.1167    99.7118    99.7174     0.2762   107.0564     0.7520     0.6490     0.1285     0.0000  3148.6667
   5464.5000    12.2088    12.2117  1566.6886   124.0471     0.0453     0.7445     0.6400    70.6393   128.2376   -55.2468   143.3148   112.8216   352.6183   352.5701     0.1167    99.7229    98.1961     0.2822   105.5790     0.7445     0.6400     0.1295     0.0000  3264.3335
   5465.0000    12.2088    12.3075  1561.4351   124.0471     0.0236     0.7371     0.6330    71.2271   128.7711   -55.2501   140.8216   112.8258   352.5966   352.2537     0.1167    99.7340    97.2008     0.2796   104.6054     0.7371     0.6330     0.1336     0.0000  3017.5000
   5465.5000    12.2005    12.2276  1578.7163   124.0471     0.0120     0.7303     0.6258    71.6060   128.5694   -55.2533   138.8297   112.8299   352.5941   351.8441     0.1166    99.7451    96.0842     0.2752   103.4912     0.7303     0.6258     0.1362     0.0000  3147.0000
   5466.0000    12.2005    12.2196  1584.1080   124.0471     0.0348     0.7227     0.6198    71.8375   130.4570   -55.2566   146.2951   112.8340   352.6316   351.3604     0.1166    99.7560    94.6818     0.2824   102.0512     0.7227     0.6198     0.1378     0.0000  3233.0000
   5466.5000    12.1922    12.2995  1575.4971   124.0471     0.4027     0.7150     0.6146    71.8188   131.4126   -55.2598   151.3372   112.8381   352.6995   350.9019     0.1166    99.7670    93.7485     0.2871   101.0499     0.7150     0.6146     0.1377     0.0000  3228.3335
   5467.0000    12.1840    12.2197  1572.5345   124.0471     0.0120     0.7096     0.6108    71.9035   132.2895   -55.2630   150.7430   112.8422   352.7560   350.5242     0.1165    99.7781    92.8775     0.2904   100.1223     0.7096     0.6108     0.1382     0.0000  3222.0000
   5467.5000    12.2005    12.2117  1582.7983   124.0471     0.0236     0.7035     0.6074    72.1221   132.2501   -55.2663   152.3024   112.8463   352.8472   350.0930     0.1165    99.7893    91.5017     0.2884    98.6551     0.7035     0.6074     0.1397     0.0000  3179.3333
   5468.0000    12.1840    12.2117  1575.4773   124.0471     0.0236     0.6989     0.6038    72.2493   131.6124   -55.2695   149.7538   112.8504   352.9588   349.6193     0.1165    99.8001    90.3924     0.2843    97.4341     0.6989     0.6038     0.1406     0.0000  3201.3333
   5468.5000    12.1922    12.2755  1560.0920   124.0471     0.0348     0.6950     0.6017    72.2806   132.1029   -55.2727   153.5818   112.8545   353.0571   349.2113     0.1164    99.8111    89.6013     0.2863    96.5449     0.6950     0.6017     0.1408     0.0000  3221.0000
   5469.0000    12.2005    12.2835  1556.2668   124.0471     0.0117     0.6930     0.5992    72.1975   132.4435   -55.2760   155.2822   112.8586   353.1277   348.9279     0.1164    99.8222    88.7150     0.2886    95.5877     0.6930     0.5992     0.1402     0.0000  3185.6667
   5469.5000    12.2005    12.2196  1551.0652   124.0471     0.0223     0.6916     0.5972    72.0711   131.2733   -55.2793   155.9800   112.8627   353.2423   348.5612     0.1163    99.8333    87.5468     0.2843    94.3047     0.6916     0.5972     0.1394     0.0000  3167.6667
   5470.0000    12.1922    12.2276  1527.4059   124.0471     0.0460     0.6904     0.5958    72.4567   130.3186   -55.2824   152.5756   112.8668   353.3893   348.2603     0.1163    99.8441    86.5785     0.2763    93.1896     0.6904     0.5958     0.1420     0.0000  3136.6667
   5470.5000    12.1922    12.2196  1496.9119   124.0471     0.0348     0.6894     0.5920    72.9604   131.1416   -55.2857   150.9303   112.8709   353.4418   347.8024     0.1163    99.8551    86.0118     0.2759    92.5702     0.6894     0.5920     0.1453     0.0000  3066.5000
   5471.0000    12.1840    12.2755  1505.0094   124.0471     0.0236     0.6868     0.5915    73.4062   131.3699   -55.2889   148.5333   112.8750   353.5645   347.2567     0.1162    99.8662    85.0388     0.2730    91.4745     0.6868     0.5915     0.1482     0.0000  3180.3333
   5471.5000    12.1964    12.2236  1535.2072   124.0471    -0.0004     0.6837     0.5893    73.5487   134.4779   -55.2921   152.6142   112.8791   353.5543   346.6479     0.1162    99.8768    83.1299     0.2866    89.5756     0.6837     0.5893     0.1491     0.0000  3076.6667
   5472.0000    12.1922    12.2196  1544.9469   124.0471     0.0005     0.6794     0.5903    73.5921   133.7355   -55.2953   149.3283   112.8832   353.5900   346.1252     0.1162    99.8877    82.0428     0.2828    88.4527     0.6794     0.5903     0.1494     0.0000  3102.0000
   5472.5000    12.1757    12.1638  1558.2158   124.0471     0.0005     0.6733     0.5900    73.8644   134.3466   -55.2986   152.0668   112.8873   353.5065   345.4800     0.1161    99.8989    81.0376     0.2834    87.5309     0.6733     0.5900     0.1512     0.0000  3292.0000
   5473.0000    12.1922    12.2196  1581.5448   124.0471     0.0120     0.6654     0.5917    73.6423   137.3750   -55.3017   157.4531   112.8914   353.3840   344.9439     0.1161    99.9097    79.8025     0.2984    86.4184     0.6654     0.5917     0.1497     0.0000  3211.0002
   5473.5000    12.1757    12.2196  1582.7649   124.0471     0.0117     0.6559     0.5933    72.9380   138.5581   -55.3049   160.6625   112.8955   353.1492   344.5528     0.1161    99.9203    78.7231     0.3083    85.5736     0.6559     0.5933     0.1451     0.0000  3211.3335
   5474.0000    12.1922    12.2276  1569.7571   124.0471     0.0001     0.6490     0.5950    72.2422   138.7921   -55.3081   167.9721   112.8996   352.9206   344.1306     0.1160    99.9312    78.1899     0.3142    85.2689     0.6490     0.5950     0.1405     0.0000  3200.6667
   5474.5000    12.1881    12.2117  1581.5634   124.0471     0.0005     0.6400     0.5924    71.9062   138.7718   -55.3113   172.3275   112.9037   352.5701   343.9161     0.1160    99.9421    77.0622     0.3165    84.4918     0.6400     0.5924     0.1383     0.0000  3220.0002
   5475.0000    12.1840    12.2196  1574.3910   124.0471    -0.0007     0.6322     0.5916    71.5583   140.0578   -55.3145   182.9926   112.9079   352.1225   343.6001     0.1159    99.9530    75.9826     0.3234    83.8598     0.6322     0.5916     0.1359     0.0000  3187.0000
   5475.5000    12.1840    12.2117  1564.5930   124.0471    -0.0110     0.6249     0.5913    71.8355   142.2162   -55.3178   180.3990   112.9120   351.7245   343.3744     0.1159    99.9640    75.4053     0.3287    83.6805     0.6249     0.5913     0.1378     0.0000  3156.3333
