~VERSION INFORMATION
VERS.           1.2   :CWLS Log ASCII Standard - VERSION 1.2
WRAP.           NO    :One Line per depth step
PROD.  Schlumberger   :LAS Producer
PROG.  DLIS to ASCII 2.3                               :LAS Program name and version
CREA.        2015/05/06 16:26                          :LAS Creation date {YYYY/MM/DD hh:mm}
DLIS_CREA.  2015-May-04 11:59                          :DLIS Creation date and time {YYYY-MMM-DD hh:mm}
SOURCE.     301ad50a-0e97-4ef4-9f57-5a70afd84532       :DLIS File Name
#--------------------------------------------------
~WELL INFORMATION
#MNEM.UNIT      DATA             DESCRIPTION
#---- ------ --------------   -----------------------------
STRT .F      23.5000         :START DEPTH     
STOP .F      5264.5000       :STOP DEPTH     
STEP .F       0.5000         :STEP       
NULL .          -999.25      :NULL VALUE
COMP .                 COMPANY:  ADM COMPANY                        
WELL .                    WELL:  CCS#2                              
FLD  .                   FIELD:  WILDCAT                            
LOC  .                LOCATION:  Latitude: 39.885961                
CNTY .                  COUNTY:  MACON                              
STAT .                   STATE:  ILLINOIS                           
CTRY .                 COUNTRY:  USA                                
SRVC .         SERVICE COMPANY:  Schlumberger                       
LATI .DEG             LATITUDE:  39° 53' 9.46" N                    
LONG .DEG            LONGITUDE:  88° 53' 16.958" W                  
API  .              API NUMBER:  12-115-23713-00                    
DATE .                LOG DATE:  03-May-2015
UWI  .          UNIQUE WELL ID:                                     
#-----------------------------------------------------------------------------
~PARAMETER INFORMATION
#MNEM.UNIT    VALUE                      DESCRIPTION
#---- -----   --------------------       ------------------------
CN   .        ADM COMPANY                :Company Name
WN   .        CCS#2                      :Well Name
FN   .        WILDCAT                    :Field Name
FL   .        Latitude  39.885961        :Field Location
FL1  .        Longitude  -88.888044      :Field Location, Line 1
COUN .        MACON                      :County or Parish
STAT .        ILLINOIS                   :State or Province
NATI .        USA                        :Nation
DATE .        03-May-2015                :Tools Above Rotary Table Date
APIN .        12-115-23713-00            :API Well Number
SECT .        32                         :Section
TOWN .        17N                        :Township
RANG .        3E                         :Range
DMF  .        KB                         :Drilling Measured From (Name of Drilling Elevation Reference)
LMF  .        KB                         :Logging Measured From (Name of Logging Elevation Reference)
PDAT .        GL                         :Permanent Datum
ENGI .        Yazan Alhabahbeh           :Engineer s Name
WITN .        Nick Malkewicz             :Witness s Name
LATI .        39° 53' 9.46  N            :Latitude
LONG .        88° 53' 16.958  W          :Longitude
LUL  .        BRADFORD                   :Logging Unit Location
LUN  .        3019                       :Logging Unit Number
RUN  .        2B                         :Run Number
SON  .        D9QJ-00005                 :Service Order Number
BHT  .DEGF     132.00000                 :Bottom Hole Temperature
BS   .IN        17.50000                 :Bit Size
MDEN .G/C3       2.71000                 :Matrix Density for Density Porosity
DFD  .LB/G       9.15000                 :Drilling Fluid Density
DFV  .S         61.00000                 :Drilling Fluid Viscosity
DFL  .C3      -999.25000                 :Drilling Fluid Loss
RMFS .OHMM       0.16000                 :Resistivity of Mud Filtrate Sample
EKB  .F        691.19995                 :Elevation of Kelly Bushing
EGL  .F        675.69995                 :Elevation of Ground Level
BLI  .F       5252.00000                 :Bottom Log Interval
BSAL .PPM     14700.00000                :Borehole Salinity
FLEV .F          8.00000                 :Depth of Drilling Fluid Level to LMF (Log Measured From)
MCST .DEGF      74.30000                 :Mudcake Sample Temperature
MFST .DEGF      72.50000                 :Mud Filtrate Sample Temperature
MRT  .DEGF     135.00000                 :Maximum Recorded Temperature
MST  .DEGF      73.50000                 :Mud Sample Temperature
RMCS .OHMM       0.26600                 :Resistivity of Mud Cake Sample
RMS  .OHMM       0.19000                 :Resistivity of Mud Sample
RW   .OHMM       1.00000                 :Connate Water Resistivity
TDD  .F       5252.00000                 :Driller Total Depth
TDL  .F       5252.00000                 :Logger Total Depth
TLI  .F        200.00000                 :Top Log Interval
HIDE .        WILDCAT                    :Header Identifier
MATR .        LIME                       :Rock Matrix for Neutron Porosity Corrections
FNUM .           1.00000                 :F-Numerator for Formation Factor Formula
FEXP .           2.00000                 :Exponent "m" for Formation Factor Formula
DFT  .        SALT WATER                 :Drilling Fluid Type
DFPH .          11.00000                 :Drilling Fluid pH
MCSS .        Calculated                 :Mudcake Sample Source
MFSS .        Calculated                 :Mud Filtrate Sample Source
FD   .G/C3       1.00000                 :Fluid Density
MSS  .        Active Tank                :Mud Sample Source
OS1  .                                   :Other Services Line 1
OS2  .                                   :Other Services Line 2
OS3  .                                   :Other Services Line 3
OS4  .                                   :Other Services Line 4
OS5  .                                   :Other Services Line 5
R1   .        THANKS FOR CHOOSING

SCHLUMBERGER!!! :Remarks Line 1
R2   .        MATRIX  LIMESTONE          :Remarks Line 2
R3   .        MATRIX DENSITY  2.71 G/CC  :Remarks Line 3
R4   .        All WELL PROPERTIES PROVIDED BY

CLIENT . :Remarks Line 4
R5   .        ALL SCALES ON PRESENTATIONS AS PER

CLIENT REQUEST :Remarks Line 5
R6   .        Temp recorded by sensors inside the tool . :Remarks Line 6
R7   .                                   :Remarks Line 7
R8   .                                   :Remarks Line 8
TCS  .        04 45 00                   :Time Circulation Stopped
TLAB .        22 39 00                   :Time Logger At Bottom
EPD  .C3         675.699951              :Elevation of Permanent Datum above Mean Sea Level
APD  .F          15.500000               :Elevation of Depth Reference (LMF) above Permanent Datum
#-----------------------------------------------------------------------------
~CURVE INFORMATION
#MNEM.UNIT   API CODE                                  DESCRIPTION
#---- -----  --------                                  -----------------------
DEPT .F                                                :DEPTH (BOREHOLE) {F12.4}
C1   .IN                                               :Caliper 1 {F11.4}
C2   .IN                                               :Caliper 2 {F11.4}
CDF  .LBF                                              :Calibrated Downhole Force {F11.4}
CTEM .DEGF                                             :Cartridge Temperature {F11.4}
DCAL .IN                                               :Differential Caliper {F11.4}
DEVI .DEG                                              :Hole Deviation {F11.4}
DEVIM.DEG                                              :Memorized Deviation {F11.4}
DTCO .US/F                                             :Delta-T Compressional {F11.4}
DTSM .US/F                                             :Delta-T Shear {F11.4}
ED   .F                                                :East Departure {F11.4}
GR_EDTC.GAPI                                           :Gamma Ray {F11.4}
GTEM .DEGF                                             :Generalized Borehole Temperature {F11.4}
HAZI .DEG                                              :Hole Azimuth Relative to True North {F11.4}
HAZIM.DEG                                              :Hole Azimuth Relative to True North {F11.4}
ITT  .S                                                :Integrated Transit Time {F11.4}
ND   .F                                                :North Departure {F11.4}
P1AZ .DEG                                              :Pad 1 Azimuth in Horizontal Plane (0 = True North) {F11.4}
PR   .                                                 :Poisson s Ratio {F11.4}
RB   .DEG                                              :Relative Bearing {F11.4}
SDEV .DEG                                              :Sonde Deviation {F11.4}
SDEVM.DEG                                              :Sonde Deviation {F11.4}
SPHI .CFCF                                             :Sonic Porosity {F11.4}
STIT .F                                                :Stuck Tool Indicator, Total {F11.4}
TENS .LBF                                              :Cable Tension {F11.4}
#-----------------------------------------------------------------------------
# 
#      DEPT         C1         C2        CDF        CTEM       DCAL       DEVI      DEVIM       DTCO       DTSM        ED      GR_EDTC      GTEM       HAZI      HAZIM       ITT         ND        P1AZ        PR         RB        SDEV      SDEVM       SPHI       STIT       TENS
#
~A  
# ...
   5243.5000    18.7307    17.5012   240.2327   139.8588     0.0000     2.1557     3.1766  -999.2500    85.3655     0.0000    28.0314   131.8964   335.9033   339.9292  -999.2500     0.0000   335.5832  -999.2500   359.6802     2.2705     3.4327  -999.2500     0.0000  3124.0000
   5244.0000    18.7307    17.4975   236.3648   139.8588     0.0000     2.1827     2.8902  -999.2500    85.3655     0.0000    28.0314   131.9025   335.7094   342.1956  -999.2500     0.0000   335.7174  -999.2500     0.0080     2.3005     3.1008  -999.2500     0.0000  3117.7500
   5244.5000    18.7307    17.5012   231.9851   139.8588     0.0000     2.2118     2.4928  -999.2500    85.3655     0.0000    28.0314   131.9086   335.5121   345.6738  -999.2500     0.0000   335.4737  -999.2500   359.9616     2.3329     2.6479  -999.2500     0.0000  3119.3335
   5245.0000    18.7346    17.5831   231.8002   139.8588     0.0000     2.2467     2.3517  -999.2500    85.3655     0.0000    28.0314   131.9147   335.2688   347.1186  -999.2500     0.0000   335.2028  -999.2500   359.9339     2.3717     2.4892  -999.2500     0.0000  3042.2500
   5245.5000    18.6992    17.5608   238.7112   139.8588     0.0000     2.2791     1.9148  -999.2500    85.3655     0.0000    28.0314   131.9208   335.0651   348.4556  -999.2500     0.0000   335.0964  -999.2500     0.0313     2.4076     2.0045  -999.2500     0.0000  3125.5000
   5246.0000    18.7149    17.5906   240.0336   139.8588     0.0000     2.3129     1.9065  -999.2500    85.3655     0.0000    28.0314   131.9269   334.8694   348.5489  -999.2500     0.0000   334.7978  -999.2500   359.9285     2.4455     1.9954  -999.2500     0.0000  3190.6667
   5246.5000    18.6401    17.5049   238.0855   139.8588     0.0000     2.3559     1.9035  -999.2500    85.3655     0.0000    28.0314   131.9330   334.6624   348.5504  -999.2500     0.0000   334.4133  -999.2500   359.7511     2.4929     1.9916  -999.2500     0.0000  3146.0000
   5247.0000    18.7267    17.5012   240.8157   139.8588     0.0000     2.3934     1.9018  -999.2500    85.3655     0.0000    28.0314   131.9391   334.5186   348.5111  -999.2500     0.0000   334.2128  -999.2500   359.6943     2.5359     1.9904  -999.2500     0.0000  3150.5002
   5247.5000    18.6913    17.5049   237.6791   139.8588     0.0000     2.4413     1.8999  -999.2500    85.3655     0.0000    28.0314   131.9451   334.4661   348.3602  -999.2500     0.0000   333.6700  -999.2500   359.2046     2.5893     1.9880  -999.2500     0.0000  3055.7500
   5248.0000    18.6913    17.5049   232.2205   139.8588     0.0000     2.4872     1.8969  -999.2500    85.3655     0.0000    28.0314   131.9513   334.4896   348.3608  -999.2500     0.0000   333.0394  -999.2500   358.5512     2.6410     1.9847  -999.2500     0.0000  3062.0000
   5248.5000    18.6952    17.5049   230.0744   139.8588     0.0000     2.5483     1.8961  -999.2500    85.3655     0.0000    28.0314   131.9574   334.6225   348.2462  -999.2500     0.0000   332.6545  -999.2500   358.0341     2.7101     1.9838  -999.2500     0.0000  3025.0002
   5249.0000    18.7228    17.5235   230.0678   139.8588     0.0000     2.6160     1.8966  -999.2500    85.3655     0.0000    28.0314   131.9634   334.9743   348.2596  -999.2500     0.0000   332.2704  -999.2500   357.2993     2.7872     1.9846  -999.2500     0.0000  3010.5000
   5249.5000    18.6874    17.5422   230.0974   139.8588     0.0000     2.6810     1.8926  -999.2500    85.3655     0.0000    28.0314   131.9695   335.4355   348.1694  -999.2500     0.0000   331.6432  -999.2500   356.2123     2.8606     1.9798  -999.2500     0.0000  2991.6667
   5250.0000    18.7346    17.4975   231.2450   139.8588     0.0000     2.7442     1.8927  -999.2500    85.3655     0.0000    28.0314   131.9756   335.8672   348.1103  -999.2500     0.0000   331.4511  -999.2500   355.5897     2.9333     1.9802  -999.2500     0.0000  3088.0000
   5250.5000    18.6441    17.4975   239.1897   139.8588     0.0000     2.8146     1.8953  -999.2500    85.3655     0.0000    28.0314   131.9817   336.5778   348.0346  -999.2500     0.0000   330.5773  -999.2500   354.0077     3.0124     1.9822  -999.2500     0.0000  3158.3335
   5251.0000    18.6322    17.4900   239.6393   139.8588     0.0000     2.8757     1.8956  -999.2500    85.3655     0.0000    28.0314   131.9878   337.3874   347.9639  -999.2500     0.0000   328.2784  -999.2500   350.9038     3.0819     1.9823  -999.2500     0.0000  3083.2500
   5251.5000    18.0968    17.4937   239.4293   139.8588     0.0000     2.9261     1.8963  -999.2500    85.3655     0.0000    28.0314   131.9939   338.2204   348.0190  -999.2500     0.0000   326.3933  -999.2500   348.1902     3.1304     1.9796  -999.2500     0.0000  3203.2502
   5252.0000    12.5609    15.9071   238.9424   139.8588     0.0000     3.2846     1.9321  -999.2500    85.3655     0.0000    28.0314   132.0000   339.8793   347.9090  -999.2500     0.0000   325.5414  -999.2500   345.6867     3.4280     1.9816  -999.2500     0.0000  3170.7500
   5252.5000    11.2498    15.1361   243.2805   139.8588     0.0000     3.3879     1.9417  -999.2500    85.3655     0.0000    28.0314   132.0061   339.7873   347.9260  -999.2500     0.0000   325.1883  -999.2500   345.4273     3.5130     1.9834  -999.2500     3.5024  3242.5002
   5253.0000    10.3442    14.4880   241.5623   139.8588     0.0000     3.4267     1.9477  -999.2500    85.3655     0.0000    28.0314   132.0122   339.6202   347.8852  -999.2500     0.0000   324.6794  -999.2500   345.0863     3.5356     1.9845  -999.2500     3.5259  3199.6667
   5253.5000    10.2772    14.4210   232.7192   139.8588     0.0000     3.2350     1.9472  -999.2500    85.3655     0.0000    28.0314   132.0183   340.2514   347.9451  -999.2500     0.0000   323.2198  -999.2500   342.9956     3.3319     1.9840  -999.2500     3.2693  3100.0000
   5254.0000     7.2140     9.5940   223.1613   139.8588     0.0000     2.9583     1.9706  -999.2500    85.3655     0.0000    28.0314   132.0244   342.9677   347.8734  -999.2500     0.0000   323.2583  -999.2500   340.3154     2.9927     1.9869  -999.2500     3.2253  3040.2500
   5254.5000     7.1746     9.5456   209.2266   139.8588     0.0000     2.5969     1.9706  -999.2500    85.3655     0.0000    28.0314   132.0304   345.9195 -9999.9999  -999.2500     0.0000   322.5650  -999.2500   336.6673     2.6239 -7938.1928  -999.2500     2.7039  2886.5000
   5255.0000     7.1864     9.5344   201.6995   139.8588     0.0000     2.4439     1.9706  -999.2500    85.3655     0.0000    28.0314   132.0366   347.3934  -999.2500  -999.2500     0.0000   322.1416  -999.2500   334.7688     2.4684  -999.2500  -999.2500     2.8433  2861.7502
   5255.5000     7.1825     9.5270   191.2251   139.8588     0.0000     1.9861     1.9706  -999.2500    85.3655     0.0000    28.0314   132.0426   348.4890  -999.2500  -999.2500     0.0000   314.6159  -999.2500   326.1431     2.0038  -999.2500  -999.2500     2.2747  2701.6667
   5256.0000     7.1825     9.4674   178.8165   139.8588     0.0000     1.9766     1.9706  -999.2500    85.3655     0.0000    28.0314   132.0487   348.5452  -999.2500  -999.2500     0.0000   314.4570  -999.2500   325.9279     1.9942  -999.2500  -999.2500     1.7060  2540.0000
   5256.5000     7.1904     9.4152   167.9083   139.8588     0.0000     1.9736     1.9706  -999.2500    85.3655     0.0000    28.0314   132.0548   348.5463  -999.2500  -999.2500     0.0000   314.1890  -999.2500   325.6589     1.9912  -999.2500  -999.2500     1.1373  2532.0000
   5257.0000     7.1510     9.3780   156.9730   139.8588     0.0000     1.9731     1.9706  -999.2500    85.3655     0.0000    28.0314   132.0609   348.5111  -999.2500  -999.2500     0.0000   313.9783  -999.2500   325.4833     1.9904  -999.2500  -999.2500     0.5687  2371.3335
   5257.5000     7.1431     9.3333   145.3798   139.8588     0.0000     1.9708     1.9706  -999.2500    85.3655     0.0000    28.0314   132.0670   348.3602  -999.2500  -999.2500     0.0000   313.8211  -999.2500   325.4771     1.9880  -999.2500  -999.2500     0.0000  2258.0002
