~VERSION INFORMATION
VERS.           1.2   :CWLS Log ASCII Standard - VERSION 1.2
WRAP.           NO    :One Line per depth step
PROD.  Schlumberger   :LAS Producer
PROG.  DLIS to ASCII 2.3                               :LAS Program name and version
CREA.        2015/05/06 16:26                          :LAS Creation date {YYYY/MM/DD hh:mm}
DLIS_CREA.  2015-May-04 11:59                          :DLIS Creation date and time {YYYY-MMM-DD hh:mm}
SOURCE.     301ad50a-0e97-4ef4-9f57-5a70afd84532       :DLIS File Name
#--------------------------------------------------
~WELL INFORMATION
#MNEM.UNIT      DATA             DESCRIPTION
#---- ------ --------------   -----------------------------
STRT .F      23.5000         :START DEPTH     
STOP .F      5264.5000       :STOP DEPTH     
STEP .F       0.5000         :STEP       
NULL .          -999.25      :NULL VALUE
COMP .                 COMPANY:  ADM COMPANY                        
WELL .                    WELL:  CCS#2                              
FLD  .                   FIELD:  WILDCAT                            
LOC  .                LOCATION:  Latitude: 39.885961                
CNTY .                  COUNTY:  MACON                              
STAT .                   STATE:  ILLINOIS                           
CTRY .                 COUNTRY:  USA                                
SRVC .         SERVICE COMPANY:  Schlumberger                       
LATI .DEG             LATITUDE:  39° 53' 9.46" N                    
LONG .DEG            LONGITUDE:  88° 53' 16.958" W                  
API  .              API NUMBER:  12-115-23713-00                    
DATE .                LOG DATE:  03-May-2015
UWI  .          UNIQUE WELL ID:                                     
#-----------------------------------------------------------------------------
~PARAMETER INFORMATION
#MNEM.UNIT    VALUE                      DESCRIPTION
#---- -----   --------------------       ------------------------
CN   .        ADM COMPANY                :Company Name
WN   .        CCS#2                      :Well Name
FN   .        WILDCAT                    :Field Name
FL   .        Latitude  39.885961        :Field Location
FL1  .        Longitude  -88.888044      :Field Location, Line 1
COUN .        MACON                      :County or Parish
STAT .        ILLINOIS                   :State or Province
NATI .        USA                        :Nation
DATE .        03-May-2015                :Tools Above Rotary Table Date
APIN .        12-115-23713-00            :API Well Number
SECT .        32                         :Section
TOWN .        17N                        :Township
RANG .        3E                         :Range
DMF  .        KB                         :Drilling Measured From (Name of Drilling Elevation Reference)
LMF  .        KB                         :Logging Measured From (Name of Logging Elevation Reference)
PDAT .        GL                         :Permanent Datum
ENGI .        Yazan Alhabahbeh           :Engineer s Name
WITN .        Nick Malkewicz             :Witness s Name
LATI .        39° 53' 9.46  N            :Latitude
LONG .        88° 53' 16.958  W          :Longitude
LUL  .        BRADFORD                   :Logging Unit Location
LUN  .        3019                       :Logging Unit Number
RUN  .        2B                         :Run Number
SON  .        D9QJ-00005                 :Service Order Number
BHT  .DEGF     132.00000                 :Bottom Hole Temperature
BS   .IN        17.50000                 :Bit Size
MDEN .G/C3       2.71000                 :Matrix Density for Density Porosity
DFD  .LB/G       9.15000                 :Drilling Fluid Density
DFV  .S         61.00000                 :Drilling Fluid Viscosity
DFL  .C3      -999.25000                 :Drilling Fluid Loss
RMFS .OHMM       0.16000                 :Resistivity of Mud Filtrate Sample
EKB  .F        691.19995                 :Elevation of Kelly Bushing
EGL  .F        675.69995                 :Elevation of Ground Level
BLI  .F       5252.00000                 :Bottom Log Interval
BSAL .PPM     14700.00000                :Borehole Salinity
FLEV .F          8.00000                 :Depth of Drilling Fluid Level to LMF (Log Measured From)
MCST .DEGF      74.30000                 :Mudcake Sample Temperature
MFST .DEGF      72.50000                 :Mud Filtrate Sample Temperature
MRT  .DEGF     135.00000                 :Maximum Recorded Temperature
MST  .DEGF      73.50000                 :Mud Sample Temperature
RMCS .OHMM       0.26600                 :Resistivity of Mud Cake Sample
RMS  .OHMM       0.19000                 :Resistivity of Mud Sample
RW   .OHMM       1.00000                 :Connate Water Resistivity
TDD  .F       5252.00000                 :Driller Total Depth
TDL  .F       5252.00000                 :Logger Total Depth
TLI  .F        200.00000                 :Top Log Interval
HIDE .        WILDCAT                    :Header Identifier
MATR .        LIME                       :Rock Matrix for Neutron Porosity Corrections
FNUM .           1.00000                 :F-Numerator for Formation Factor Formula
FEXP .           2.00000                 :Exponent "m" for Formation Factor Formula
DFT  .        SALT WATER                 :Drilling Fluid Type
DFPH .          11.00000                 :Drilling Fluid pH
MCSS .        Calculated                 :Mudcake Sample Source
MFSS .        Calculated                 :Mud Filtrate Sample Source
FD   .G/C3       1.00000                 :Fluid Density
MSS  .        Active Tank                :Mud Sample Source
OS1  .                                   :Other Services Line 1
OS2  .                                   :Other Services Line 2
OS3  .                                   :Other Services Line 3
OS4  .                                   :Other Services Line 4
OS5  .                                   :Other Services Line 5
R1   .        THANKS FOR CHOOSING

SCHLUMBERGER!!! :Remarks Line 1
R2   .        MATRIX  LIMESTONE          :Remarks Line 2
R3   .        MATRIX DENSITY  2.71 G/CC  :Remarks Line 3
R4   .        All WELL PROPERTIES PROVIDED BY

CLIENT . :Remarks Line 4
R5   .        ALL SCALES ON PRESENTATIONS AS PER

CLIENT REQUEST :Remarks Line 5
R6   .        Temp recorded by sensors inside the tool . :Remarks Line 6
R7   .                                   :Remarks Line 7
R8   .                                   :Remarks Line 8
TCS  .        04 45 00                   :Time Circulation Stopped
TLAB .        22 39 00                   :Time Logger At Bottom
EPD  .C3         675.699951              :Elevation of Permanent Datum above Mean Sea Level
APD  .F          15.500000               :Elevation of Depth Reference (LMF) above Permanent Datum
#-----------------------------------------------------------------------------
~CURVE INFORMATION
#MNEM.UNIT   API CODE                                  DESCRIPTION
#---- -----  --------                                  -----------------------
DEPT .F                                                :DEPTH (BOREHOLE) {F12.4}
C1   .IN                                               :Caliper 1 {F11.4}
C2   .IN                                               :Caliper 2 {F11.4}
CDF  .LBF                                              :Calibrated Downhole Force {F11.4}
CTEM .DEGF                                             :Cartridge Temperature {F11.4}
DCAL .IN                                               :Differential Caliper {F11.4}
DEVI .DEG                                              :Hole Deviation {F11.4}
DEVIM.DEG                                              :Memorized Deviation {F11.4}
DTCO .US/F                                             :Delta-T Compressional {F11.4}
DTSM .US/F                                             :Delta-T Shear {F11.4}
ED   .F                                                :East Departure {F11.4}
GR_EDTC.GAPI                                           :Gamma Ray {F11.4}
GTEM .DEGF                                             :Generalized Borehole Temperature {F11.4}
HAZI .DEG                                              :Hole Azimuth Relative to True North {F11.4}
HAZIM.DEG                                              :Hole Azimuth Relative to True North {F11.4}
ITT  .S                                                :Integrated Transit Time {F11.4}
ND   .F                                                :North Departure {F11.4}
P1AZ .DEG                                              :Pad 1 Azimuth in Horizontal Plane (0 = True North) {F11.4}
PR   .                                                 :Poisson s Ratio {F11.4}
RB   .DEG                                              :Relative Bearing {F11.4}
SDEV .DEG                                              :Sonde Deviation {F11.4}
SDEVM.DEG                                              :Sonde Deviation {F11.4}
SPHI .CFCF                                             :Sonic Porosity {F11.4}
STIT .F                                                :Stuck Tool Indicator, Total {F11.4}
TENS .LBF                                              :Cable Tension {F11.4}
#-----------------------------------------------------------------------------
# 
#      DEPT         C1         C2        CDF        CTEM       DCAL       DEVI      DEVIM       DTCO       DTSM        ED      GR_EDTC      GTEM       HAZI      HAZIM       ITT         ND        P1AZ        PR         RB        SDEV      SDEVM       SPHI       STIT       TENS
#
~A  
# ...
   2111.5000    18.5299    22.6187   227.7828   139.8588     3.0780     1.0977     1.0685   100.9210   187.6950     0.0000   116.3619    93.7304   318.0050   309.5732     0.1772     0.0000    61.0916     0.2967   103.0892     1.1344     1.1033     0.3378     0.0000  2010.7500
   2112.0000    18.6047    22.7863   237.9068   139.8588     3.2551     1.1087     1.0491   100.5286   189.6834     0.0000   114.8138    93.7365   317.6401   308.7189     0.1772     0.0000    60.1624     0.3047   102.5249     1.1466     1.0829     0.3348     0.0000  2099.2500
   2112.5000    18.7031    22.8831   235.2818   139.8588     3.2562     1.1264     1.0264    99.8403   193.1464     0.0000   113.5368    93.7426   317.0140   307.6866     0.1771     0.0000    59.7717     0.3177   102.7601     1.1658     1.0589     0.3296     0.0000  2089.0000
   2113.0000    18.6283    22.8906   230.3176   139.8588     3.5283     1.1510     1.0033    99.3857   194.6102     0.0000   106.2568    93.7487   316.5128   306.6475     0.1771     0.0000    58.8996     0.3236   102.3894     1.1921     1.0344     0.3262     0.0000  2051.3333
   2113.5000    18.5653    23.1662   239.4370   139.8588     3.6681     1.1776     0.9825   101.6622   198.3671     0.0000   103.5390    93.7548   316.1602   305.5415     0.1770     0.0000    59.0736     0.3219   102.9156     1.2214     1.0128     0.3433     0.0000  2058.6667
   2114.0000    18.5614    23.1066   233.7116   139.8588     3.1449     1.2021     0.9680   102.3646   198.2519     0.0000   102.0199    93.7608   315.8870   304.5917     0.1770     0.0000    58.3445     0.3182   102.4603     1.2477     0.9973     0.3486     0.0000  2105.0000
   2114.5000    18.5023    23.1066   227.9992   139.8588     3.0467     1.2186     0.9555   103.8354   200.8266     0.0000   103.6460    93.7669   315.8388   303.6982     0.1769     0.0000    57.2983     0.3112   101.4617     1.2655     0.9839     0.3597     0.0000  1978.2500
   2115.0000    18.5062    23.1662   232.4378   139.8588     3.3201     1.2225     0.9506   105.3063   198.4805     0.0000   103.0891    93.7730   315.8391   303.0639     0.1769     0.0000    55.9873     0.3041   100.1508     1.2701     0.9787     0.3707     0.0000  2081.6667
   2115.5000    18.5417    23.1103   228.4319   139.8588     3.2365     1.2220     0.9464   105.4350   197.4656     0.0000   105.4549    93.7791   315.8975   302.4489     0.1769     0.0000    56.9451     0.3006   101.0505     1.2693     0.9741     0.3717     0.0000  2023.6666
   2116.0000    18.5062    23.1513   229.6678   139.8588     3.3519     1.2125     0.9483   106.1699   201.1682     0.0000   104.8617    93.7852   315.8085   302.1433     0.1768     0.0000    58.9115     0.3070   103.1061     1.2589     0.9762     0.3772     0.0000  2017.3334
   2116.5000    18.5181    23.1141   229.0502   139.8588     3.3065     1.1974     0.9526   104.9538   195.8180     0.0000   104.0324    93.7913   315.7483   301.7255     0.1768     0.0000    58.8734     0.2985   103.1276     1.2425     0.9806     0.3681     0.0000  2089.0000
   2117.0000    18.3409    23.0470   231.3687   139.8588     3.1587     1.1808     0.9583   105.9294   195.5518     0.0000   103.0811    93.7974   315.4437   301.2993     0.1767     0.0000    59.2223     0.2924   103.7817     1.2243     0.9865     0.3754     0.0000  2058.5000
   2117.5000    18.3960    23.0619   230.0530   139.8588     2.8983     1.1648     0.9606   106.3385   201.0442     0.0000   110.5417    93.8035   315.0530   300.8029     0.1766     0.0000    59.3724     0.3058   104.3218     1.2071     0.9887     0.3785     0.0000  2069.2500
   2118.0000    18.3330    23.0470   227.9837   139.8588     3.1189     1.1514     0.9621   106.5070   187.6740     0.0000   113.7127    93.8096   314.5141   300.1693     0.1766     0.0000    59.3654     0.2625   104.8543     1.1926     0.9900     0.3798     0.0000  1996.6667
   2118.5000    18.3448    23.0470   233.5171   139.8588     3.2495     1.1415     0.9622   106.5267   193.9109     0.0000   118.4173    93.8157   313.8205   299.4546     0.1765     0.0000    60.3575     0.2839   106.5408     1.1817     0.9899     0.3799     0.0000  2073.7500
   2119.0000    18.2779    22.9725   227.8015   139.8588     2.8053     1.1324     0.9608   107.1718   183.6810     0.0000   126.4113    93.8218   313.2025   298.5920     0.1765     0.0000    61.1616     0.2419   107.9628     1.1716     0.9883     0.3848     0.0000  2045.5001
   2119.5000    18.2700    22.9465   233.9499   139.8588     2.9319     1.1244     0.9581   108.8976   180.8039     0.0000   137.5269    93.8279   312.4743   297.6427     0.1764     0.0000    62.8168     0.2154   110.3470     1.1626     0.9854     0.3977     0.0000  2021.0001
   2120.0000    18.4039    23.0619   228.4629   139.8588     2.5467     1.1109     0.9539   106.9393   179.5959     0.0000   143.7908    93.8340   311.7768   296.5138     0.1764     0.0000    63.5448     0.2253   111.7714     1.1482     0.9811     0.3830     0.0000  2049.0000
   2120.5000    18.3054    22.5777   233.2698   139.8588     2.4724     1.1041     0.9510   106.3871   176.8159     0.0000   132.8359    93.8401   311.1318   295.3290     0.1763     0.0000    63.3566     0.2163   112.2288     1.1399     0.9771     0.3789     0.0000  2022.0001
   2121.0000    18.3409    22.7491   234.7041   139.8588     2.4316     1.0852     0.9474   104.3979   172.8859     0.0000   127.2625    93.8462   310.3759   294.1537     0.1763     0.0000    62.6500     0.2130   112.2780     1.1201     0.9733     0.3639     0.0000  2102.2500
   2121.5000    18.2779    22.5554   228.4783   139.8588     2.4050     1.0698     0.9513   103.8755   183.0393     0.0000   127.3319    93.8522   309.5732   293.2712     0.1762     0.0000    62.7535     0.2625   113.1838     1.1033     0.9771     0.3600     0.0000  2007.3334
   2122.0000    18.2228    22.1792   236.3335   139.8588     2.4339     1.0515     0.9564   102.7865   184.2926     0.0000   133.1491    93.8583   308.7189   292.6155     0.1762     0.0000    63.9720     0.2742   115.2572     1.0829     0.9821     0.3518     0.0000  2085.7500
   2122.5000    18.2109    22.0861   234.1354   139.8588     2.2356     1.0292     0.9619   102.1656   185.4308     0.0000   134.1485    93.8644   307.6866   292.1453     0.1761     0.0000    64.3206     0.2821   116.6376     1.0589     0.9877     0.3471     0.0000  2132.4998
   2123.0000    18.2109    22.0675   235.1188   139.8588     2.2564     1.0061     0.9730   101.9375   181.1445     0.0000   131.3951    93.8705   306.6475   291.9642     0.1761     0.0000    64.1227     0.2683   117.4794     1.0344     0.9993     0.3454     0.0000  2120.3335
   2123.5000    18.2149    22.1084   234.1509   139.8588     2.2834     0.9826     0.9822   101.4822   178.5457     0.0000   134.2861    93.8766   305.3138   291.9956     0.1760     0.0000    62.3418     0.2614   117.0314     1.0096     1.0090     0.3420     0.0000  2108.5002
   2124.0000    18.1440    22.1308   232.7044   139.8588     2.2535     0.9673     0.9958   101.1826   181.1161     0.0000   139.4201    93.8827   304.4865   292.4997     0.1760     0.0000    61.6144     0.2731   117.1316     0.9934     1.0233     0.3397     0.0000  2095.7500
   2124.5000    18.1361    22.1680   233.7645   139.8588     2.2665     0.9551     1.0096   101.9101   183.5389     0.0000   144.2219    93.8888   303.6090   293.1226     0.1759     0.0000    61.8305     0.2771   118.2247     0.9805     1.0378     0.3452     0.0000  2092.5002
   2125.0000    18.2188    22.1978   232.6516   139.8588     2.4250     0.9511     1.0204   103.0821    94.2499     0.0000   148.6551    93.8949   303.0391   293.6747     0.1759     0.0000    61.7627     3.5484   118.7266     0.9763     1.0493     0.3540     0.0000  2084.0000
   2125.5000    18.3409    22.3915   232.5118   139.8588     2.5376     0.9520     1.0313   103.0821   129.9954     0.0000   147.7077    93.9010   302.4641   294.2291     0.1758     0.0000    62.0456    -0.3470   119.5851     0.9774     1.0612     0.3540     0.0000  2107.6667
