~VERSION INFORMATION
VERS.           1.2   :CWLS Log ASCII Standard - VERSION 1.2
WRAP.           NO    :One Line per depth step
PROD.  Schlumberger   :LAS Producer
PROG.  DLIS to ASCII 2.3                               :LAS Program name and version
CREA.        2015/01/14 20:43                          :LAS Creation date {YYYY/MM/DD hh:mm}
DLIS_CREA.  2015-Jan-14 13:25                          :DLIS Creation date and time {YYYY-MMM-DD hh:mm}
SOURCE.     d5fbb1e7-1f44-4e43-b8fb-7fdeb49dde7f       :DLIS File Name
#--------------------------------------------------
~WELL INFORMATION
#MNEM.UNIT      DATA             DESCRIPTION
#---- ------ --------------   -----------------------------
STRT .F       8.0000         :START DEPTH     
STOP .F      353.0000        :STOP DEPTH     
STEP .F       0.5000         :STEP       
NULL .          -999.25      :NULL VALUE
COMP .                 COMPANY:  ADM Company                        
WELL .                    WELL:  CCS#2                              
FLD  .                   FIELD:  Wildcat                            
LOC  .                LOCATION:  Latitude: 39.885961                
CNTY .                  COUNTY:  Macon                              
STAT .                   STATE:  Illinois                           
CTRY .                 COUNTRY:  USA                                
SRVC .         SERVICE COMPANY:  Schlumberger                       
LATI .DEG             LATITUDE:  39° 53' 9.46" N                    
LONG .DEG            LONGITUDE:  88° 53' 16.959" W                  
API  .              API NUMBER:  12-115-23713-00                    
DATE .                LOG DATE:  12-Jan-2015
UWI  .          UNIQUE WELL ID:                                     
#-----------------------------------------------------------------------------
~PARAMETER INFORMATION
#MNEM.UNIT    VALUE                      DESCRIPTION
#---- -----   --------------------       ------------------------
CN   .        ADM Company                :Company Name
WN   .        CCS#2                      :Well Name
FN   .        Wildcat                    :Field Name
FL   .        Latitude  39.885961        :Field Location
FL1  .        Longitude  -88.888044      :Field Location, Line 1
COUN .        Macon                      :County or Parish
STAT .        Illinois                   :State or Province
NATI .        USA                        :Nation
DATE .        12-Jan-2015                :Tools Above Rotary Table Date
APIN .        12-115-23713-00            :API Well Number
SECT .        32                         :Section
TOWN .        17N                        :Township
RANG .        3E                         :Range
DMF  .        KB                         :Drilling Measured From (Name of Drilling Elevation Reference)
LMF  .        KB                         :Logging Measured From (Name of Logging Elevation Reference)
PDAT .        GL                         :Permanent Datum
ENGI .        Devin Arnold               :Engineer s Name
WITN .        Nick Malkewicz             :Witness s Name
LATI .        39° 53' 9.46  N            :Latitude
LONG .        88° 53' 16.959  W          :Longitude
LUL  .        Bradford                   :Logging Unit Location
LUN  .        3095                       :Logging Unit Number
RUN  .        1                          :Run Number
SON  .        D71E-00006                 :Service Order Number
BHT  .DEGF      58.00000                 :Bottom Hole Temperature
BS   .IN        26.00000                 :Bit Size
MDEN .G/C3       2.71000                 :Matrix Density for Density Porosity
DFD  .LB/G      10.10000                 :Drilling Fluid Density
DFV  .S         60.00000                 :Drilling Fluid Viscosity
DFL  .C3      -999.25000                 :Drilling Fluid Loss
RMFS .OHMM       1.23200                 :Resistivity of Mud Filtrate Sample
EKB  .F        691.19995                 :Elevation of Kelly Bushing
EGL  .F        675.69995                 :Elevation of Ground Level
BLI  .F        342.00000                 :Bottom Log Interval
BSAL .PPM        0.00000                 :Borehole Salinity
FLEV .F          8.00000                 :Depth of Drilling Fluid Level to LMF (Log Measured From)
MCST .DEGF      42.80000                 :Mudcake Sample Temperature
MFST .DEGF      42.80000                 :Mud Filtrate Sample Temperature
MRT  .DEGF      58.00000                 :Maximum Recorded Temperature
MST  .DEGF      42.80000                 :Mud Sample Temperature
RMCS .OHMM       1.84800                 :Resistivity of Mud Cake Sample
RMS  .OHMM       1.54000                 :Resistivity of Mud Sample
RW   .OHMM       1.00000                 :Connate Water Resistivity
TDD  .F        349.00000                 :Driller Total Depth
TDL  .F        349.00000                 :Logger Total Depth
TLI  .F         50.00000                 :Top Log Interval
HIDE .        Wildcat                    :Header Identifier
MATR .        LIME                       :Rock Matrix for Neutron Porosity Corrections
FNUM .           1.00000                 :F-Numerator for Formation Factor Formula
FEXP .           2.00000                 :Exponent "m" for Formation Factor Formula
DFT  .        Fresh Mud                  :Drilling Fluid Type
DFPH .        -999.25000                 :Drilling Fluid pH
MCSS .        Calculated                 :Mudcake Sample Source
MFSS .        Calculated                 :Mud Filtrate Sample Source
FD   .G/C3       1.00000                 :Fluid Density
MSS  .        Active Tank                :Mud Sample Source
OS1  .                                   :Other Services Line 1
OS2  .                                   :Other Services Line 2
OS3  .                                   :Other Services Line 3
OS4  .                                   :Other Services Line 4
OS5  .                                   :Other Services Line 5
R1   .        Matrix Density  Limestone. :Remarks Line 1
R2   .        Mud Sample taken on location. :Remarks Line 2
R3   .        Presentations as per client request. :Remarks Line 3
R4   .        No Chemical Sources ran due to possible potable water zones. :Remarks Line 4
R5   .        Bottom Hole Temperature taken from GM2 temperature log provided by the client. 58degF :Remarks Line 5
R6   .                                   :Remarks Line 6
R7   .                                   :Remarks Line 7
R8   .        APS ran outside max bit size range of 20in causing faulty data. :Remarks Line 8
TCS  .        19 45 00                   :Time Circulation Stopped
TLAB .        01 15 00                   :Time Logger At Bottom
NMT  .        NOBARITE                   :HRDD Mud Type for Nuclear Devices
EPD  .C3         675.699951              :Elevation of Permanent Datum above Mean Sea Level
APD  .F          15.500000               :Elevation of Depth Reference (LMF) above Permanent Datum
#-----------------------------------------------------------------------------
~CURVE INFORMATION
#MNEM.UNIT   API CODE                                  DESCRIPTION
#---- -----  --------                                  -----------------------
DEPT .F                                                :DEPTH (BOREHOLE) {F12.4}
AF10 .OHMM                                             :Array Induction Four Foot Resistivity A10 {F11.4}
AF20 .OHMM                                             :Array Induction Four Foot Resistivity A20 {F11.4}
AF30 .OHMM                                             :Array Induction Four Foot Resistivity A30 {F11.4}
AF60 .OHMM                                             :Array Induction Four Foot Resistivity A60 {F11.4}
AF90 .OHMM                                             :Array Induction Four Foot Resistivity A90 {F11.4}
AO10 .OHMM                                             :Array Induction One Foot Resistivity A10 {F11.4}
AO20 .OHMM                                             :Array Induction One Foot Resistivity A20 {F11.4}
AO30 .OHMM                                             :Array Induction One Foot Resistivity A30 {F11.4}
AO60 .OHMM                                             :Array Induction One Foot Resistivity A60 {F11.4}
AO90 .OHMM                                             :Array Induction One Foot Resistivity A90 {F11.4}
AT10 .OHMM                                             :Array Induction Two Foot Resistivity A10 {F11.4}
AT20 .OHMM                                             :Array Induction Two Foot Resistivity A20 {F11.4}
AT30 .OHMM                                             :Array Induction Two Foot Resistivity A30 {F11.4}
AT60 .OHMM                                             :Array Induction Two Foot Resistivity A60 {F11.4}
AT90 .OHMM                                             :Array Induction Two Foot Resistivity A90 {F11.4}
AFEC .HZ                                               :Far Detector Count Rate {F11.4}
ANEC .HZ                                               :Near Detector Count Rate {F11.4}
AORT .OHMM                                             :Array Induction One Foot Rt {F11.4}
AORX .OHMM                                             :Array Induction One Foot Rxo {F11.4}
APDC .CFCF                                             :Near/Array Corrected Dolomite Porosity {F11.4}
APLC .PU                                               :Near/Array Corrected Limestone Porosity {F11.4}
APSC .CFCF                                             :Near/Array Corrected Sandstone Porosity {F11.4}
CDF  .LBF                                              :Calibrated Downhole Force {F11.4}
CTEM .DEGF                                             :Cartridge Temperature {F11.4}
DCAL .IN                                               :Differential Caliper {F11.4}
ED   .F                                                :East Departure {F11.4}
FPLC .CFCF                                             :Near/Far Corrected Limestone Porosity {F11.4}
GR_EDTC.GAPI                                           :Gamma Ray {F11.4}
GTEM .DEGF                                             :Generalized Borehole Temperature {F11.4}
HASC .CFCF                                             :APS High Resolution Near/Array Corrected Sandstone Porosity {F11.4}
HSIG .CU                                               :APS High Resolution Formation Capture Cross Section {F11.4}
HSTO .IN                                               :APS High Resolution Effective Standoff in Limestone {F11.4}
ND   .F                                                :North Departure {F11.4}
QSGF .                                                 :Quality of Formation Sigma {F11.4}
SIGF .CU                                               :Formation Capture Cross Section {F11.4}
SP   .MV                                               :Spontaneous Potential {F11.4}
SPAR .MV                                               :SP, Armor Return Compensated {F11.4}
STIT .F                                                :Stuck Tool Indicator, Total {F11.4}
STOF .IN                                               :Effective Standoff in Limestone {F11.4}
STPC .CFCF                                             :Corrected Standoff Porosity {F11.4}
TENS .LBF                                              :Cable Tension {F11.4}
#-----------------------------------------------------------------------------
# 
#      DEPT        AF10       AF20       AF30       AF60       AF90       AO10       AO20       AO30       AO60       AO90       AT10       AT20       AT30       AT60       AT90       AFEC       ANEC       AORT       AORX       APDC       APLC       APSC       CDF        CTEM       DCAL        ED        FPLC     GR_EDTC      GTEM       HASC       HSIG       HSTO        ND        QSGF       SIGF        SP        SPAR       STIT       STOF       STPC       TENS
#
~A  
# ...
    143.0000     9.2034    11.9694    13.7948    17.2730    17.6734     9.2076    11.8323    13.9548    19.7425    20.0683     9.3917    12.0807    14.1284    17.8467    18.4960   385.7143  2406.8572    20.8211     9.0001     0.7597    76.2752     0.7680   626.0355    90.4471     0.0000     0.2348     0.7765    58.6977    55.9401     0.7205    26.4712     0.4588     0.2685     0.2728    25.4196  -215.1042  -215.6628     0.0000     0.1997     0.7904   886.1428
    143.5000     9.5933    12.7091    14.8372    18.9717    19.4386    11.0810    14.9081    17.9694    26.4580    26.9812    10.1584    13.5539    16.1523    21.0972    22.2089   373.7143  2430.8572    27.8115     9.8019     0.7956    79.8133     0.8021   626.3911    90.4471     0.0000     0.2304     0.6297    58.9371    55.9451     0.7940    24.7787     0.0484     0.2697     0.2280    25.5621  -215.0670  -215.4457     0.0000     0.0183     0.7922   860.4074
    144.0000     9.8343    13.3339    15.7552    20.5180    21.0677    10.0647    14.0789    17.2124    25.0172    25.5067    10.0652    13.7220    16.4416    21.7589    23.2563   397.1429  2441.1428    26.1766     9.3788     0.8289    83.0993     0.8339   624.4358    90.4471     0.0000     0.2260     0.6357    60.1915    55.9501     0.8564    24.6822    -0.2685     0.2708     0.2231    25.2141  -215.2454  -215.3408     0.0000    -0.1597     0.7917   803.7037
    144.5000     9.9996    13.8422    16.5162    21.8243    22.4561     9.0487    12.2250    15.1109    21.4496    21.8499     9.8458    13.4808    16.2850    21.8164    23.9633   390.2857  2421.5000    22.7648     9.0438     0.8312    83.3287     0.8362   625.8248    90.4471     0.0000     0.2216     0.5900    58.2059    55.9551     0.8719    24.1773    -0.3169     0.2719     0.2213    25.3597  -215.4931  -215.3233     0.0000    -0.1719     0.7915   859.0000
    145.0000    10.1311    14.2499    17.0975    22.8072    23.5354    10.1780    14.4457    17.7692    24.8557    25.3445    10.0782    14.1913    17.2506    23.3418    25.7437   392.0000  2461.1428    25.7718     9.2608     0.7952    79.7813     0.8018   628.6764    90.4471     0.0000     0.2172     0.5645    57.4413    55.9601     0.7922    24.8607     0.0546     0.2729     0.2289    25.5163  -215.5764  -215.3918     0.0000     0.0190     0.7920   837.6667
    145.5000    10.2350    14.5605    17.4941    23.4266    24.2539    10.3456    14.7456    17.9625    24.1532    24.6163    10.3478    14.8194    18.0011    24.4523    27.1011   402.2857  2455.4285    24.9864     9.2601     0.8300    83.2102     0.8350   637.7012    90.4471     0.0000     0.2127     0.5699    57.3778    55.9651     0.7857    25.8163     0.1043     0.2739     0.2155    25.6924  -215.8519  -215.5543     0.0000    -0.1664     0.7915   800.5185
    146.0000    10.2974    14.7182    17.6435    23.5972    24.4560    10.5986    15.1871    18.3103    24.9791    25.4672    10.6455    15.3435    18.4309    24.9676    27.5866   391.4286  2366.2856    25.5306     9.4326     0.8079    81.0289     0.8139   646.2355    90.4471     0.0000     0.2082     0.6060    54.5602    55.9701     0.8419    26.4413    -0.2104     0.2749     0.2083    26.2209  -216.4144  -215.8362     0.0000    -0.0637     0.7899   837.5001
    146.5000    10.3092    14.7376    17.6173    23.4405    24.3077    11.5064    16.9627    19.9370    26.4426    26.9730    10.6898    15.3999    18.5468    24.9172    27.4387   373.7143  2468.0000    26.8030     9.7269     0.8329    83.4951     0.8378   644.6104    90.4471     0.0000     0.2037     0.7011    56.4192    55.9751     0.8748    26.4369    -0.3276     0.2758     0.2069    26.2875  -216.6227  -216.0832     0.0000    -0.1863     0.7902   828.3704
    147.0000    10.3250    14.7041    17.5088    23.1662    24.0141    10.0181    13.8421    15.9498    20.3980    20.7523    10.2097    14.4620    17.1616    22.9213    24.8530   373.1429  2365.1428    20.8449     8.9750     0.7931    79.5721     0.7998   636.4240    90.4471     0.0000     0.1993     0.6950    57.3782    55.9801     0.8425    25.3290    -0.2137     0.2767     0.2060    26.9961  -216.5089  -216.3038     0.0000     0.0291     0.7918   827.1852
    147.5000    10.3322    14.7340    17.4999    22.9238    23.8513     9.8454    13.5791    15.6145    19.4843    19.8169     9.9091    13.8055    16.2684    21.2106    22.9571   386.5000  2477.7144    19.8243     8.7355     0.8041    80.6512     0.8102   624.2580    90.4471     0.0000     0.1948     0.6544    58.9513    55.9851     0.7954    27.1597     0.0549     0.2775     0.1887    27.6579  -216.5347  -216.4665     0.0000    -0.0320     0.7916   866.0000
    148.0000    10.4529    14.9639    17.7275    23.0740    24.0235    10.0919    14.3235    16.0930    19.7165    20.0570    10.0626    14.2946    16.9026    21.8714    23.6468   389.1429  2395.4285    20.0877     8.8362     0.7768    77.9633     0.7842   622.5059    90.4471     0.0000     0.1904     0.6244    57.4411    55.9901     0.8072    29.3162    -0.0138     0.2783     0.2093    27.7974  -216.7292  -216.6974     0.0000     0.1226     0.7923   810.5555
    148.5000    10.6871    15.3349    18.1055    23.4444    24.4319    10.6591    15.3581    17.5371    21.5008    21.8882    10.6909    15.3567    18.0931    23.3115    24.9729   383.4286  2412.0000    21.8675     9.2379     0.7929    79.5518     0.7996   623.6129    90.4471     0.0000     0.1859     0.6537    58.0656    55.9951     0.8365    28.8327    -0.1714     0.2791     0.2021    27.2660  -217.2639  -216.9393     0.0000     0.0329     0.7922   870.0741
    149.0000    10.9283    15.6538    18.4955    23.8667    24.8790    12.0973    17.6383    19.7982    24.2369    24.6899    11.5236    16.9575    19.8490    25.3489    27.0119   378.8571  2459.4285    24.3518     9.8302     0.7991    80.1581     0.8054   623.1915    90.4471     0.0000     0.1815     0.7286    57.3894    56.0001     0.8455    26.3866    -0.2188     0.2798     0.1870    27.8990  -217.7824  -217.2051     0.0000    -0.0143     0.7903   892.2963
    149.5000    11.1526    15.9406    18.8675    24.3568    25.3195    12.4816    18.2395    20.4919    24.4500    24.9171    11.6614    17.0577    19.9359    25.7514    26.9135   367.4286  2403.4285    24.7721     9.8427     0.7688    77.1722     0.7766   627.1021    90.4471     0.0000     0.1769     0.7940    55.1437    56.0051     0.7931    26.1876    -0.2139     0.2805     0.2250    27.1064  -217.8773  -217.3375     0.0000     0.1402     0.7890   889.3215
    150.0000    11.3317    16.0829    19.0751    24.7240    25.5432    10.6301    14.9254    17.2549    20.7119    21.0982    11.2314    15.8512    18.6803    24.2756    25.0120   366.2857  2493.7144    21.0035     9.4852     0.7647    76.7685     0.7727   628.9191    90.4471     0.0000     0.1724     0.6906    52.7654    56.0101     0.7636    26.6656    -0.0501     0.2812     0.2185    26.7145  -217.8009  -217.4548     0.0000     0.0813     0.7782   885.4815
    150.5000    11.4833    16.1757    19.2270    24.8998    25.6720    10.8993    14.9395    17.2827    20.7206    21.1111    11.1792    15.4711    18.5101    24.0397    24.9183   408.0000  2420.0000    21.0547     9.5476     0.7305    73.3976     0.7403   626.7465    90.4471     0.0000     0.1679     0.6065    53.5660    56.0151     0.7881    27.9141     0.0853     0.2818     0.2304    26.5053  -217.9955  -217.6395     0.0000     0.1212     0.7598   846.8889
    151.0000    11.6498    16.2803    19.3459    24.8929    25.6735    12.0175    16.8083    19.4638    23.4971    23.9660    11.6961    16.3098    19.3448    25.2223    26.1093   391.4286  2460.5715    23.8411    10.2514     0.7555    75.8571     0.7639   623.5470    90.4471     0.0000     0.1634     0.5637    57.0571    56.0201     0.7642    25.9569     0.1513     0.2824     0.1886    27.3341  -218.2755  -217.8522     0.0000    -0.1085     0.7330   852.7778
    151.5000    11.7793    16.2567    19.2351    24.5657    25.2913    12.4545    17.3143    20.4087    25.3372    25.8603    12.2705    17.1303    20.4318    26.2779    27.4006   378.8571  2396.0000    25.7999    10.8369     0.7520    75.5162     0.7606   624.0803    90.4471     0.0000     0.1589     0.6051    59.2370    56.0251     0.7253    26.7656    -0.1714     0.2829     0.2495    27.2891  -218.5764  -218.1327     0.0000     0.2303     0.7891   858.0714
