~VERSION INFORMATION
VERS.           1.2   :CWLS Log ASCII Standard - VERSION 1.2
WRAP.           NO    :One Line per depth step
PROD.  Schlumberger   :LAS Producer
PROG.  DLIS to ASCII 2.3                               :LAS Program name and version
CREA.        2015/05/06 16:26                          :LAS Creation date {YYYY/MM/DD hh:mm}
DLIS_CREA.  2015-May-04 11:59                          :DLIS Creation date and time {YYYY-MMM-DD hh:mm}
SOURCE.     301ad50a-0e97-4ef4-9f57-5a70afd84532       :DLIS File Name
#--------------------------------------------------
~WELL INFORMATION
#MNEM.UNIT      DATA             DESCRIPTION
#---- ------ --------------   -----------------------------
STRT .F      23.5000         :START DEPTH     
STOP .F      5264.5000       :STOP DEPTH     
STEP .F       0.5000         :STEP       
NULL .          -999.25      :NULL VALUE
COMP .                 COMPANY:  ADM COMPANY                        
WELL .                    WELL:  CCS#2                              
FLD  .                   FIELD:  WILDCAT                            
LOC  .                LOCATION:  Latitude: 39.885961                
CNTY .                  COUNTY:  MACON                              
STAT .                   STATE:  ILLINOIS                           
CTRY .                 COUNTRY:  USA                                
SRVC .         SERVICE COMPANY:  Schlumberger                       
LATI .DEG             LATITUDE:  39° 53' 9.46" N                    
LONG .DEG            LONGITUDE:  88° 53' 16.958" W                  
API  .              API NUMBER:  12-115-23713-00                    
DATE .                LOG DATE:  03-May-2015
UWI  .          UNIQUE WELL ID:                                     
#-----------------------------------------------------------------------------
~PARAMETER INFORMATION
#MNEM.UNIT    VALUE                      DESCRIPTION
#---- -----   --------------------       ------------------------
CN   .        ADM COMPANY                :Company Name
WN   .        CCS#2                      :Well Name
FN   .        WILDCAT                    :Field Name
FL   .        Latitude  39.885961        :Field Location
FL1  .        Longitude  -88.888044      :Field Location, Line 1
COUN .        MACON                      :County or Parish
STAT .        ILLINOIS                   :State or Province
NATI .        USA                        :Nation
DATE .        03-May-2015                :Tools Above Rotary Table Date
APIN .        12-115-23713-00            :API Well Number
SECT .        32                         :Section
TOWN .        17N                        :Township
RANG .        3E                         :Range
DMF  .        KB                         :Drilling Measured From (Name of Drilling Elevation Reference)
LMF  .        KB                         :Logging Measured From (Name of Logging Elevation Reference)
PDAT .        GL                         :Permanent Datum
ENGI .        Yazan Alhabahbeh           :Engineer s Name
WITN .        Nick Malkewicz             :Witness s Name
LATI .        39° 53' 9.46  N            :Latitude
LONG .        88° 53' 16.958  W          :Longitude
LUL  .        BRADFORD                   :Logging Unit Location
LUN  .        3019                       :Logging Unit Number
RUN  .        2B                         :Run Number
SON  .        D9QJ-00005                 :Service Order Number
BHT  .DEGF     132.00000                 :Bottom Hole Temperature
BS   .IN        17.50000                 :Bit Size
MDEN .G/C3       2.71000                 :Matrix Density for Density Porosity
DFD  .LB/G       9.15000                 :Drilling Fluid Density
DFV  .S         61.00000                 :Drilling Fluid Viscosity
DFL  .C3      -999.25000                 :Drilling Fluid Loss
RMFS .OHMM       0.16000                 :Resistivity of Mud Filtrate Sample
EKB  .F        691.19995                 :Elevation of Kelly Bushing
EGL  .F        675.69995                 :Elevation of Ground Level
BLI  .F       5252.00000                 :Bottom Log Interval
BSAL .PPM     14700.00000                :Borehole Salinity
FLEV .F          8.00000                 :Depth of Drilling Fluid Level to LMF (Log Measured From)
MCST .DEGF      74.30000                 :Mudcake Sample Temperature
MFST .DEGF      72.50000                 :Mud Filtrate Sample Temperature
MRT  .DEGF     135.00000                 :Maximum Recorded Temperature
MST  .DEGF      73.50000                 :Mud Sample Temperature
RMCS .OHMM       0.26600                 :Resistivity of Mud Cake Sample
RMS  .OHMM       0.19000                 :Resistivity of Mud Sample
RW   .OHMM       1.00000                 :Connate Water Resistivity
TDD  .F       5252.00000                 :Driller Total Depth
TDL  .F       5252.00000                 :Logger Total Depth
TLI  .F        200.00000                 :Top Log Interval
HIDE .        WILDCAT                    :Header Identifier
MATR .        LIME                       :Rock Matrix for Neutron Porosity Corrections
FNUM .           1.00000                 :F-Numerator for Formation Factor Formula
FEXP .           2.00000                 :Exponent "m" for Formation Factor Formula
DFT  .        SALT WATER                 :Drilling Fluid Type
DFPH .          11.00000                 :Drilling Fluid pH
MCSS .        Calculated                 :Mudcake Sample Source
MFSS .        Calculated                 :Mud Filtrate Sample Source
FD   .G/C3       1.00000                 :Fluid Density
MSS  .        Active Tank                :Mud Sample Source
OS1  .                                   :Other Services Line 1
OS2  .                                   :Other Services Line 2
OS3  .                                   :Other Services Line 3
OS4  .                                   :Other Services Line 4
OS5  .                                   :Other Services Line 5
R1   .        THANKS FOR CHOOSING

SCHLUMBERGER!!! :Remarks Line 1
R2   .        MATRIX  LIMESTONE          :Remarks Line 2
R3   .        MATRIX DENSITY  2.71 G/CC  :Remarks Line 3
R4   .        All WELL PROPERTIES PROVIDED BY

CLIENT . :Remarks Line 4
R5   .        ALL SCALES ON PRESENTATIONS AS PER

CLIENT REQUEST :Remarks Line 5
R6   .        Temp recorded by sensors inside the tool . :Remarks Line 6
R7   .                                   :Remarks Line 7
R8   .                                   :Remarks Line 8
TCS  .        04 45 00                   :Time Circulation Stopped
TLAB .        22 39 00                   :Time Logger At Bottom
EPD  .C3         675.699951              :Elevation of Permanent Datum above Mean Sea Level
APD  .F          15.500000               :Elevation of Depth Reference (LMF) above Permanent Datum
#-----------------------------------------------------------------------------
~CURVE INFORMATION
#MNEM.UNIT   API CODE                                  DESCRIPTION
#---- -----  --------                                  -----------------------
DEPT .F                                                :DEPTH (BOREHOLE) {F12.4}
C1   .IN                                               :Caliper 1 {F11.4}
C2   .IN                                               :Caliper 2 {F11.4}
CDF  .LBF                                              :Calibrated Downhole Force {F11.4}
CTEM .DEGF                                             :Cartridge Temperature {F11.4}
DCAL .IN                                               :Differential Caliper {F11.4}
DEVI .DEG                                              :Hole Deviation {F11.4}
DEVIM.DEG                                              :Memorized Deviation {F11.4}
DTCO .US/F                                             :Delta-T Compressional {F11.4}
DTSM .US/F                                             :Delta-T Shear {F11.4}
ED   .F                                                :East Departure {F11.4}
GR_EDTC.GAPI                                           :Gamma Ray {F11.4}
GTEM .DEGF                                             :Generalized Borehole Temperature {F11.4}
HAZI .DEG                                              :Hole Azimuth Relative to True North {F11.4}
HAZIM.DEG                                              :Hole Azimuth Relative to True North {F11.4}
ITT  .S                                                :Integrated Transit Time {F11.4}
ND   .F                                                :North Departure {F11.4}
P1AZ .DEG                                              :Pad 1 Azimuth in Horizontal Plane (0 = True North) {F11.4}
PR   .                                                 :Poisson s Ratio {F11.4}
RB   .DEG                                              :Relative Bearing {F11.4}
SDEV .DEG                                              :Sonde Deviation {F11.4}
SDEVM.DEG                                              :Sonde Deviation {F11.4}
SPHI .CFCF                                             :Sonic Porosity {F11.4}
STIT .F                                                :Stuck Tool Indicator, Total {F11.4}
TENS .LBF                                              :Cable Tension {F11.4}
#-----------------------------------------------------------------------------
# 
#      DEPT         C1         C2        CDF        CTEM       DCAL       DEVI      DEVIM       DTCO       DTSM        ED      GR_EDTC      GTEM       HAZI      HAZIM       ITT         ND        P1AZ        PR         RB        SDEV      SDEVM       SPHI       STIT       TENS
#
~A  
# ...
    371.5000    21.8648    20.3356   226.5617   131.9529     4.2376     0.4602     0.3109    80.7186    94.1510     0.0000    66.7673    72.5270   334.9548   351.6836     0.2913     0.0000    98.1554    -0.8869   123.2008     0.4658     0.3134     0.1859     0.0000  1618.2501
    372.0000    22.7034    23.1588   221.3432   131.9529     5.9717     0.4569     0.3629    82.6849    91.5134     0.0000    63.2444    72.5331   333.8349   358.7667     0.2912     0.0000    97.7522    -0.6378   123.9183     0.4633     0.3669     0.2006     0.0000  1658.3334
    372.5000    21.4159    23.1215   232.0179   131.9529     5.5493     0.4515     0.3977  -999.2500    99.7162     0.0000    67.2835    72.5392   332.4767     2.1729     0.2912     0.0000    97.3237  -999.2500   124.8489     0.4576     0.4024  -999.2500     0.0000  1592.3334
    373.0000    21.1915    23.1662   244.0211   131.9529     4.4395     0.4436     0.4375    86.6174   115.6213     0.0000    69.8922    72.5453   330.7542     4.7412     0.2912     0.0000    96.9411    -0.1395   126.1877     0.4494     0.4431     0.2302     0.0000  1716.2501
    373.5000    21.3647    23.0545   211.1052   131.9529     4.9090     0.4340     0.4697    83.2310   107.1330     0.0000    73.4145    72.5514   328.9488     6.1515     0.2912     0.0000    95.1742    -0.2612   126.2260     0.4396     0.4762     0.2047     0.0000  1501.0000
    374.0000    21.6955    21.7434   223.3725   131.9529     3.8522     0.4210     0.4936    72.0717   103.4832     0.0000    74.4800    72.5575   327.3329     7.0597     0.2911     0.0000    96.0461     0.0290   128.7138     0.4260     0.5005     0.1208     0.0000  1501.2500
    374.5000    20.6048    20.5963   219.7286   131.9529     3.2690     0.4015     0.5143    74.4241    95.7745     0.0000    72.7567    72.5636   325.6248     7.3240     0.2911     0.0000    95.7658    -0.2621   130.1431     0.4057     0.5213     0.1385     0.0000  1586.7500
    375.0000    19.8725    20.2722   220.4255   131.9529     2.4862     0.3806     0.5301    75.3501    89.7879     0.0000    64.0762    72.5697   324.5293     7.3878     0.2911     0.0000    95.8000    -0.6907   131.2717     0.3842     0.5373     0.1455     0.0000  1561.0000
    375.5000    19.3173    18.7340   216.5923   131.9529     1.1539     0.3589     0.5441    72.7921    83.8012     0.0000    54.0783    72.5758   323.6010     7.4675     0.2910     0.0000    95.9086    -1.0368   132.3078     0.3619     0.5512     0.1263     0.0000  1455.2500
    376.0000    19.0457    18.1120   229.0309   131.9529     1.0347     0.3363     0.5565    72.6537    82.3143     0.0000    46.9243    72.5819   322.6265     7.5293     0.2910     0.0000    96.0064    -1.2630   133.3819     0.3389     0.5636     0.1252     0.0000  1553.2500
    376.5000    19.0102    18.0897   223.9805   131.9529     1.0496     0.3151     0.5698    75.8442    81.3348     0.0000    46.8908    72.5880   320.8707     7.5859     0.2910     0.0000    94.4047    -2.8327   133.5356     0.3174     0.5773     0.1492     0.0000  1636.7500
    377.0000    19.0457    18.0114   233.0747   131.9529     1.0496     0.2945     0.5775    75.0084    82.0889     0.0000    49.7002    72.5941   319.3445     7.5838     0.2909     0.0000    94.2496    -2.0290   134.9040     0.2964     0.5852     0.1429     0.0000  1637.7500
    377.5000    19.0102    18.0003   228.8493   131.9529     1.0197     0.2773     0.5765    72.2148    83.7183     0.0000    51.0404    72.6001   317.1089     7.8282     0.2909     0.0000    94.5927    -0.9536   137.4848     0.2790     0.5842     0.1219     0.0000  1590.2500
    378.0000    19.0457    18.0040   229.4160   131.9529     1.0345     0.2637     0.5647    73.1099    80.0449     0.0000    51.2010    72.6062   316.0764     7.6900     0.2908     0.0000    94.3413    -2.0162   138.2637     0.2652     0.5720     0.1286     0.0000  1603.0000
    378.5000    19.0535    18.0934   225.2943   131.9529     1.0200     0.2492     0.5466    71.5736    82.9025     0.0000    49.2785    72.6123   314.8557     7.0862     0.2908     0.0000    94.2660    -0.9636   139.4104     0.2506     0.5534     0.1171     0.0000  1574.6666
    379.0000    19.0575    18.0561   226.4387   131.9529     1.0048     0.2403     0.5241    71.4558    84.6238     0.0000    47.9555    72.6184   315.9191     5.8966     0.2908     0.0000    94.2082    -0.7422   138.2881     0.2416     0.5303     0.1162     0.0000  1586.3334
    379.5000    19.0142    17.9965   226.3453   131.9529     1.0644     0.2360     0.4993    71.9213    83.1311     0.0000    46.4371    72.6245   319.7903     3.7714     0.2907     0.0000    94.2378    -0.9880   134.4468     0.2373     0.5048     0.1197     0.0000  1599.3334
    380.0000    19.1126    18.1157   223.1651   131.9529     1.0496     0.2416     0.4751    73.0216    85.3505     0.0000    44.3389    72.6306   327.4291     0.1141     0.2907     0.0000    94.3648    -0.8654   126.9347     0.2429     0.4801     0.1280     0.0000  1656.2500
    380.5000    19.0260    17.9928   217.8751   131.9529     1.0795     0.2540     0.4564    78.3167    88.2246     0.0000    45.5306    72.6367   336.1051   355.8973     0.2907     0.0000    94.5588    -1.3585   118.4538     0.2555     0.4609     0.1678     0.0000  1443.5001
    381.0000    19.3488    18.1828   233.5191   131.9529     1.1690     0.2797     0.4441    80.1417    89.5636     0.0000    46.3530    72.6428   344.9729   351.5398     0.2906     0.0000    94.6506    -1.5084   109.6784     0.2814     0.4485     0.1815     0.0000  1675.7500
    381.5000    19.3803    18.3727   222.7504   131.9529     1.1096     0.3189     0.4404    84.1445    89.9546     0.0000    49.7298    72.6489   352.9016   347.7392     0.2906     0.0000    95.1661    -2.9998   102.2650     0.3212     0.4447     0.2116     0.0000  1623.7500
    382.0000    19.0496    18.0040   228.8935   131.9529     1.0796     0.3641     0.4424    89.4546    89.3823     0.0000    54.4657    72.6550   358.7667   344.9857     0.2905     0.0000    95.4825   309.6642    96.7159     0.3669     0.4467     0.2515     0.0000  1594.7500
    382.5000    19.1047    18.1232   230.2751   131.9529     1.1393     0.4069     0.4462    90.6325    93.8844     0.0000    66.3141    72.6611     2.5160   343.6075     0.2905     0.0000    95.6085    -6.3448    93.0925     0.4106     0.4506     0.2604     0.0000  1588.5000
    383.0000    19.2465    18.1157   224.1872   131.9529     1.1389     0.4442     0.4505    97.8259    99.4500     0.0000    83.2030    72.6672     5.1535   343.9051     0.2905     0.0000    95.7204   -14.4349    90.5669     0.4485     0.4550     0.3145     0.0000  1600.2500
    383.5000    19.2110    18.1008   225.6807   131.9529     1.7040     0.4741     0.4535   103.1594   100.1712     0.0000   104.1465    72.6733     6.4672   345.0839     0.2904     0.0000    95.8065     9.2575    89.3393     0.4791     0.4580     0.3546     0.0000  1527.0000
    384.0000    20.1639    19.9594   229.4753   131.9529     2.5184     0.4968     0.4565   107.6317    99.8613     0.0000   128.9667    72.6794     7.0305   347.4317     0.2904     0.0000    96.1604     8.1709    89.1297     0.5030     0.4617     0.3882     0.0000  1719.5000
    384.5000    20.0969    19.3374   221.6465   131.9529     2.3424     0.5155     0.4602  -999.2500   101.9544     0.0000   164.2454    72.6855     7.5451   350.1313     0.2904     0.0000    96.3772  -999.2500    88.8322     0.5220     0.4654  -999.2500     0.0000  1593.7501
    385.0000    19.9237    19.4305   237.3851   131.9529     1.8229     0.5329     0.4596  -999.2500   110.8015     0.0000   180.6177    72.6915     7.3980   351.9820     0.2904     0.0000    96.6706  -999.2500    89.2727     0.5399     0.4648  -999.2500     0.0000  1744.0000
    385.5000    19.7268    19.0580   224.8460   131.9529     2.2921     0.5485     0.4626   121.0485   113.9814     0.0000   169.0465    72.6976     7.4465   354.4314     0.2904     0.0000    97.5644     4.9109    90.1178     0.5557     0.4677     0.4891     0.0000  1586.0001
