~VERSION INFORMATION
VERS.           1.2   :CWLS Log ASCII Standard - VERSION 1.2
WRAP.           NO    :One Line per depth step
PROD.  Schlumberger   :LAS Producer
PROG.  DLIS to ASCII 2.3                               :LAS Program name and version
CREA.        2015/05/30 23:46                          :LAS Creation date {YYYY/MM/DD hh:mm}
DLIS_CREA.  2015-May-30 15:01                          :DLIS Creation date and time {YYYY-MMM-DD hh:mm}
SOURCE.     b43ac578-4029-44ab-a201-dacd5736d378       :DLIS File Name
#--------------------------------------------------
~WELL INFORMATION
#MNEM.UNIT      DATA             DESCRIPTION
#---- ------ --------------   -----------------------------
STRT .F      5200.5000       :START DEPTH     
STOP .F      7212.5000       :STOP DEPTH     
STEP .F       0.5000         :STEP       
NULL .          -999.25      :NULL VALUE
COMP .                 COMPANY:  ADM COMPANY                        
WELL .                    WELL:  CCS#2                              
FLD  .                   FIELD:  WILDCAT                            
LOC  .                LOCATION:  LAT 39.885961                      
CNTY .                  COUNTY:  MACON                              
STAT .                   STATE:  ILLINOIS                           
CTRY .                 COUNTRY:  USA                                
SRVC .         SERVICE COMPANY:  Schlumberger                       
LATI .DEG             LATITUDE:  39.885961 degrees                  
LONG .DEG            LONGITUDE:  -88.888044 degrees                 
API  .              API NUMBER:  12-115-23713-00                    
DATE .                LOG DATE:  29-May-2015
UWI  .          UNIQUE WELL ID:  12-115-23713-00                    
#-----------------------------------------------------------------------------
~PARAMETER INFORMATION
#MNEM.UNIT    VALUE                      DESCRIPTION
#---- -----   --------------------       ------------------------
CN   .        ADM COMPANY                :Company Name
WN   .        CCS#2                      :Well Name
FN   .        WILDCAT                    :Field Name
FL   .        LAT 39.885961              :Field Location
FL1  .        LONG 39.885961             :Field Location, Line 1
COUN .        MACON                      :County or Parish
STAT .        ILLINOIS                   :State or Province
NATI .        USA                        :Nation
DATE .        29-May-2015                :Tools Above Rotary Table Date
APIN .        12-115-23713-00            :API Well Number
SECT .        32                         :Section
TOWN .        17N                        :Township
RANG .        3E                         :Range
DMF  .        KB                         :Drilling Measured From (Name of Drilling Elevation Reference)
LMF  .        KB                         :Logging Measured From (Name of Logging Elevation Reference)
PDAT .        GL                         :Permanent Datum
ENGI .        H. DIMITROV / M. MOHAMMED  :Engineer s Name
WITN .        NICK MALKEWICZ             :Witness s Name
LATI .        39.885961 degrees          :Latitude
LONG .        -88.888044 degrees         :Longitude
LUL  .        BRADFORD                   :Logging Unit Location
LUN  .        3003                       :Logging Unit Number
RUN  .        RUN 3B                     :Run Number
SON  .                                   :Service Order Number
BHT  .DEGF     127.00000                 :Bottom Hole Temperature
BS   .IN        12.25000                 :Bit Size
MDEN .LB/G      22.11532                 :Matrix Density for Density Porosity
DFD  .LB/G       9.20000                 :Drilling Fluid Density
DFV  .S         66.00000                 :Drilling Fluid Viscosity
DFL  .C3         7.60000                 :Drilling Fluid Loss
RMFS .OHMM       0.17000                 :Resistivity of Mud Filtrate Sample
EKB  .F        691.19995                 :Elevation of Kelly Bushing
EGL  .F        675.69995                 :Elevation of Ground Level
BLI  .F       7192.00000                 :Bottom Log Interval
BSAL .PPM     15100.00000                :Borehole Salinity
FLEV .F          8.00000                 :Depth of Drilling Fluid Level to LMF (Log Measured From)
MCST .DEGF      72.50000                 :Mudcake Sample Temperature
MFST .DEGF      72.50000                 :Mud Filtrate Sample Temperature
MRT  .DEGF     127.00000                 :Maximum Recorded Temperature
MST  .DEGF      72.50000                 :Mud Sample Temperature
RMCS .OHMM       0.14000                 :Resistivity of Mud Cake Sample
RMS  .OHMM       0.20000                 :Resistivity of Mud Sample
RW   .OHMM       1.00000                 :Connate Water Resistivity
TDD  .F       7193.00049                 :Driller Total Depth
TDL  .F       7192.00000                 :Logger Total Depth
TLI  .F       5231.00000                 :Top Log Interval
HIDE .        WILDCAT                    :Header Identifier
MATR .        SAND                       :Rock Matrix for Neutron Porosity Corrections
FNUM .           1.00000                 :F-Numerator for Formation Factor Formula
FEXP .           2.00000                 :Exponent "m" for Formation Factor Formula
DFT  .        Fresh Water                :Drilling Fluid Type
DFPH .          11.50000                 :Drilling Fluid pH
MCSS .        Calculated                 :Mudcake Sample Source
MFSS .        Calculated                 :Mud Filtrate Sample Source
FD   .LB/G       8.34540                 :Fluid Density
MSS  .        Active Tank                :Mud Sample Source
OS1  .                                   :Other Services Line 1
OS2  .                                   :Other Services Line 2
OS3  .                                   :Other Services Line 3
OS4  .                                   :Other Services Line 4
OS5  .                                   :Other Services Line 5
R1   .        THANKS FOR CHOOSING SCHLUMBERGER!!! :Remarks Line 1
R2   .        All WELL PROPERTIES PROVIDED BY CLIENT :Remarks Line 2
R3   .        ALL SCALES ON PRESENTATIONS AS PER

CLIENT REQUEST :Remarks Line 3
R4   .        MATRIX  SANDSTONE          :Remarks Line 4
R5   .        MATRIX DENSITY  2.65 G/CC  :Remarks Line 5
R6   .        ALL LOGGING INTERVALS AS PER CLIENT REQUEST :Remarks Line 6
R7   .        MRT = 127 DEGF FROM THE THERMOMETER :Remarks Line 7
R8   .                                   :Remarks Line 8
TCS  .        20 00 00                   :Time Circulation Stopped
TLAB .        11 17 00                   :Time Logger At Bottom
EPD  .C3         675.699951              :Elevation of Permanent Datum above Mean Sea Level
APD  .F          15.500000               :Elevation of Depth Reference (LMF) above Permanent Datum
#-----------------------------------------------------------------------------
~CURVE INFORMATION
#MNEM.UNIT   API CODE                                  DESCRIPTION
#---- -----  --------                                  -----------------------
DEPT .F                                                :DEPTH (BOREHOLE) {F12.4}
C1   .IN                                               :Caliper 1 {F11.4}
C2   .IN                                               :Caliper 2 {F11.4}
CDF  .LBF                                              :Calibrated Downhole Force {F11.4}
CTEM .DEGF                                             :Cartridge Temperature {F11.4}
DCAL .IN                                               :Differential Caliper {F11.4}
DEVI .DEG                                              :Hole Deviation {F11.4}
DEVIM.DEG                                              :Memorized Deviation {F11.4}
DTCO .US/F                                             :Delta-T Compressional {F11.4}
DTSM .US/F                                             :Delta-T Shear {F11.4}
ED   .F                                                :East Departure {F11.4}
GR_EDTC.GAPI                                           :Gamma Ray {F11.4}
GTEM .DEGF                                             :Generalized Borehole Temperature {F11.4}
HAZI .DEG                                              :Hole Azimuth Relative to True North {F11.4}
HAZIM.DEG                                              :Hole Azimuth Relative to True North {F11.4}
ITT  .S                                                :Integrated Transit Time {F11.4}
ND   .F                                                :North Departure {F11.4}
P1AZ .DEG                                              :Pad 1 Azimuth in Horizontal Plane (0 = True North) {F11.4}
PR   .                                                 :Poisson s Ratio {F11.4}
RB   .DEG                                              :Relative Bearing {F11.4}
SDEV .DEG                                              :Sonde Deviation {F11.4}
SDEVM.DEG                                              :Sonde Deviation {F11.4}
SPHI .CFCF                                             :Sonic Porosity {F11.4}
STIT .F                                                :Stuck Tool Indicator, Total {F11.4}
TENS .LBF                                              :Cable Tension {F11.4}
#-----------------------------------------------------------------------------
# 
#      DEPT         C1         C2        CDF        CTEM       DCAL       DEVI      DEVIM       DTCO       DTSM        ED      GR_EDTC      GTEM       HAZI      HAZIM       ITT         ND        P1AZ        PR         RB        SDEV      SDEVM       SPHI       STIT       TENS
#
~A  
# ...
   5737.0000    11.9275    11.8045  1471.8636   124.9255    -0.0232     0.3930     0.3913    62.6326    99.3229   -56.7030    37.9408   115.0588   350.9692   345.4535     0.0987   104.0588   348.0336     0.1699   357.0641     0.3930     0.3913     0.0662     0.0000  3150.0000
   5737.5000    11.9441    11.8045  1459.7667   125.0353    -0.0244     0.3996     0.3867    63.1429   101.5643   -56.7051    45.1735   115.0629   351.5110   344.5685     0.0986   104.0636   346.7768     0.1850   355.2660     0.3996     0.3867     0.0707     0.0000  3151.6667
   5738.0000    11.9358    11.7885  1467.5250   124.9771    -0.0460     0.4035     0.3827    63.8597   102.3784   -56.7072    55.5502   115.0670   351.6653   343.7168     0.0986   104.0684   345.3397     0.1816   353.6742     0.4035     0.3827     0.0769     0.0000  3100.0000
   5738.5000    11.9275    11.7965  1471.7701   125.0353    -0.0347     0.4073     0.3796    64.1007   103.1576   -56.7092    71.0156   115.0711   351.8396   342.8922     0.0986   104.0731   342.9014     0.1855   351.0619     0.4073     0.3796     0.0790     0.0000  3157.6667
   5739.0000    11.9193    11.8045  1468.0896   124.9255    -0.0463     0.4097     0.3775    64.0965   104.6769   -56.7113    87.0436   115.0752   351.8993   342.0574     0.0985   104.0779   341.6267     0.2001   349.7278     0.4097     0.3775     0.0789     0.0000  3082.0000
   5739.5000    11.9193    11.8045  1471.7256   125.0934    -0.0120     0.4114     0.3753    64.7169   105.3492   -56.7134   111.4030   115.0793   351.9030   341.2735     0.0985   104.0826   340.0120     0.1969   348.1093     0.4114     0.3753     0.0842     0.0000  3128.0000
   5740.0000    11.9275    11.7965  1475.0807   124.9255    -0.0132     0.4123     0.3734    64.7450   106.4728   -56.7155   111.9878   115.0834   351.8633   340.3062     0.0985   104.0874   338.9312     0.2066   347.0683     0.4123     0.3734     0.0844     0.0000  3213.0002
   5740.5000    11.9275    11.8524  1472.1478   125.0353    -0.0232     0.4127     0.3715    64.9301   105.8818   -56.7176    99.8590   115.0875   351.8009   339.5218     0.0984   104.0923   337.5584     0.1986   345.7582     0.4127     0.3715     0.0860     0.0000  3089.0000
   5741.0000    11.9358    11.8524  1481.4796   125.0353    -0.0232     0.4129     0.3695    64.8329   106.3787   -56.7197    75.2075   115.0916   351.7245   338.7062     0.0984   104.0971   336.2484     0.2045   344.5244     0.4129     0.3695     0.0852     0.0000  3226.0000
   5741.5000    11.9275    11.7965  1514.4509   125.0934    -0.0347     0.4131     0.3669    65.1224   107.6019   -56.7218    67.7786   115.0957   351.5591   337.8987     0.0984   104.1018   333.6660     0.2110   342.1074     0.4131     0.3669     0.0876     0.0000  3297.3333
   5742.0000    11.9358    11.7965  1498.7659   124.8157    -0.0347     0.4140     0.3642    65.0154   107.2229   -56.7238    73.2565   115.0998   351.3443   337.0525     0.0983   104.1065   331.8573     0.2093   340.5134     0.4140     0.3642     0.0867     0.0000  3114.6667
   5742.5000    11.9275    11.7965  1458.4166   125.0934    -0.0344     0.4144     0.3610    65.0793   106.8497   -56.7258    81.2427   115.1039   351.0656   336.2283     0.0983   104.1110   331.3464     0.2051   340.2814     0.4144     0.3610     0.0872     0.0000  3001.0000
   5743.0000    11.9275    11.7965  1446.2185   124.9255    -0.0232     0.4146     0.3568    65.4935   106.8980   -56.7279   101.4309   115.1080   350.7873   335.2289     0.0983   104.1158   330.3567     0.1995   339.5699     0.4146     0.3568     0.0906     0.0000  3075.6667
   5743.5000    11.9317    11.8045  1451.3955   125.1451    -0.0344     0.4145     0.3545    65.5696   107.4963   -56.7301   121.0170   115.1121   350.3621   334.4987     0.0982   104.1206   328.6760     0.2037   338.3145     0.4145     0.3545     0.0912     0.0000  3123.0002
   5744.0000    11.9275    11.8045  1461.4397   124.9771    -0.0232     0.4140     0.3527    65.7147   107.5962   -56.7321   151.9696   115.1162   349.8647   333.8114     0.0982   104.1252   326.9235     0.2025   337.0592     0.4140     0.3527     0.0924     0.0000  3103.6667
   5744.5000    11.9441    11.8684  1450.5511   125.0353    -0.0116     0.4125     0.3516    65.7978   107.6487   -56.7342   172.0347   115.1203   349.2853   333.2167     0.0982   104.1299   327.1470     0.2018   337.8622     0.4125     0.3516     0.0931     0.0000  3089.0000
   5745.0000    11.9275    11.8045  1444.1521   124.9255    -0.0232     0.4102     0.3511    65.6626   107.8836   -56.7363   165.6385   115.1244   348.7015   332.6314     0.0981   104.1346   327.3073     0.2058   338.6059     0.4102     0.3511     0.0920     0.0000  3159.0000
   5745.5000    11.9358    11.8045  1472.3922   125.0934    -0.0584     0.4068     0.3511    65.7526   107.6513   -56.7383   123.7745   115.1285   348.0125   331.9771     0.0981   104.1392   326.1355     0.2025   338.1237     0.4068     0.3511     0.0927     0.0000  3115.6667
   5746.0000    11.9193    11.8005  1490.2339   125.0934    -0.0575     0.4011     0.3530    65.7463   107.3836   -56.7404    72.3672   115.1326   347.0903   331.4963     0.0981   104.1438   324.0538     0.2002   336.9642     0.4011     0.3530     0.0927     0.0000  3105.3333
   5746.5000    11.9275    11.8045  1493.7274   124.9255    -0.0576     0.3963     0.3552    65.8498   106.9781   -56.7424    41.4723   115.1367   346.2962   331.1140     0.0980   104.1483   322.9025     0.1950   336.6068     0.3963     0.3552     0.0935     0.0000  3149.0000
   5747.0000    11.9275    11.8085  1476.6138   125.0353    -0.0460     0.3913     0.3580    66.0218   105.8758   -56.7445    32.0733   115.1409   345.4535   330.7302     0.0980   104.1529   322.2995     0.1819   336.8469     0.3913     0.3580     0.0949     0.0000  3111.5002
   5747.5000    11.9275    11.7965  1450.0637   125.0934    -0.0460     0.3867     0.3612    65.9069   106.0837   -56.7466    30.4415   115.1450   344.5685   330.2303     0.0980   104.1576   321.7318     0.1857   337.1636     0.3867     0.3612     0.0939     0.0000  3092.0000
   5748.0000    11.9275    11.7965  1440.3438   125.0353    -0.0688     0.3827     0.3644    66.0412   105.2362   -56.7486    31.2723   115.1491   343.7168   329.8624     0.0979   104.1622   320.9617     0.1752   337.2453     0.3827     0.3644     0.0950     0.0000  3054.6667
   5748.5000    11.9275    11.8045  1451.7784   124.9255    -0.0472     0.3788     0.3673    66.0000   105.1487   -56.7507    32.1501   115.1532   342.7731   329.4939     0.0979   104.1668   319.2768     0.1749   336.5049     0.3788     0.3673     0.0947     0.0000  3109.3333
   5749.0000    11.9275    11.8045  1452.8842   125.0353    -0.0575     0.3768     0.3700    65.9603   105.5405   -56.7527    31.6885   115.1573   341.9223   329.1778     0.0979   104.1713   318.0498     0.1795   336.1278     0.3768     0.3700     0.0944     0.0000  3065.3335
   5749.5000    11.9275    11.7965  1447.9515   124.9771    -0.0344     0.3749     0.3717    65.8769   105.5630   -56.7547    32.3671   115.1614   341.1100   328.6567     0.0978   104.1759   316.7726     0.1811   335.6635     0.3749     0.3717     0.0937     0.0000  3042.5002
   5750.0000    11.9275    11.8045  1447.9515   125.1451    -0.0344     0.3734     0.3725    65.9494   105.7033   -56.7568    31.2470   115.1655   340.3062   328.3060     0.0978   104.1804   315.8912     0.1813   335.5853     0.3734     0.3725     0.0943     0.0000  3084.0000
   5750.5000    11.9193    11.7965  1459.0165   124.9771    -0.0232     0.3715     0.3731    65.9972   105.8891   -56.7588    34.3395   115.1696   339.5218   327.9359     0.0978   104.1849   314.6477     0.1824   335.1269     0.3715     0.3731     0.0947     0.0000  3168.0002
   5751.0000    11.9275    11.7965  1462.0160   125.0353    -0.0456     0.3695     0.3738    65.7918   107.0976   -56.7608    31.1226   115.1737   338.7062   327.6512     0.0977   104.1894   313.1913     0.1969   334.4862     0.3695     0.3738     0.0930     0.0000  3116.0002
