~VERSION INFORMATION
VERS.           1.2   :CWLS Log ASCII Standard - VERSION 1.2
WRAP.           NO    :One Line per depth step
PROD.  Schlumberger   :LAS Producer
PROG.  DLIS to ASCII 2.3                               :LAS Program name and version
CREA.        2015/05/30 23:46                          :LAS Creation date {YYYY/MM/DD hh:mm}
DLIS_CREA.  2015-May-30 15:01                          :DLIS Creation date and time {YYYY-MMM-DD hh:mm}
SOURCE.     b43ac578-4029-44ab-a201-dacd5736d378       :DLIS File Name
#--------------------------------------------------
~WELL INFORMATION
#MNEM.UNIT      DATA             DESCRIPTION
#---- ------ --------------   -----------------------------
STRT .F      5200.5000       :START DEPTH     
STOP .F      7212.5000       :STOP DEPTH     
STEP .F       0.5000         :STEP       
NULL .          -999.25      :NULL VALUE
COMP .                 COMPANY:  ADM COMPANY                        
WELL .                    WELL:  CCS#2                              
FLD  .                   FIELD:  WILDCAT                            
LOC  .                LOCATION:  LAT 39.885961                      
CNTY .                  COUNTY:  MACON                              
STAT .                   STATE:  ILLINOIS                           
CTRY .                 COUNTRY:  USA                                
SRVC .         SERVICE COMPANY:  Schlumberger                       
LATI .DEG             LATITUDE:  39.885961 degrees                  
LONG .DEG            LONGITUDE:  -88.888044 degrees                 
API  .              API NUMBER:  12-115-23713-00                    
DATE .                LOG DATE:  29-May-2015
UWI  .          UNIQUE WELL ID:  12-115-23713-00                    
#-----------------------------------------------------------------------------
~PARAMETER INFORMATION
#MNEM.UNIT    VALUE                      DESCRIPTION
#---- -----   --------------------       ------------------------
CN   .        ADM COMPANY                :Company Name
WN   .        CCS#2                      :Well Name
FN   .        WILDCAT                    :Field Name
FL   .        LAT 39.885961              :Field Location
FL1  .        LONG 39.885961             :Field Location, Line 1
COUN .        MACON                      :County or Parish
STAT .        ILLINOIS                   :State or Province
NATI .        USA                        :Nation
DATE .        29-May-2015                :Tools Above Rotary Table Date
APIN .        12-115-23713-00            :API Well Number
SECT .        32                         :Section
TOWN .        17N                        :Township
RANG .        3E                         :Range
DMF  .        KB                         :Drilling Measured From (Name of Drilling Elevation Reference)
LMF  .        KB                         :Logging Measured From (Name of Logging Elevation Reference)
PDAT .        GL                         :Permanent Datum
ENGI .        H. DIMITROV / M. MOHAMMED  :Engineer s Name
WITN .        NICK MALKEWICZ             :Witness s Name
LATI .        39.885961 degrees          :Latitude
LONG .        -88.888044 degrees         :Longitude
LUL  .        BRADFORD                   :Logging Unit Location
LUN  .        3003                       :Logging Unit Number
RUN  .        RUN 3B                     :Run Number
SON  .                                   :Service Order Number
BHT  .DEGF     127.00000                 :Bottom Hole Temperature
BS   .IN        12.25000                 :Bit Size
MDEN .LB/G      22.11532                 :Matrix Density for Density Porosity
DFD  .LB/G       9.20000                 :Drilling Fluid Density
DFV  .S         66.00000                 :Drilling Fluid Viscosity
DFL  .C3         7.60000                 :Drilling Fluid Loss
RMFS .OHMM       0.17000                 :Resistivity of Mud Filtrate Sample
EKB  .F        691.19995                 :Elevation of Kelly Bushing
EGL  .F        675.69995                 :Elevation of Ground Level
BLI  .F       7192.00000                 :Bottom Log Interval
BSAL .PPM     15100.00000                :Borehole Salinity
FLEV .F          8.00000                 :Depth of Drilling Fluid Level to LMF (Log Measured From)
MCST .DEGF      72.50000                 :Mudcake Sample Temperature
MFST .DEGF      72.50000                 :Mud Filtrate Sample Temperature
MRT  .DEGF     127.00000                 :Maximum Recorded Temperature
MST  .DEGF      72.50000                 :Mud Sample Temperature
RMCS .OHMM       0.14000                 :Resistivity of Mud Cake Sample
RMS  .OHMM       0.20000                 :Resistivity of Mud Sample
RW   .OHMM       1.00000                 :Connate Water Resistivity
TDD  .F       7193.00049                 :Driller Total Depth
TDL  .F       7192.00000                 :Logger Total Depth
TLI  .F       5231.00000                 :Top Log Interval
HIDE .        WILDCAT                    :Header Identifier
MATR .        SAND                       :Rock Matrix for Neutron Porosity Corrections
FNUM .           1.00000                 :F-Numerator for Formation Factor Formula
FEXP .           2.00000                 :Exponent "m" for Formation Factor Formula
DFT  .        Fresh Water                :Drilling Fluid Type
DFPH .          11.50000                 :Drilling Fluid pH
MCSS .        Calculated                 :Mudcake Sample Source
MFSS .        Calculated                 :Mud Filtrate Sample Source
FD   .LB/G       8.34540                 :Fluid Density
MSS  .        Active Tank                :Mud Sample Source
OS1  .                                   :Other Services Line 1
OS2  .                                   :Other Services Line 2
OS3  .                                   :Other Services Line 3
OS4  .                                   :Other Services Line 4
OS5  .                                   :Other Services Line 5
R1   .        THANKS FOR CHOOSING SCHLUMBERGER!!! :Remarks Line 1
R2   .        All WELL PROPERTIES PROVIDED BY CLIENT :Remarks Line 2
R3   .        ALL SCALES ON PRESENTATIONS AS PER

CLIENT REQUEST :Remarks Line 3
R4   .        MATRIX  SANDSTONE          :Remarks Line 4
R5   .        MATRIX DENSITY  2.65 G/CC  :Remarks Line 5
R6   .        ALL LOGGING INTERVALS AS PER CLIENT REQUEST :Remarks Line 6
R7   .        MRT = 127 DEGF FROM THE THERMOMETER :Remarks Line 7
R8   .                                   :Remarks Line 8
TCS  .        20 00 00                   :Time Circulation Stopped
TLAB .        11 17 00                   :Time Logger At Bottom
EPD  .C3         675.699951              :Elevation of Permanent Datum above Mean Sea Level
APD  .F          15.500000               :Elevation of Depth Reference (LMF) above Permanent Datum
#-----------------------------------------------------------------------------
~CURVE INFORMATION
#MNEM.UNIT   API CODE                                  DESCRIPTION
#---- -----  --------                                  -----------------------
DEPT .F                                                :DEPTH (BOREHOLE) {F12.4}
C1   .IN                                               :Caliper 1 {F11.4}
C2   .IN                                               :Caliper 2 {F11.4}
CDF  .LBF                                              :Calibrated Downhole Force {F11.4}
CTEM .DEGF                                             :Cartridge Temperature {F11.4}
DCAL .IN                                               :Differential Caliper {F11.4}
DEVI .DEG                                              :Hole Deviation {F11.4}
DEVIM.DEG                                              :Memorized Deviation {F11.4}
DTCO .US/F                                             :Delta-T Compressional {F11.4}
DTSM .US/F                                             :Delta-T Shear {F11.4}
ED   .F                                                :East Departure {F11.4}
GR_EDTC.GAPI                                           :Gamma Ray {F11.4}
GTEM .DEGF                                             :Generalized Borehole Temperature {F11.4}
HAZI .DEG                                              :Hole Azimuth Relative to True North {F11.4}
HAZIM.DEG                                              :Hole Azimuth Relative to True North {F11.4}
ITT  .S                                                :Integrated Transit Time {F11.4}
ND   .F                                                :North Departure {F11.4}
P1AZ .DEG                                              :Pad 1 Azimuth in Horizontal Plane (0 = True North) {F11.4}
PR   .                                                 :Poisson s Ratio {F11.4}
RB   .DEG                                              :Relative Bearing {F11.4}
SDEV .DEG                                              :Sonde Deviation {F11.4}
SDEVM.DEG                                              :Sonde Deviation {F11.4}
SPHI .CFCF                                             :Sonic Porosity {F11.4}
STIT .F                                                :Stuck Tool Indicator, Total {F11.4}
TENS .LBF                                              :Cable Tension {F11.4}
#-----------------------------------------------------------------------------
# 
#      DEPT         C1         C2        CDF        CTEM       DCAL       DEVI      DEVIM       DTCO       DTSM        ED      GR_EDTC      GTEM       HAZI      HAZIM       ITT         ND        P1AZ        PR         RB        SDEV      SDEVM       SPHI       STIT       TENS
#
~A  
# ...
   6534.5000    12.5479    12.5709  1504.1996   126.0235     0.2724     0.8577     0.8629    66.0082   105.2533   -55.7781    47.6850   121.6066   110.5588   113.4847     0.0470   101.5655    56.4831     0.1759   305.9273     0.8577     0.8629     0.0948     0.0000  3356.6667
   6535.0000    12.6058    12.5789  1502.4552   126.0235     0.2950     0.8591     0.8658    66.0572   105.3414   -55.7708    50.8052   121.6107   110.5139   113.3654     0.0470   101.5625    53.4991     0.1760   302.9875     0.8591     0.8658     0.0952     0.0000  3368.3333
   6535.5000    12.5893    12.7226  1475.3053   126.0235     0.3062     0.8600     0.8713    66.0541   106.5374   -55.7633    50.3309   121.6148   110.5129   113.3243     0.0470   101.5595    52.2573     0.1878   301.7468     0.8600     0.8713     0.0951     0.0000  3253.6667
   6536.0000    12.5231    12.7066  1451.2697   126.0235     0.3062     0.8604     0.8763    66.0911   107.1581   -55.7559    51.3070   121.6189   110.5299   113.0476     0.0469   101.5565    51.5667     0.1930   301.0408     0.8604     0.8763     0.0954     0.0000  3268.3335
   6536.5000    12.5148    12.7026  1502.5115   126.0235     0.3062     0.8595     0.8864    66.8592   107.7442   -55.7487    46.5811   121.6230   110.6120   112.9668     0.0469   101.5535    51.2009     0.1869   300.5919     0.8595     0.8864     0.1015     0.0000  3440.0000
   6537.0000    12.5190    12.6987  1610.9390   126.0235     0.3166     0.8597     0.8985    66.6945   107.7447   -55.7412    49.3900   121.6271   110.6462   112.6429     0.0469   101.5505    50.8392     0.1894   300.1958     0.8597     0.8985     0.1002     0.0000  3538.3335
   6537.5000    12.4735    12.7146  1605.0826   126.0235     0.3278     0.8586     0.9063    66.6005   107.6664   -55.7337    44.4889   121.6312   110.6856   112.4490     0.0468   101.5474    51.4325     0.1901   300.7494     0.8586     0.9063     0.0995     0.0000  3478.2500
   6538.0000    12.3659    12.6108  1544.1736   126.0235     0.3161     0.8585     0.9188    65.8842   107.5008   -55.7264    46.3706   121.6353   110.8270   112.0328     0.0468   101.5444    51.9774     0.1992   301.1533     0.8585     0.9188     0.0938     0.0000  3371.0000
   6538.5000    12.3659    12.6428  1496.6552   126.0235     0.3517     0.8575     0.9298    64.2097   106.9953   -55.7190    47.0310   121.6394   110.7692   111.7328     0.0468   101.5414    51.9792     0.2186   301.2128     0.8575     0.9298     0.0799     0.0000  3256.6667
   6539.0000    12.3742    12.6428  1468.7390   126.0235     0.3855     0.8588     0.9373    63.4671   103.9682   -55.7115    55.4458   121.6435   110.9627   111.3594     0.0467   101.5383    53.6917     0.2030   302.7311     0.8588     0.9373     0.0735     0.0000  3333.6667
   6539.5000    12.3659    12.6428  1507.7744   126.0235     0.3855     0.8589     0.9458    63.3122   103.6464   -55.7041    57.5599   121.6476   111.0686   111.1778     0.0467   101.5352    53.9988     0.2024   302.9318     0.8589     0.9458     0.0722     0.0000  3364.0000
   6540.0000    12.5148    12.8024  1505.8585   126.0235     0.5660     0.8590     0.9496    62.5452   101.7981   -55.6966    58.9183   121.6517   111.5508   110.9399     0.0467   101.5322    50.7765     0.1968   299.2282     0.8590     0.9496     0.0654     0.0000  3289.0000
   6540.5000    12.5810    13.0579  1463.1592   126.0235     1.1034     0.8609     0.9533    63.9075   100.9055   -55.6891    55.2645   121.6558   111.7331   110.9421     0.0466   101.5291    49.8331     0.1651   298.1030     0.8609     0.9533     0.0773     0.0000  3273.0000
   6541.0000    12.6058    12.8823  1457.2144   126.0235     1.2368     0.8607     0.9508    65.1668   102.3730   -55.6818    52.0482   121.6599   112.2912   111.1678     0.0466   101.5261    47.5954     0.1594   295.3071     0.8607     0.9508     0.0879     0.0000  3194.0000
   6541.5000    12.6099    12.8823  1529.3413   126.0235     0.6544     0.8618     0.9486    65.2163   104.4146   -55.6741    53.1753   121.6641   112.7729   111.4022     0.0466   101.5229    53.3978     0.1802   300.6288     0.8618     0.9486     0.0883     0.0000  3555.5000
   6542.0000    12.6141    12.8743  1674.6108   126.0235     0.4758     0.8616     0.9416    66.1176   106.5928   -55.6665    56.9691   121.6681   113.0449   112.0097     0.0465   101.5197    61.7259     0.1873   308.6840     0.8616     0.9416     0.0956     0.0000  3602.6667
   6542.5000    12.6058    12.8663  1655.9752   126.0235     0.4758     0.8614     0.9345    70.4126   112.1926   -55.6591    56.8549   121.6722   113.3346   112.4936     0.0465   101.5167    63.2543     0.1751   309.9217     0.8614     0.9345     0.1279     0.0000  3485.0000
   6543.0000    12.6224    12.8503  1591.4156   126.0235     0.5209     0.8610     0.9251    74.5970   122.9778   -55.6515    53.8935   121.6764   113.4789   113.3348     0.0465   101.5136    63.7089     0.2089   310.2337     0.8610     0.9251     0.1558     0.0000  3461.3335
   6543.5000    12.6472    12.8823  1529.1553   126.0235     0.9480     0.8589     0.9137    75.8314   126.1294   -55.6440    50.9276   121.6805   113.5499   114.1751     0.0464   101.5105    64.0791     0.2170   310.5323     0.8589     0.9137     0.1634     0.0000  3328.0000
   6544.0000    12.8953    13.2415  1475.8385   126.0235     1.3164     0.8609     0.9054    76.3470   128.9303   -55.6364    50.0925   121.6846   113.5423   114.7616     0.0464   101.5074    64.1981     0.2300   310.6584     0.8609     0.9054     0.1666     0.0000  3262.5000
   6544.5000    12.9863    13.5050  1465.3118   126.0235     1.3704     0.8616     0.8955    76.6938   129.1302   -55.6287    50.2291   121.6887   113.5006   115.4846     0.0464   101.5042    65.1599     0.2275   311.6633     0.8616     0.8955     0.1686     0.0000  3318.3333
   6545.0000    13.0442    13.9041  1505.2858   126.0235     2.4047     0.8679     0.8878    78.6236   133.3258   -55.6212    48.7348   121.6928   113.4486   115.8592     0.0463   101.5012    64.8632     0.2334   311.4180     0.8679     0.8878     0.1798     0.0000  3376.3333
   6545.5000    13.2510    13.5289  1529.9141   126.0235     1.4950     0.8713     0.8806    78.8907   138.1714   -55.6136    51.6147   121.6969   113.3243   116.2727     0.0463   101.4981    63.8940     0.2582   310.5734     0.8713     0.8806     0.1813     0.0000  3380.3333
   6546.0000    13.8466    13.7924  1519.6128   126.0235     2.7421     0.8803     0.8747    79.5404   137.9725   -55.6060    56.3489   121.7010   113.1349   116.5078     0.0462   101.4950    63.0435     0.2511   309.9126     0.8803     0.8747     0.1850     0.0000  3340.0000
   6546.5000    14.3181    14.9340  1493.3962   126.0235     3.6830     0.8885     0.8701    80.1930   137.7660   -55.5984    60.1185   121.7051   112.8253   116.5562     0.0462   101.4920    62.9943     0.2438   310.1726     0.8885     0.8701     0.1886     0.0000  3268.0000
   6547.0000    14.3925    14.9979  1504.7526   126.0235     3.7684     0.8985     0.8662    81.5465   139.7719   -55.5906    58.0493   121.7092   112.6429   116.5358     0.0462   101.4889    64.0056     0.2420   311.3666     0.8985     0.8662     0.1958     0.0000  3382.3333
   6547.5000    14.4173    14.9300  1548.4396   126.0235     2.7474     0.9090     0.8631    81.6159   142.5717   -55.5831    52.6800   121.7133   112.3362   116.3672     0.0461   101.4859    64.7380     0.2563   312.4060     0.9090     0.8631     0.1962     0.0000  3449.3335
   6548.0000    14.6986    14.8901  1570.1250   126.0235     2.9456     0.9188     0.8615    81.4958   142.1541   -55.5754    50.4504   121.7174   112.0328   116.1955     0.0461   101.4828    64.8465     0.2552   312.8174     0.9188     0.8615     0.1955     0.0000  3412.6667
   6548.5000    14.8640    14.9859  1537.6364   126.0235     2.8160     0.9298     0.8605    81.9936   142.6057   -55.5678    50.7025   121.7215   111.7328   115.8947     0.0460   101.4798    65.6452     0.2531   313.9163     0.9298     0.8605     0.1981     0.0000  3324.6667
