~VERSION INFORMATION
VERS.           1.2   :CWLS Log ASCII Standard - VERSION 1.2
WRAP.           NO    :One Line per depth step
PROD.  Schlumberger   :LAS Producer
PROG.  DLIS to ASCII 2.3                               :LAS Program name and version
CREA.        2015/01/14 20:42                          :LAS Creation date {YYYY/MM/DD hh:mm}
DLIS_CREA.  2015-Jan-14 13:26                          :DLIS Creation date and time {YYYY-MMM-DD hh:mm}
SOURCE.     b1232dd5-b707-4891-82b9-d24dcc6cb5d4       :DLIS File Name
#--------------------------------------------------
~WELL INFORMATION
#MNEM.UNIT      DATA             DESCRIPTION
#---- ------ --------------   -----------------------------
STRT .F      -8.0000         :START DEPTH     
STOP .F      352.5000        :STOP DEPTH     
STEP .F       0.5000         :STEP       
NULL .          -999.25      :NULL VALUE
COMP .                 COMPANY:  ADM Company                        
WELL .                    WELL:  CCS#2                              
FLD  .                   FIELD:  Wildcat                            
LOC  .                LOCATION:  Latitude: 39.885961                
CNTY .                  COUNTY:  Macon                              
STAT .                   STATE:  Illinois                           
CTRY .                 COUNTRY:  USA                                
SRVC .         SERVICE COMPANY:  Schlumberger                       
LATI .DEG             LATITUDE:  39° 53' 9.46" N                    
LONG .DEG            LONGITUDE:  88° 53' 16.959" W                  
API  .              API NUMBER:  12-115-23713-00                    
DATE .                LOG DATE:  13-Jan-2015
UWI  .          UNIQUE WELL ID:                                     
#-----------------------------------------------------------------------------
~PARAMETER INFORMATION
#MNEM.UNIT    VALUE                      DESCRIPTION
#---- -----   --------------------       ------------------------
CN   .        ADM Company                :Company Name
WN   .        CCS#2                      :Well Name
FN   .        Wildcat                    :Field Name
FL   .        Latitude  39.885961        :Field Location
FL1  .        Longitude  -88.888044      :Field Location, Line 1
COUN .        Macon                      :County or Parish
STAT .        Illinois                   :State or Province
NATI .        USA                        :Nation
DATE .        13-Jan-2015                :Tools Above Rotary Table Date
APIN .        12-115-23713-00            :API Well Number
SECT .        32                         :Section
TOWN .        17N                        :Township
RANG .        3E                         :Range
DMF  .        KB                         :Drilling Measured From (Name of Drilling Elevation Reference)
LMF  .        KB                         :Logging Measured From (Name of Logging Elevation Reference)
PDAT .        GL                         :Permanent Datum
ENGI .        Devin Arnold               :Engineer s Name
WITN .        Nick Malkewicz             :Witness s Name
LATI .        39° 53' 9.46  N            :Latitude
LONG .        88° 53' 16.959  W          :Longitude
LUL  .        Bradford                   :Logging Unit Location
LUN  .        3095                       :Logging Unit Number
RUN  .        2                          :Run Number
SON  .        D71E-00006                 :Service Order Number
BHT  .DEGF      58.00000                 :Bottom Hole Temperature
BS   .IN        26.00000                 :Bit Size
MDEN .G/C3       2.71000                 :Matrix Density for Density Porosity
DFD  .LB/G      10.10000                 :Drilling Fluid Density
DFV  .S       -999.25000                 :Drilling Fluid Viscosity
DFL  .C3      -999.25000                 :Drilling Fluid Loss
RMFS .OHMM       1.23200                 :Resistivity of Mud Filtrate Sample
EKB  .F        691.19995                 :Elevation of Kelly Bushing
EGL  .F        675.69995                 :Elevation of Ground Level
BLI  .F        345.00000                 :Bottom Log Interval
BSAL .PPM        0.00000                 :Borehole Salinity
FLEV .F          8.00000                 :Depth of Drilling Fluid Level to LMF (Log Measured From)
MCST .DEGF      42.80000                 :Mudcake Sample Temperature
MFST .DEGF      42.80000                 :Mud Filtrate Sample Temperature
MRT  .DEGF      58.00000                 :Maximum Recorded Temperature
MST  .DEGF      42.80000                 :Mud Sample Temperature
RMCS .OHMM       1.84800                 :Resistivity of Mud Cake Sample
RMS  .OHMM       1.54000                 :Resistivity of Mud Sample
RW   .OHMM       1.00000                 :Connate Water Resistivity
TDD  .F        349.00000                 :Driller Total Depth
TDL  .F        349.00000                 :Logger Total Depth
TLI  .F         50.00000                 :Top Log Interval
HIDE .        Wildcat                    :Header Identifier
MATR .        LIME                       :Rock Matrix for Neutron Porosity Corrections
FNUM .           1.00000                 :F-Numerator for Formation Factor Formula
FEXP .           2.00000                 :Exponent "m" for Formation Factor Formula
DFT  .        Fresh Mud                  :Drilling Fluid Type
DFPH .        -999.25000                 :Drilling Fluid pH
MCSS .        Calculated                 :Mudcake Sample Source
MFSS .        Calculated                 :Mud Filtrate Sample Source
FD   .G/C3       1.00000                 :Fluid Density
MSS  .        Active Tank                :Mud Sample Source
OS1  .                                   :Other Services Line 1
OS2  .                                   :Other Services Line 2
OS3  .                                   :Other Services Line 3
OS4  .                                   :Other Services Line 4
OS5  .                                   :Other Services Line 5
R1   .        Matrix Density  Limestone. :Remarks Line 1
R2   .        Mud Sample taken on location. :Remarks Line 2
R3   .        Presentations as per client request. :Remarks Line 3
R4   .        No Chemical Sources ran due to possible potable water zones. :Remarks Line 4
R5   .        Bottom Hole Temperature taken from GM2 temperature log provided by the client. 58degF :Remarks Line 5
R6   .                                   :Remarks Line 6
R7   .                                   :Remarks Line 7
R8   .                                   :Remarks Line 8
TCS  .        19 45 00                   :Time Circulation Stopped
TLAB .        03 30 00                   :Time Logger At Bottom
EPD  .C3         675.699951              :Elevation of Permanent Datum above Mean Sea Level
APD  .F          15.500000               :Elevation of Depth Reference (LMF) above Permanent Datum
#-----------------------------------------------------------------------------
~CURVE INFORMATION
#MNEM.UNIT   API CODE                                  DESCRIPTION
#---- -----  --------                                  -----------------------
DEPT .F                                                :DEPTH (BOREHOLE) {F12.4}
CDF  .LBF                                              :Calibrated Downhole Force {F11.4}
CTEM .DEGF                                             :Cartridge Temperature {F11.4}
DCAL .IN                                               :Differential Caliper {F11.4}
DT   .US/F                                             :Delta-T (also called Slowness or Interval Transit Time) {F11.4}
ED   .F                                                :East Departure {F11.4}
GR_EDTC.GAPI                                           :Gamma Ray {F11.4}
GTEM .DEGF                                             :Generalized Borehole Temperature {F11.4}
HAZI .DEG                                              :Hole Azimuth Relative to True North {F11.4}
HAZIM.DEG                                              :Memorized Hole Azimuth {F11.4}
ITT  .S                                                :Integrated Transit Time {F11.4}
ND   .F                                                :North Departure {F11.4}
P1AZ .DEG                                              :Pad 1 Azimuth in Horizontal Plane (0 = True North) {F11.4}
RB   .DEG                                              :Relative Bearing {F11.4}
SDEV .DEG                                              :Sonde Deviation {F11.4}
SDEVM.DEG                                              :Memorized Sonde Deviation {F11.4}
SPHI .CFCF                                             :Sonic Porosity {F11.4}
STIT .F                                                :Stuck Tool Indicator, Total {F11.4}
TENS .LBF                                              :Cable Tension {F11.4}
#-----------------------------------------------------------------------------
# 
#      DEPT        CDF        CTEM       DCAL        DT         ED      GR_EDTC      GTEM       HAZI      HAZIM       ITT         ND        P1AZ        RB        SDEV      SDEVM       SPHI       STIT       TENS
#
~A  
# ...
     68.0000   642.1183    76.6118    -5.3762  -254.3671     0.3471    42.5003    55.1901     3.1790   340.0439     0.0000    -0.1877   316.0777   312.9252     2.4635     2.4354  -999.2500     0.0000    41.7600
     68.5000   641.3220    76.6118    -5.4031  -254.2404     0.3505    42.4187    55.1951     3.1779   339.4007     0.0000    -0.1855   316.0838   312.9323     2.4636     2.4354  -999.2500     0.0000    52.2800
     69.0000   640.9239    76.6118    -5.3762  -254.2461     0.3539    45.5180    55.2001     3.1788   338.7871     0.0000    -0.1831   316.1009   312.9485     2.4635     2.4357  -999.2500     0.0000    44.0000
     69.5000   641.3220    76.6118    -5.3762  -254.2700     0.3573    44.3074    55.2051     3.1805   338.3319     0.0000    -0.1807   316.1001   312.9460     2.4634     2.4354  -999.2500     0.0000    40.3600
     70.0000   641.3220    76.6118    -5.4031  -254.1085     0.3606    45.1797    55.2101     3.1834   337.7409     0.0000    -0.1783   316.0754   312.9184     2.4633     2.4359  -999.2500     0.0000    42.2692
     70.5000   640.9239    76.6118    -5.3762  -254.2520     0.3640    45.1572    55.2151     3.1855   337.1468     0.0000    -0.1758   316.0718   312.9128     2.4632     2.4361  -999.2500     0.0000    40.4800
     71.0000   641.3220    76.6118    -5.4031  -254.1371     0.3673    50.4361    55.2201     3.1876   336.6921     0.0000    -0.1733   316.0856   312.9244     2.4631     2.4364  -999.2500     0.0000    45.7083
     71.5000   634.8619    76.6118    -5.4048  -254.2429     0.3712    50.4658    55.2251     3.1887   336.0638     0.0000    -0.1702   316.0971   312.9349     2.4630     2.4370  -999.2500     0.0000   990.2742
     72.0000   655.8975    76.6118    -5.4031  -254.0752     0.3737    50.1858    55.2301    18.9941   335.4068     0.0000    -0.1682   330.1635   311.1954     2.4571     2.4376  -999.2500     0.0000   937.0625
     72.5000   564.6160    76.6118    -5.3762  -254.1891     0.3770    44.6780    55.2351    19.3408   334.8891     0.0000    -0.1655   329.8827   310.5676     2.4444     2.4381  -999.2500     0.0000   601.5385
     73.0000   650.6412    76.6118    -5.3762  -254.0381     0.3802    46.4298    55.2401    18.7419   334.1768     0.0000    -0.1628   330.0710   311.3548     2.4288     2.4387  -999.2500     0.0000   671.2143
     73.5000   647.9242    76.6118    -5.4317  -254.0981     0.3833    50.6264    55.2451    19.4344   333.4398     0.0000    -0.1600   329.8162   310.4085     2.4967     2.4390  -999.2500     0.0000   583.0715
     74.0000   649.7592    76.6118    -5.3762  -254.0260     0.3865    52.1196    55.2501    18.8913   332.8840     0.0000    -0.1571   329.8412   310.9756     2.4452     2.4391  -999.2500     0.0000   649.0001
     74.5000   648.9653    76.6118    -5.4031  -254.1365     0.3897    49.5984    55.2551    18.5499   332.1433     0.0000    -0.1542   329.5371   311.0128     2.4317     2.4391  -999.2500     0.0000   633.5714
     75.0000   651.0153    76.6118    -5.4031  -254.1735     0.3928    47.3185    55.2601    18.0312   331.4190     0.0000    -0.1513   329.0367   311.0311     2.4325     2.4389  -999.2500     0.0000   667.2858
     75.5000   650.3365    76.6118    -5.4586  -254.1287     0.3958    48.2170    55.2651    17.3391   330.8861     0.0000    -0.1483   328.1985   310.8850     2.4312     2.4387  -999.2500     0.0000   649.0000
     76.0000   648.3051    76.6118    -5.3762  -254.2300     0.3988    49.0150    55.2701    16.5845   330.2038     0.0000    -0.1453   327.5006   310.9417     2.4303     2.4383  -999.2500     0.0000   612.5000
     76.5000   651.0221    76.6118    -5.3764  -254.2514     0.4018    47.1944    55.2751    15.8600   329.5436     0.0000    -0.1422   326.7228   310.8882     2.4288     2.4380  -999.2500     0.0000   606.9286
     77.0000   650.0911    76.6118    -5.4031  -253.5232     0.4048    47.9181    55.2801    15.3145   329.0594     0.0000    -0.1391   326.2421   310.9531     2.4273     2.4375  -999.2500     0.0000   652.7857
     77.5000   652.0378    76.6118    -5.3762  -126.3801     0.4077    44.4189    55.2851    14.6289   328.4223     0.0000    -0.1359   325.5676   310.9643     2.4265     2.4370  -999.2500     0.0000   648.8572
     78.0000   650.6412    76.6118    -5.4031  -253.1756     0.4106    46.6865    55.2901    13.8965   327.7908     0.0000    -0.1328   324.8564   310.9852     2.4242     2.4365  -999.2500     0.0000   603.2857
     78.5000   651.3708    76.6118    -5.4031  -253.6572     0.4134    49.9031    55.2951    13.3643   327.3159     0.0000    -0.1295   324.4507   311.1118     2.4237     2.4361  -999.2500     0.0000   616.4000
     79.0000   649.2700    76.6118    -5.4031  -253.7282     0.4162    52.8819    55.3001    12.6612   326.6778     0.0000    -0.1262   323.6735   311.0378     2.4228     2.4358  -999.2500     0.0000   657.0714
     79.5000   651.7331    76.6118    -5.4031  -253.3416     0.4189    52.2366    55.3051    12.1538   326.0388     0.0000    -0.1230   322.9975   310.8690     2.4224     2.4355  -999.2500     0.0000   624.7857
     80.0000   650.6835    76.6118    -5.4031  -253.0654     0.4214    49.8680    55.3101    11.5051   325.3951     0.0000    -0.1198   322.1525   310.6727     2.4216     2.4355  -999.2500     0.0000   623.7143
     80.5000   651.6823    76.6118    -5.4031  -253.1180     0.4240    52.0650    55.3151    10.8998   324.9181     0.0000    -0.1165   321.4761   310.6015     2.4209     2.4358  -999.2500     0.0000   644.1429
     81.0000   648.6606    76.6118    -5.4031  -253.3022     0.4264    51.0747    55.3201    10.4617   324.2746     0.0000    -0.1132   321.0479   310.6114     2.4203     2.4361  -999.2500     0.0000   698.0001
     81.5000   649.9810    76.6118    -5.3762  -253.4278     0.4288    50.6643    55.3251     9.9236   323.6348     0.0000    -0.1100   320.5825   310.6841     2.4195     2.4368  -999.2500     0.0000   631.9285
     82.0000   650.7310    76.6118    -5.4031  -253.4255     0.4311    48.1894    55.3301     9.3930   323.1464     0.0000    -0.1067   320.6099   311.2422     2.4183     2.4372  -999.2500     0.0000   658.1429
     82.5000   648.9145    76.6118    -5.3764  -253.6082     0.4333    47.8125    55.3351     9.0017   322.4699     0.0000    -0.1034   320.4058   311.4294     2.4178     2.4377  -999.2500     0.0000   629.5000
     83.0000   649.6509    76.6118    -5.4031  -253.9146     0.4354    45.3655    55.3401     8.4821   321.7461     0.0000    -0.1001   319.7781   311.3213     2.4172     2.4380  -999.2500     0.0000   678.2858
     83.5000   649.7355    76.6118    -5.4031  -253.8715     0.4375    49.5412    55.3451     7.9520   321.1573     0.0000    -0.0967   318.9595   311.0328     2.4167     2.4380  -999.2500     0.0000   653.1429
     84.0000   651.7331    76.6118    -5.4031  -253.7726     0.4396    50.7334    55.3501     7.5471   320.2968     0.0000    -0.0933   318.3058   310.7839     2.4168     2.4378  -999.2500     0.0000   652.2667
     84.5000   650.3517    76.6118    -5.3762  -253.5883     0.4416    51.5581    55.3551     6.9994   319.3362     0.0000    -0.0898   317.5682   310.5941     2.4168     2.4375  -999.2500     0.0000   690.0714
     85.0000   651.0221    76.6118    -5.4031  -253.4422     0.4434    47.4053    55.3601     6.4324   318.5426     0.0000    -0.0864   317.5196   311.1124     2.4176     2.4369  -999.2500     0.0000   677.4286
     85.5000   649.9556    76.6118    -5.3762  -253.3873     0.4452    45.5063    55.3651     5.8418   317.4077     0.0000    -0.0831   317.2335   311.4171     2.4187     2.4364  -999.2500     0.0000   676.7857
     86.0000   651.3708    76.6118    -5.4031  -253.4159     0.4470    45.4509    55.3701     5.3855   316.1801     0.0000    -0.0797   316.7867   311.4266     2.4202     2.4358  -999.2500     0.0000   710.5000
     86.5000   648.9907    76.6118    -5.3762  -253.3887     0.4486    44.8602    55.3751     4.7376   314.9108     0.0000    -0.0762   316.4678   311.7557     2.4220     2.4356  -999.2500     0.0000   650.4286
