~VERSION INFORMATION
VERS.           1.2   :CWLS Log ASCII Standard - VERSION 1.2
WRAP.           NO    :One Line per depth step
PROD.  Schlumberger   :LAS Producer
PROG.  DLIS to ASCII 2.3                               :LAS Program name and version
CREA.        2015/05/30 05:44                          :LAS Creation date {YYYY/MM/DD hh:mm}
DLIS_CREA.  2015-May-29 22:59                          :DLIS Creation date and time {YYYY-MMM-DD hh:mm}
SOURCE.     3feb4549-4107-45e4-8f62-928498d876c9       :DLIS File Name
#--------------------------------------------------
~WELL INFORMATION
#MNEM.UNIT      DATA             DESCRIPTION
#---- ------ --------------   -----------------------------
STRT .F      5218.5000       :START DEPTH     
STOP .F      7211.0000       :STOP DEPTH     
STEP .F       0.5000         :STEP       
NULL .          -999.25      :NULL VALUE
COMP .                 COMPANY:  ADM COMPANY                        
WELL .                    WELL:  CCS#2                              
FLD  .                   FIELD:  WILDCAT                            
LOC  .                LOCATION:  LAT 39.885961                      
CNTY .                  COUNTY:  MACON                              
STAT .                   STATE:  ILLINOIS                           
CTRY .                 COUNTRY:  USA                                
SRVC .         SERVICE COMPANY:  Schlumberger                       
LATI .DEG             LATITUDE:  39.885961 degrees                  
LONG .DEG            LONGITUDE:  -88.888044 degrees                 
API  .              API NUMBER:  12-115-23713-00                    
DATE .                LOG DATE:  29-May-2015
UWI  .          UNIQUE WELL ID:  12-115-23713-00                    
#-----------------------------------------------------------------------------
~PARAMETER INFORMATION
#MNEM.UNIT    VALUE                      DESCRIPTION
#---- -----   --------------------       ------------------------
CN   .        ADM COMPANY                :Company Name
WN   .        CCS#2                      :Well Name
FN   .        WILDCAT                    :Field Name
FL   .        LAT 39.885961              :Field Location
FL1  .        LONG 39.885961             :Field Location, Line 1
COUN .        MACON                      :County or Parish
STAT .        ILLINOIS                   :State or Province
NATI .        USA                        :Nation
DATE .        29-May-2015                :Tools Above Rotary Table Date
APIN .        12-115-23713-00            :API Well Number
SECT .        32                         :Section
TOWN .        17N                        :Township
RANG .        3E                         :Range
DMF  .        KB                         :Drilling Measured From (Name of Drilling Elevation Reference)
LMF  .        KB                         :Logging Measured From (Name of Logging Elevation Reference)
PDAT .        GL                         :Permanent Datum
ENGI .        H. DIMITROV / M. MOHAMMED  :Engineer s Name
WITN .        NICK MALKEWICZ             :Witness s Name
LATI .        39.885961 degrees          :Latitude
LONG .        -88.888044 degrees         :Longitude
LUL  .        BRADFORD                   :Logging Unit Location
LUN  .        3003                       :Logging Unit Number
RUN  .        Run 3C                     :Run Number
SON  .                                   :Service Order Number
BHT  .DEGF     127.00000                 :Bottom Hole Temperature
BS   .IN        12.25000                 :Bit Size
DFD  .LB/G       9.20000                 :Drilling Fluid Density
DFV  .S         66.00000                 :Drilling Fluid Viscosity
DFL  .C3         7.60000                 :Drilling Fluid Loss
RMFS .OHMM       0.17000                 :Resistivity of Mud Filtrate Sample
EKB  .F        691.19995                 :Elevation of Kelly Bushing
EGL  .F        675.69995                 :Elevation of Ground Level
BLI  .F       7192.00000                 :Bottom Log Interval
BSAL .PPM     15100.00000                :Borehole Salinity
FLEV .F          8.00000                 :Depth of Drilling Fluid Level to LMF (Log Measured From)
MCST .DEGF      72.50000                 :Mudcake Sample Temperature
MFST .DEGF      72.50000                 :Mud Filtrate Sample Temperature
MRT  .DEGF     127.00000                 :Maximum Recorded Temperature
MST  .DEGF      72.50000                 :Mud Sample Temperature
RMCS .OHMM       0.14000                 :Resistivity of Mud Cake Sample
RMS  .OHMM       0.20000                 :Resistivity of Mud Sample
RW   .OHMM       1.00000                 :Connate Water Resistivity
TDD  .F       7193.00049                 :Driller Total Depth
TDL  .F       7193.00049                 :Logger Total Depth
TLI  .F       5240.00000                 :Top Log Interval
HIDE .        WILDCAT                    :Header Identifier
MATR .        SAND                       :Rock Matrix for Neutron Porosity Corrections
FNUM .           1.00000                 :F-Numerator for Formation Factor Formula
FEXP .           2.00000                 :Exponent "m" for Formation Factor Formula
DFT  .        Fresh Water                :Drilling Fluid Type
DFPH .          11.50000                 :Drilling Fluid pH
MCSS .        Calculated                 :Mudcake Sample Source
MFSS .        Calculated                 :Mud Filtrate Sample Source
FD   .LB/G       8.34540                 :Fluid Density
MSS  .        Active Tank                :Mud Sample Source
OS1  .                                   :Other Services Line 1
OS2  .                                   :Other Services Line 2
OS3  .                                   :Other Services Line 3
OS4  .                                   :Other Services Line 4
OS5  .                                   :Other Services Line 5
R1   .        THANKS FOR CHOOSING SCHLUMBERGER!!! :Remarks Line 1
R2   .        All WELL PROPERTIES PROVIDED BY CLIENT :Remarks Line 2
R3   .        ALL SCALES ON PRESENTATIONS AS PER

CLIENT REQUEST :Remarks Line 3
R4   .        MATRIX  SANDSTONE          :Remarks Line 4
R5   .        MATRIX DENSITY  2.65 G/CC  :Remarks Line 5
R6   .        ALL LOGGING INTERVALS AS PER CLIENT REQUEST :Remarks Line 6
R7   .        MRT = 127 DEGF FROM THE THERMOMETER :Remarks Line 7
R8   .                                   :Remarks Line 8
TCS  .        20 00 00                   :Time Circulation Stopped
TLAB .        14 31 00                   :Time Logger At Bottom
EPD  .C3         675.699951              :Elevation of Permanent Datum above Mean Sea Level
APD  .F          15.500000               :Elevation of Depth Reference (LMF) above Permanent Datum
#-----------------------------------------------------------------------------
~CURVE INFORMATION
#MNEM.UNIT   API CODE                                  DESCRIPTION
#---- -----  --------                                  -----------------------
DEPT .F                                                :DEPTH (BOREHOLE) {F12.4}
BFV  .CFCF                                             :Bound Fluid Volume {F11.4}
CBP1 .CFCF                                             :CMR Bin Porosity 1 {F11.4}
CBP2 .CFCF                                             :CMR Bin Porosity 2 {F11.4}
CBP3 .CFCF                                             :CMR Bin Porosity 3 {F11.4}
CBP4 .CFCF                                             :CMR Bin Porosity 4 {F11.4}
CBP5 .CFCF                                             :CMR Bin Porosity 5 {F11.4}
CBP6 .CFCF                                             :CMR Bin Porosity 6 {F11.4}
CBP7 .CFCF                                             :CMR Bin Porosity 7 {F11.4}
CBP8 .CFCF                                             :CMR Bin Porosity 8 {F11.4}
CDF  .LBF                                              :Calibrated Downhole Force {F11.4}
CMFF .CFCF                                             :CMR Free Fluid {F11.4}
CMFF_SIG.CFCF                                          :Standard Deviation of CMR Free Fluid {F11.4}
CMR_PHI_CONV.                                          :CMR Porosity Conversion factor {F11.4}
CMRP_3MS.CFCF                                          :CMR Porosity with T2 values greater than 3 ms {F11.4}
CTEM .DEGF                                             :Cartridge Temperature {F11.4}
DCAL .IN                                               :Differential Caliper {F11.4}
ED   .F                                                :East Departure {F11.4}
GR_EDTC.GAPI                                           :Gamma Ray {F11.4}
GTEM .DEGF                                             :Generalized Borehole Temperature {F11.4}
HCGR .GAPI                                             :HNGS Computed Gamma Ray {F11.4}
HFK  .%                                                :HNGS Formation Potassium Concentration {F11.4}
HSGR .GAPI                                             :HNGS Standard Gamma-Ray {F11.4}
HTHO .PPM                                              :HNGS Formation Thorium Concentration {F11.4}
HURA .PPM                                              :HNGS Formation Uranium Concentration {F11.4}
KSDR .MD                                               :SDR Permeability {F11.4}
KTIM .MD                                               :Timur/Coates Permeability {F11.4}
ND   .F                                                :North Departure {F11.4}
STIT .F                                                :Stuck Tool Indicator, Total {F11.4}
T2LM .MS                                               :T2 Logarithmic Mean {F11.4}
T2LM_SIG.MS                                            :Standard Deviation of T2 Logarithmic Mean {F11.4}
TCMR .CFCF                                             :Total CMR Porosity {F11.4}
TENS .LBF                                              :Cable Tension {F11.4}
#-----------------------------------------------------------------------------
# 
#      DEPT        BFV        CBP1       CBP2       CBP3       CBP4       CBP5       CBP6       CBP7       CBP8       CDF        CMFF     CMFF_SIG  CMR_PHI_CO  CMRP_3MS     CTEM       DCAL        ED      GR_EDTC      GTEM       HCGR       HFK        HSGR       HTHO       HURA       KSDR       KTIM        ND        STIT       T2LM     T2LM_SIG     TCMR       TENS
#                                                                                                                                                   NV
~A  
# ...
   6010.5000     0.0394     0.0004     0.0090     0.0127     0.0172     0.0192     0.0150     0.0051     0.0005  1176.0909     0.0399     0.0036     0.0006     0.0698   124.0471     0.0000    -1.7991    25.6090   117.3112    28.0857     1.0642    27.1808     2.7709    -0.0774     0.1340     0.4105    38.9542     0.0000    29.0800  -999.2500     0.0793  2713.9001
   6011.0000     0.0429     0.0006     0.0092     0.0153     0.0179     0.0161     0.0152     0.0065     0.0008  1175.8300     0.0387     0.0036     0.0006     0.0719   124.0471     0.0000    -1.8000    24.8065   117.3153    26.1370     1.0086    26.2403     2.4720     0.0624     0.1442     0.3633    38.9500     0.0000    28.4421  -999.2500     0.0817  2691.6365
   6011.5000     0.0484     0.0010     0.0090     0.0177     0.0206     0.0150     0.0165     0.0070     0.0010  1180.7323     0.0395     0.0036     0.0006     0.0778   124.0471     0.0000    -1.8008    24.4447   117.3194    26.2251     1.0101    26.3295     2.4912     0.0720     0.1827     0.4011    38.9459     0.0000    27.5350  -999.2500     0.0879  2676.3000
   6012.0000     0.0548     0.0016     0.0086     0.0200     0.0246     0.0150     0.0193     0.0071     0.0012  1180.8094     0.0426     0.0037     0.0006     0.0872   124.0471     0.0000    -1.8015    25.6152   117.3235    26.5553     1.0160    26.6526     2.5627     0.0597     0.2855     0.5653    38.9417     0.0000    27.3795  -999.2500     0.0974  2722.4546
   6012.5000     0.0601     0.0019     0.0084     0.0222     0.0276     0.0156     0.0240     0.0067     0.0030  1178.8965     0.0494     0.0037     0.0006     0.0991   124.0471     0.0000    -1.8023    25.7611   117.3276    27.8505     1.0872    27.2623     2.5607    -0.0457     0.5226     0.9682    38.9375     0.0000    30.1548  -999.2500     0.1095  2708.8181
   6013.0000     0.0579     0.0026     0.0069     0.0209     0.0275     0.0167     0.0275     0.0091     0.0043  1210.0212     0.0576     0.0038     0.0006     0.1060   124.0471     0.0000    -1.8030    26.3808   117.3317    26.5402     1.0506    26.7228     2.3554     0.0148     0.9927     1.8179    38.9333     0.0000    36.7831  -999.2500     0.1156  2839.3638
   6013.5000     0.0514     0.0012     0.0052     0.0186     0.0265     0.0180     0.0290     0.0116     0.0041  1184.9027     0.0628     0.0038     0.0006     0.1078   124.0471     0.0000    -1.8037    26.9048   117.3358    25.8878     1.0113    25.9735     2.3762    -0.0004     1.4704     2.5965    38.9292     0.0000    46.4810  -999.2500     0.1142  2734.7000
   6014.0000     0.0449     0.0001     0.0037     0.0168     0.0243     0.0206     0.0285     0.0126     0.0038  1182.3877     0.0656     0.0038     0.0006     0.1067   124.0471     0.0000    -1.8044    25.9299   117.3399    24.8085     0.9692    24.9109     2.2770    -0.0205     1.6976     3.2043    38.9250     0.0000    53.4558  -999.2500     0.1105  2708.5457
   6014.5000     0.0404     0.0000     0.0031     0.0161     0.0212     0.0241     0.0259     0.0118     0.0031  1175.1769     0.0649     0.0037     0.0006     0.1022   124.0471     0.0000    -1.8050    24.9414   117.3440    25.1281     0.9873    25.4716     2.2734    -0.0052     1.4734     3.2343    38.9209     0.0000    53.4995  -999.2500     0.1053  2750.1819
   6015.0000     0.0379     0.0000     0.0044     0.0156     0.0179     0.0266     0.0207     0.0101     0.0005  1174.0149     0.0579     0.0036     0.0006     0.0915   124.0471     0.0000    -1.8056    23.8321   117.3481    27.3287     1.0586    27.1669     2.5613    -0.0220     0.6538     1.9719    38.9167     0.0000    43.9891  -999.2500     0.0959  2724.6001
   6015.5000     0.0400     0.0084     0.0039     0.0117     0.0160     0.0235     0.0144     0.0021     0.0006  1184.1813     0.0406     0.0035     0.0006     0.0683   124.0471     0.0000    -1.8062    25.6453   117.3522    27.9823     1.0919    28.2693     2.5758    -0.0013     0.1666     0.6176    38.9126     0.0000    23.1517  -999.2500     0.0806  2746.7002
   6016.0000     0.0380     0.0101     0.0019     0.0092     0.0168     0.0223     0.0148     0.0001     0.0012  1179.5808     0.0385     0.0036     0.0006     0.0645   124.0471     0.0000    -1.8067    26.9629   117.3563    27.9549     1.0960    28.1355     2.5428    -0.0141     0.0679     0.3582    38.9085     0.0000    22.0572  -999.2500     0.0765  2776.5000
   6016.5000     0.0348     0.0085     0.0005     0.0073     0.0185     0.0222     0.0180     0.0017     0.0030  1186.3248     0.0450     0.0036     0.0006     0.0708   124.0471     0.0000    -1.8073    27.2105   117.3604    28.3477     1.1064    28.4191     2.6079    -0.0355     0.2289     0.7887    38.9044     0.0000    33.4060  -999.2500     0.0798  2772.2727
   6017.0000     0.0325     0.0067     0.0004     0.0055     0.0199     0.0229     0.0209     0.0056     0.0051  1181.0950     0.0545     0.0036     0.0006     0.0800   124.0471     0.0000    -1.8078    26.6456   117.3646    28.4611     1.1075    28.4970     2.6377    -0.0384     0.5658     1.6966    38.9003     0.0000    48.2895  -999.2500     0.0870  2772.2002
   6017.5000     0.0325     0.0069     0.0013     0.0034     0.0209     0.0249     0.0210     0.0119     0.0050  1183.3788     0.0627     0.0036     0.0006     0.0871   124.0471     0.0000    -1.8082    25.4234   117.3686    27.7301     1.0810    28.0886     2.5587     0.0123     1.0403     3.0620    38.8962     0.0000    56.1898  -999.2500     0.0953  2783.3638
   6018.0000     0.0397     0.0070     0.0057     0.0061     0.0209     0.0275     0.0205     0.0136     0.0041  1178.7936     0.0657     0.0036     0.0006     0.0927   124.0471     0.0000    -1.8087    24.5247   117.3727    25.0951     0.9518    25.7250     2.4702     0.0620     1.0320     3.3893    38.8921     0.0000    46.1507  -999.2500     0.1053  2729.5000
   6018.5000     0.0475     0.0074     0.0097     0.0091     0.0213     0.0282     0.0202     0.0122     0.0016  1183.0610     0.0622     0.0036     0.0006     0.0926   124.0471     0.0000    -1.8091    24.7789   117.3768    24.3914     0.9187    24.8395     2.4384     0.0474     0.6938     2.5932    38.8880     0.0000    34.1880  -999.2500     0.1096  2763.0908
   6019.0000     0.0547     0.0076     0.0109     0.0137     0.0226     0.0257     0.0236     0.0068     0.0000  1183.7289     0.0561     0.0034     0.0006     0.0924   124.0471     0.0000    -1.8095    25.6637   117.3810    23.8689     0.9325    25.0505     2.1904     0.1121     0.3982     1.6536    38.8839     0.0000    25.5024  -999.2500     0.1109  2785.5454
   6019.5000     0.0593     0.0071     0.0093     0.0191     0.0237     0.0226     0.0276     0.0003     0.0000  1181.3696     0.0505     0.0033     0.0006     0.0933   124.0471     0.0000    -1.8098    25.7090   117.3851    25.9345     1.0189    27.3292     2.3466     0.1480     0.2732     1.0605    38.8799     0.0000    21.5988  -999.2500     0.1098  2708.2000
   6020.0000     0.0580     0.0060     0.0074     0.0224     0.0223     0.0248     0.0225     0.0000     0.0000  1177.5806     0.0472     0.0036     0.0006     0.0919   124.0471     0.0000    -1.8102    26.3259   117.3892    27.6876     1.0712    28.2793     2.6022     0.0634     0.2019     0.8139    38.8758     0.0000    20.2858  -999.2500     0.1052  2769.4546
   6020.5000     0.0596     0.0067     0.0065     0.0213     0.0251     0.0221     0.0234     0.0000     0.0000  1172.7946     0.0455     0.0042     0.0006     0.0919   124.0471     0.0000    -1.8105    26.1484   117.3933    28.6839     1.1115    29.1742     2.6853    -0.0101     0.2007     0.7140    38.8718     0.0000    20.2530  -999.2500     0.1052  2751.6365
   6021.0000     0.0612     0.0082     0.0082     0.0183     0.0265     0.0196     0.0185     0.0051     0.0000  1177.2992     0.0433     0.0040     0.0006     0.0881   124.0471     0.0000    -1.8108    26.6633   117.3974    27.1062     1.0741    28.3500     2.3987     0.1368     0.1911     0.5996    38.8677     0.0000    20.0255  -999.2500     0.1045  2704.4546
