~VERSION INFORMATION
VERS.           1.2   :CWLS Log ASCII Standard - VERSION 1.2
WRAP.           NO    :One Line per depth step
PROD.  Schlumberger   :LAS Producer
PROG.  DLIS to ASCII 2.3                               :LAS Program name and version
CREA.        2015/01/14 20:43                          :LAS Creation date {YYYY/MM/DD hh:mm}
DLIS_CREA.  2015-Jan-14 13:25                          :DLIS Creation date and time {YYYY-MMM-DD hh:mm}
SOURCE.     d5fbb1e7-1f44-4e43-b8fb-7fdeb49dde7f       :DLIS File Name
#--------------------------------------------------
~WELL INFORMATION
#MNEM.UNIT      DATA             DESCRIPTION
#---- ------ --------------   -----------------------------
STRT .F       8.0000         :START DEPTH     
STOP .F      353.0000        :STOP DEPTH     
STEP .F       0.5000         :STEP       
NULL .          -999.25      :NULL VALUE
COMP .                 COMPANY:  ADM Company                        
WELL .                    WELL:  CCS#2                              
FLD  .                   FIELD:  Wildcat                            
LOC  .                LOCATION:  Latitude: 39.885961                
CNTY .                  COUNTY:  Macon                              
STAT .                   STATE:  Illinois                           
CTRY .                 COUNTRY:  USA                                
SRVC .         SERVICE COMPANY:  Schlumberger                       
LATI .DEG             LATITUDE:  39° 53' 9.46" N                    
LONG .DEG            LONGITUDE:  88° 53' 16.959" W                  
API  .              API NUMBER:  12-115-23713-00                    
DATE .                LOG DATE:  12-Jan-2015
UWI  .          UNIQUE WELL ID:                                     
#-----------------------------------------------------------------------------
~PARAMETER INFORMATION
#MNEM.UNIT    VALUE                      DESCRIPTION
#---- -----   --------------------       ------------------------
CN   .        ADM Company                :Company Name
WN   .        CCS#2                      :Well Name
FN   .        Wildcat                    :Field Name
FL   .        Latitude  39.885961        :Field Location
FL1  .        Longitude  -88.888044      :Field Location, Line 1
COUN .        Macon                      :County or Parish
STAT .        Illinois                   :State or Province
NATI .        USA                        :Nation
DATE .        12-Jan-2015                :Tools Above Rotary Table Date
APIN .        12-115-23713-00            :API Well Number
SECT .        32                         :Section
TOWN .        17N                        :Township
RANG .        3E                         :Range
DMF  .        KB                         :Drilling Measured From (Name of Drilling Elevation Reference)
LMF  .        KB                         :Logging Measured From (Name of Logging Elevation Reference)
PDAT .        GL                         :Permanent Datum
ENGI .        Devin Arnold               :Engineer s Name
WITN .        Nick Malkewicz             :Witness s Name
LATI .        39° 53' 9.46  N            :Latitude
LONG .        88° 53' 16.959  W          :Longitude
LUL  .        Bradford                   :Logging Unit Location
LUN  .        3095                       :Logging Unit Number
RUN  .        1                          :Run Number
SON  .        D71E-00006                 :Service Order Number
BHT  .DEGF      58.00000                 :Bottom Hole Temperature
BS   .IN        26.00000                 :Bit Size
MDEN .G/C3       2.71000                 :Matrix Density for Density Porosity
DFD  .LB/G      10.10000                 :Drilling Fluid Density
DFV  .S         60.00000                 :Drilling Fluid Viscosity
DFL  .C3      -999.25000                 :Drilling Fluid Loss
RMFS .OHMM       1.23200                 :Resistivity of Mud Filtrate Sample
EKB  .F        691.19995                 :Elevation of Kelly Bushing
EGL  .F        675.69995                 :Elevation of Ground Level
BLI  .F        342.00000                 :Bottom Log Interval
BSAL .PPM        0.00000                 :Borehole Salinity
FLEV .F          8.00000                 :Depth of Drilling Fluid Level to LMF (Log Measured From)
MCST .DEGF      42.80000                 :Mudcake Sample Temperature
MFST .DEGF      42.80000                 :Mud Filtrate Sample Temperature
MRT  .DEGF      58.00000                 :Maximum Recorded Temperature
MST  .DEGF      42.80000                 :Mud Sample Temperature
RMCS .OHMM       1.84800                 :Resistivity of Mud Cake Sample
RMS  .OHMM       1.54000                 :Resistivity of Mud Sample
RW   .OHMM       1.00000                 :Connate Water Resistivity
TDD  .F        349.00000                 :Driller Total Depth
TDL  .F        349.00000                 :Logger Total Depth
TLI  .F         50.00000                 :Top Log Interval
HIDE .        Wildcat                    :Header Identifier
MATR .        LIME                       :Rock Matrix for Neutron Porosity Corrections
FNUM .           1.00000                 :F-Numerator for Formation Factor Formula
FEXP .           2.00000                 :Exponent "m" for Formation Factor Formula
DFT  .        Fresh Mud                  :Drilling Fluid Type
DFPH .        -999.25000                 :Drilling Fluid pH
MCSS .        Calculated                 :Mudcake Sample Source
MFSS .        Calculated                 :Mud Filtrate Sample Source
FD   .G/C3       1.00000                 :Fluid Density
MSS  .        Active Tank                :Mud Sample Source
OS1  .                                   :Other Services Line 1
OS2  .                                   :Other Services Line 2
OS3  .                                   :Other Services Line 3
OS4  .                                   :Other Services Line 4
OS5  .                                   :Other Services Line 5
R1   .        Matrix Density  Limestone. :Remarks Line 1
R2   .        Mud Sample taken on location. :Remarks Line 2
R3   .        Presentations as per client request. :Remarks Line 3
R4   .        No Chemical Sources ran due to possible potable water zones. :Remarks Line 4
R5   .        Bottom Hole Temperature taken from GM2 temperature log provided by the client. 58degF :Remarks Line 5
R6   .                                   :Remarks Line 6
R7   .                                   :Remarks Line 7
R8   .        APS ran outside max bit size range of 20in causing faulty data. :Remarks Line 8
TCS  .        19 45 00                   :Time Circulation Stopped
TLAB .        01 15 00                   :Time Logger At Bottom
NMT  .        NOBARITE                   :HRDD Mud Type for Nuclear Devices
EPD  .C3         675.699951              :Elevation of Permanent Datum above Mean Sea Level
APD  .F          15.500000               :Elevation of Depth Reference (LMF) above Permanent Datum
#-----------------------------------------------------------------------------
~CURVE INFORMATION
#MNEM.UNIT   API CODE                                  DESCRIPTION
#---- -----  --------                                  -----------------------
DEPT .F                                                :DEPTH (BOREHOLE) {F12.4}
AF10 .OHMM                                             :Array Induction Four Foot Resistivity A10 {F11.4}
AF20 .OHMM                                             :Array Induction Four Foot Resistivity A20 {F11.4}
AF30 .OHMM                                             :Array Induction Four Foot Resistivity A30 {F11.4}
AF60 .OHMM                                             :Array Induction Four Foot Resistivity A60 {F11.4}
AF90 .OHMM                                             :Array Induction Four Foot Resistivity A90 {F11.4}
AO10 .OHMM                                             :Array Induction One Foot Resistivity A10 {F11.4}
AO20 .OHMM                                             :Array Induction One Foot Resistivity A20 {F11.4}
AO30 .OHMM                                             :Array Induction One Foot Resistivity A30 {F11.4}
AO60 .OHMM                                             :Array Induction One Foot Resistivity A60 {F11.4}
AO90 .OHMM                                             :Array Induction One Foot Resistivity A90 {F11.4}
AT10 .OHMM                                             :Array Induction Two Foot Resistivity A10 {F11.4}
AT20 .OHMM                                             :Array Induction Two Foot Resistivity A20 {F11.4}
AT30 .OHMM                                             :Array Induction Two Foot Resistivity A30 {F11.4}
AT60 .OHMM                                             :Array Induction Two Foot Resistivity A60 {F11.4}
AT90 .OHMM                                             :Array Induction Two Foot Resistivity A90 {F11.4}
AFEC .HZ                                               :Far Detector Count Rate {F11.4}
ANEC .HZ                                               :Near Detector Count Rate {F11.4}
AORT .OHMM                                             :Array Induction One Foot Rt {F11.4}
AORX .OHMM                                             :Array Induction One Foot Rxo {F11.4}
APDC .CFCF                                             :Near/Array Corrected Dolomite Porosity {F11.4}
APLC .PU                                               :Near/Array Corrected Limestone Porosity {F11.4}
APSC .CFCF                                             :Near/Array Corrected Sandstone Porosity {F11.4}
CDF  .LBF                                              :Calibrated Downhole Force {F11.4}
CTEM .DEGF                                             :Cartridge Temperature {F11.4}
DCAL .IN                                               :Differential Caliper {F11.4}
ED   .F                                                :East Departure {F11.4}
FPLC .CFCF                                             :Near/Far Corrected Limestone Porosity {F11.4}
GR_EDTC.GAPI                                           :Gamma Ray {F11.4}
GTEM .DEGF                                             :Generalized Borehole Temperature {F11.4}
HASC .CFCF                                             :APS High Resolution Near/Array Corrected Sandstone Porosity {F11.4}
HSIG .CU                                               :APS High Resolution Formation Capture Cross Section {F11.4}
HSTO .IN                                               :APS High Resolution Effective Standoff in Limestone {F11.4}
ND   .F                                                :North Departure {F11.4}
QSGF .                                                 :Quality of Formation Sigma {F11.4}
SIGF .CU                                               :Formation Capture Cross Section {F11.4}
SP   .MV                                               :Spontaneous Potential {F11.4}
SPAR .MV                                               :SP, Armor Return Compensated {F11.4}
STIT .F                                                :Stuck Tool Indicator, Total {F11.4}
STOF .IN                                               :Effective Standoff in Limestone {F11.4}
STPC .CFCF                                             :Corrected Standoff Porosity {F11.4}
TENS .LBF                                              :Cable Tension {F11.4}
#-----------------------------------------------------------------------------
# 
#      DEPT        AF10       AF20       AF30       AF60       AF90       AO10       AO20       AO30       AO60       AO90       AT10       AT20       AT30       AT60       AT90       AFEC       ANEC       AORT       AORX       APDC       APLC       APSC       CDF        CTEM       DCAL        ED        FPLC     GR_EDTC      GTEM       HASC       HSIG       HSTO        ND        QSGF       SIGF        SP        SPAR       STIT       STOF       STPC       TENS
#
~A  
# ...
    341.0000     3.5805     4.1556     4.3352     4.9009     4.7365     3.4903     4.1246     4.3465     4.6574     5.0030     3.5907     4.1553     4.3179     4.8489     5.3795   144.0000   542.6667     4.9998     3.3379  -999.2500  -999.2500  -999.2500   644.9659    88.4706     0.0000     0.4571  -999.2500    73.0148    57.9200  -999.2500  -999.2500  -999.2500    -0.1573  -999.2500  -999.2500   -93.3638   -91.9264     0.0000  -999.2500  -999.2500   859.0000
    341.5000     3.4984     4.1099     4.2776     4.7735     4.7589     3.4190     4.1250     4.2863     4.5588     4.9538     3.5309     4.1597     4.2899     4.7544     5.5328   144.0000   542.6667     4.8900     3.2006  -999.2500  -999.2500  -999.2500   641.6267    88.4706     0.0000     0.4571  -999.2500    73.0148    57.9250  -999.2500  -999.2500  -999.2500    -0.1573  -999.2500  -999.2500   -93.1228   -90.7689     0.0000  -999.2500  -999.2500   897.5001
    342.0000     3.4184     4.0931     4.2754     4.6902     4.8449     3.3710     4.1630     4.4403     4.5909     5.0583     3.3609     4.0589     4.2152     4.6051     5.6438   144.0000   542.6667     4.9175     3.0872  -999.2500  -999.2500  -999.2500   642.8666    88.4706     0.0000     0.4571  -999.2500    73.0148    57.9300  -999.2500  -999.2500  -999.2500    -0.1573  -999.2500  -999.2500   -91.3148   -89.3169     0.0000  -999.2500  -999.2500   897.6072
    342.5000     3.4015     4.1116     4.3179     4.6987     5.0261     3.0158     3.7156     3.8568     4.1039     4.5303     3.2354     3.9652     4.1424     4.4815     5.5984   144.0000   542.6667     5.1931     3.0671  -999.2500  -999.2500  -999.2500   644.8008    88.4706     0.0000     0.4571  -999.2500    73.0148    57.9350  -999.2500  -999.2500  -999.2500    -0.1573  -999.2500  -999.2500   -89.2835   -87.8266     0.0000  -999.2500  -999.2500   889.8889
    343.0000     3.4544     4.1740     4.4150     4.7692     5.3132     3.5256     4.4216     5.0663     5.7303     6.7182     3.2950     4.1082     4.2591     4.5448     5.8668   144.0000   542.6667     6.2304     3.2600  -999.2500  -999.2500  -999.2500   643.7247    88.4706     0.0000     0.4571  -999.2500    73.0148    57.9400  -999.2500  -999.2500  -999.2500    -0.1573  -999.2500  -999.2500   -87.3616   -86.4333     0.0000  -999.2500  -999.2500   936.4828
    343.5000     3.5463     4.2906     4.5680     4.9079     5.7736     3.1585     3.6847     4.0196     4.8629     5.6501     3.4530     4.0144     4.3120     4.5483     6.2425   144.0000   542.6667     6.6177     3.1977  -999.2500  -999.2500  -999.2500   644.8262    88.4706     0.0000     0.4571  -999.2500    73.0148    57.9450  -999.2500  -999.2500  -999.2500    -0.1573  -999.2500  -999.2500   -84.2694   -84.9469     0.0000  -999.2500  -999.2500   910.3572
    344.0000     3.6158     4.4599     4.7968     5.1236     6.2115     3.6087     4.3195     4.9369     5.7614     6.9964     3.7768     4.3234     4.9571     5.2046     6.7573   144.0000   542.6667     8.2236     3.5144  -999.2500  -999.2500  -999.2500   644.3254    88.4706     0.0000     0.4571  -999.2500    73.0148    57.9500  -999.2500  -999.2500  -999.2500    -0.1573  -999.2500  -999.2500   -81.9844   -83.6850     0.0000  -999.2500  -999.2500   976.4644
    344.5000     3.7089     4.6500     5.0099     5.3279     6.6268     4.0633     4.9431     5.9685     7.9966    10.4222     3.9844     4.9057     5.3863     5.8118     7.3549   144.0000   542.6667    14.0735     4.0202  -999.2500  -999.2500  -999.2500   643.3569    88.4706     0.0000     0.4571  -999.2500    73.0148    57.9550  -999.2500  -999.2500  -999.2500    -0.1573  -999.2500  -999.2500   -80.7634   -82.7531     0.0000  -999.2500  -999.2500   956.9286
    345.0000  -999.2500  -999.2500  -999.2500  -999.2500  -999.2500  -999.2500  -999.2500  -999.2500  -999.2500  -999.2500  -999.2500  -999.2500  -999.2500  -999.2500  -999.2500   144.0000   542.6667  -999.2500  -999.2500  -999.2500  -999.2500  -999.2500   642.6949    88.4706     0.0000     0.4571  -999.2500    73.0148    57.9600  -999.2500  -999.2500  -999.2500    -0.1573  -999.2500  -999.2500   -80.5580   -82.1621     0.0000  -999.2500  -999.2500   984.0001
    345.5000  -999.2500  -999.2500  -999.2500  -999.2500  -999.2500  -999.2500  -999.2500  -999.2500  -999.2500  -999.2500  -999.2500  -999.2500  -999.2500  -999.2500  -999.2500   144.0000   542.6667  -999.2500  -999.2500  -999.2500  -999.2500  -999.2500   643.7852    88.4706     0.0000     0.4571  -999.2500    73.0148    57.9650  -999.2500  -999.2500  -999.2500    -0.1573  -999.2500  -999.2500   -80.9203   -81.8418     0.0000  -999.2500  -999.2500   941.4286
    346.0000  -999.2500  -999.2500  -999.2500  -999.2500  -999.2500  -999.2500  -999.2500  -999.2500  -999.2500  -999.2500  -999.2500  -999.2500  -999.2500  -999.2500  -999.2500   144.0000   542.6667  -999.2500  -999.2500  -999.2500  -999.2500  -999.2500   642.3517    88.4706     0.0000     0.4571  -999.2500    73.0148    57.9700  -999.2500  -999.2500  -999.2500    -0.1573  -999.2500  -999.2500   -81.0370   -81.6998     0.0000  -999.2500  -999.2500   904.0000
    346.5000  -999.2500  -999.2500  -999.2500  -999.2500  -999.2500  -999.2500  -999.2500  -999.2500  -999.2500  -999.2500  -999.2500  -999.2500  -999.2500  -999.2500  -999.2500   144.0000   542.6667  -999.2500  -999.2500  -999.2500  -999.2500  -999.2500   642.0330    88.4706     0.0000     0.4571  -999.2500    73.0148    57.9750  -999.2500  -999.2500  -999.2500    -0.1573  -999.2500  -999.2500   -81.3168   -81.7786     0.0000  -999.2500  -999.2500   933.1786
    347.0000  -999.2500  -999.2500  -999.2500  -999.2500  -999.2500  -999.2500  -999.2500  -999.2500  -999.2500  -999.2500  -999.2500  -999.2500  -999.2500  -999.2500  -999.2500   144.0000   542.6667  -999.2500  -999.2500  -999.2500  -999.2500  -999.2500   640.8071    88.4706     0.0000     0.4571  -999.2500    73.0148    57.9800  -999.2500  -999.2500  -999.2500    -0.1573  -999.2500  -999.2500   -81.6317   -82.0618     0.0000  -999.2500  -999.2500   895.0714
    347.5000  -999.2500  -999.2500  -999.2500  -999.2500  -999.2500  -999.2500  -999.2500  -999.2500  -999.2500  -999.2500  -999.2500  -999.2500  -999.2500  -999.2500  -999.2500   144.0000   542.6667  -999.2500  -999.2500  -999.2500  -999.2500  -999.2500   641.1443    88.4706     0.0000     0.4571  -999.2500    73.0148    57.9850  -999.2500  -999.2500  -999.2500    -0.1573  -999.2500  -999.2500   -82.0893   -82.5635     0.0000  -999.2500  -999.2500   853.1786
    348.0000  -999.2500  -999.2500  -999.2500  -999.2500  -999.2500  -999.2500  -999.2500  -999.2500  -999.2500  -999.2500  -999.2500  -999.2500  -999.2500  -999.2500  -999.2500   144.0000   542.6667  -999.2500  -999.2500  -999.2500  -999.2500  -999.2500   643.9944    88.4706     0.0000     0.4571  -999.2500    73.0148    57.9900  -999.2500  -999.2500  -999.2500    -0.1573  -999.2500  -999.2500   -82.6585   -83.2403     0.0000  -999.2500  -999.2500   897.9643
    348.5000  -999.2500  -999.2500  -999.2500  -999.2500  -999.2500  -999.2500  -999.2500  -999.2500  -999.2500  -999.2500  -999.2500  -999.2500  -999.2500  -999.2500  -999.2500   144.0000   542.6667  -999.2500  -999.2500  -999.2500  -999.2500  -999.2500   639.9490    88.4706     0.0000     0.4571  -999.2500    73.0148    57.9950  -999.2500  -999.2500  -999.2500    -0.1573  -999.2500  -999.2500   -84.0558   -84.2015     0.0000  -999.2500  -999.2500   878.1071
    349.0000  -999.2500  -999.2500  -999.2500  -999.2500  -999.2500  -999.2500  -999.2500  -999.2500  -999.2500  -999.2500  -999.2500  -999.2500  -999.2500  -999.2500  -999.2500   144.0000   542.6667  -999.2500  -999.2500  -999.2500  -999.2500  -999.2500   641.6301    88.4706     0.0000     0.4571  -999.2500    73.0148    58.0000  -999.2500  -999.2500  -999.2500    -0.1573  -999.2500  -999.2500   -85.8085   -85.2349     0.0000  -999.2500  -999.2500   888.4667
    349.5000  -999.2500  -999.2500  -999.2500  -999.2500  -999.2500  -999.2500  -999.2500  -999.2500  -999.2500  -999.2500  -999.2500  -999.2500  -999.2500  -999.2500  -999.2500   144.0000   542.6667  -999.2500  -999.2500  -999.2500  -999.2500  -999.2500   640.6302    88.4706     0.0000     0.4571  -999.2500    73.0148    58.0050  -999.2500  -999.2500  -999.2500    -0.1573  -999.2500  -999.2500   -87.0101   -86.1883     0.0000  -999.2500  -999.2500   893.4445
