~VERSION INFORMATION
VERS.           1.2   :CWLS Log ASCII Standard - VERSION 1.2
WRAP.           NO    :One Line per depth step
PROD.  Schlumberger   :LAS Producer
PROG.  DLIS to ASCII 2.3                               :LAS Program name and version
CREA.        2015/01/14 20:43                          :LAS Creation date {YYYY/MM/DD hh:mm}
DLIS_CREA.  2015-Jan-14 13:25                          :DLIS Creation date and time {YYYY-MMM-DD hh:mm}
SOURCE.     d5fbb1e7-1f44-4e43-b8fb-7fdeb49dde7f       :DLIS File Name
#--------------------------------------------------
~WELL INFORMATION
#MNEM.UNIT      DATA             DESCRIPTION
#---- ------ --------------   -----------------------------
STRT .F       8.0000         :START DEPTH     
STOP .F      353.0000        :STOP DEPTH     
STEP .F       0.5000         :STEP       
NULL .          -999.25      :NULL VALUE
COMP .                 COMPANY:  ADM Company                        
WELL .                    WELL:  CCS#2                              
FLD  .                   FIELD:  Wildcat                            
LOC  .                LOCATION:  Latitude: 39.885961                
CNTY .                  COUNTY:  Macon                              
STAT .                   STATE:  Illinois                           
CTRY .                 COUNTRY:  USA                                
SRVC .         SERVICE COMPANY:  Schlumberger                       
LATI .DEG             LATITUDE:  39° 53' 9.46" N                    
LONG .DEG            LONGITUDE:  88° 53' 16.959" W                  
API  .              API NUMBER:  12-115-23713-00                    
DATE .                LOG DATE:  12-Jan-2015
UWI  .          UNIQUE WELL ID:                                     
#-----------------------------------------------------------------------------
~PARAMETER INFORMATION
#MNEM.UNIT    VALUE                      DESCRIPTION
#---- -----   --------------------       ------------------------
CN   .        ADM Company                :Company Name
WN   .        CCS#2                      :Well Name
FN   .        Wildcat                    :Field Name
FL   .        Latitude  39.885961        :Field Location
FL1  .        Longitude  -88.888044      :Field Location, Line 1
COUN .        Macon                      :County or Parish
STAT .        Illinois                   :State or Province
NATI .        USA                        :Nation
DATE .        12-Jan-2015                :Tools Above Rotary Table Date
APIN .        12-115-23713-00            :API Well Number
SECT .        32                         :Section
TOWN .        17N                        :Township
RANG .        3E                         :Range
DMF  .        KB                         :Drilling Measured From (Name of Drilling Elevation Reference)
LMF  .        KB                         :Logging Measured From (Name of Logging Elevation Reference)
PDAT .        GL                         :Permanent Datum
ENGI .        Devin Arnold               :Engineer s Name
WITN .        Nick Malkewicz             :Witness s Name
LATI .        39° 53' 9.46  N            :Latitude
LONG .        88° 53' 16.959  W          :Longitude
LUL  .        Bradford                   :Logging Unit Location
LUN  .        3095                       :Logging Unit Number
RUN  .        1                          :Run Number
SON  .        D71E-00006                 :Service Order Number
BHT  .DEGF      58.00000                 :Bottom Hole Temperature
BS   .IN        26.00000                 :Bit Size
MDEN .G/C3       2.71000                 :Matrix Density for Density Porosity
DFD  .LB/G      10.10000                 :Drilling Fluid Density
DFV  .S         60.00000                 :Drilling Fluid Viscosity
DFL  .C3      -999.25000                 :Drilling Fluid Loss
RMFS .OHMM       1.23200                 :Resistivity of Mud Filtrate Sample
EKB  .F        691.19995                 :Elevation of Kelly Bushing
EGL  .F        675.69995                 :Elevation of Ground Level
BLI  .F        342.00000                 :Bottom Log Interval
BSAL .PPM        0.00000                 :Borehole Salinity
FLEV .F          8.00000                 :Depth of Drilling Fluid Level to LMF (Log Measured From)
MCST .DEGF      42.80000                 :Mudcake Sample Temperature
MFST .DEGF      42.80000                 :Mud Filtrate Sample Temperature
MRT  .DEGF      58.00000                 :Maximum Recorded Temperature
MST  .DEGF      42.80000                 :Mud Sample Temperature
RMCS .OHMM       1.84800                 :Resistivity of Mud Cake Sample
RMS  .OHMM       1.54000                 :Resistivity of Mud Sample
RW   .OHMM       1.00000                 :Connate Water Resistivity
TDD  .F        349.00000                 :Driller Total Depth
TDL  .F        349.00000                 :Logger Total Depth
TLI  .F         50.00000                 :Top Log Interval
HIDE .        Wildcat                    :Header Identifier
MATR .        LIME                       :Rock Matrix for Neutron Porosity Corrections
FNUM .           1.00000                 :F-Numerator for Formation Factor Formula
FEXP .           2.00000                 :Exponent "m" for Formation Factor Formula
DFT  .        Fresh Mud                  :Drilling Fluid Type
DFPH .        -999.25000                 :Drilling Fluid pH
MCSS .        Calculated                 :Mudcake Sample Source
MFSS .        Calculated                 :Mud Filtrate Sample Source
FD   .G/C3       1.00000                 :Fluid Density
MSS  .        Active Tank                :Mud Sample Source
OS1  .                                   :Other Services Line 1
OS2  .                                   :Other Services Line 2
OS3  .                                   :Other Services Line 3
OS4  .                                   :Other Services Line 4
OS5  .                                   :Other Services Line 5
R1   .        Matrix Density  Limestone. :Remarks Line 1
R2   .        Mud Sample taken on location. :Remarks Line 2
R3   .        Presentations as per client request. :Remarks Line 3
R4   .        No Chemical Sources ran due to possible potable water zones. :Remarks Line 4
R5   .        Bottom Hole Temperature taken from GM2 temperature log provided by the client. 58degF :Remarks Line 5
R6   .                                   :Remarks Line 6
R7   .                                   :Remarks Line 7
R8   .        APS ran outside max bit size range of 20in causing faulty data. :Remarks Line 8
TCS  .        19 45 00                   :Time Circulation Stopped
TLAB .        01 15 00                   :Time Logger At Bottom
NMT  .        NOBARITE                   :HRDD Mud Type for Nuclear Devices
EPD  .C3         675.699951              :Elevation of Permanent Datum above Mean Sea Level
APD  .F          15.500000               :Elevation of Depth Reference (LMF) above Permanent Datum
#-----------------------------------------------------------------------------
~CURVE INFORMATION
#MNEM.UNIT   API CODE                                  DESCRIPTION
#---- -----  --------                                  -----------------------
DEPT .F                                                :DEPTH (BOREHOLE) {F12.4}
AF10 .OHMM                                             :Array Induction Four Foot Resistivity A10 {F11.4}
AF20 .OHMM                                             :Array Induction Four Foot Resistivity A20 {F11.4}
AF30 .OHMM                                             :Array Induction Four Foot Resistivity A30 {F11.4}
AF60 .OHMM                                             :Array Induction Four Foot Resistivity A60 {F11.4}
AF90 .OHMM                                             :Array Induction Four Foot Resistivity A90 {F11.4}
AO10 .OHMM                                             :Array Induction One Foot Resistivity A10 {F11.4}
AO20 .OHMM                                             :Array Induction One Foot Resistivity A20 {F11.4}
AO30 .OHMM                                             :Array Induction One Foot Resistivity A30 {F11.4}
AO60 .OHMM                                             :Array Induction One Foot Resistivity A60 {F11.4}
AO90 .OHMM                                             :Array Induction One Foot Resistivity A90 {F11.4}
AT10 .OHMM                                             :Array Induction Two Foot Resistivity A10 {F11.4}
AT20 .OHMM                                             :Array Induction Two Foot Resistivity A20 {F11.4}
AT30 .OHMM                                             :Array Induction Two Foot Resistivity A30 {F11.4}
AT60 .OHMM                                             :Array Induction Two Foot Resistivity A60 {F11.4}
AT90 .OHMM                                             :Array Induction Two Foot Resistivity A90 {F11.4}
AFEC .HZ                                               :Far Detector Count Rate {F11.4}
ANEC .HZ                                               :Near Detector Count Rate {F11.4}
AORT .OHMM                                             :Array Induction One Foot Rt {F11.4}
AORX .OHMM                                             :Array Induction One Foot Rxo {F11.4}
APDC .CFCF                                             :Near/Array Corrected Dolomite Porosity {F11.4}
APLC .PU                                               :Near/Array Corrected Limestone Porosity {F11.4}
APSC .CFCF                                             :Near/Array Corrected Sandstone Porosity {F11.4}
CDF  .LBF                                              :Calibrated Downhole Force {F11.4}
CTEM .DEGF                                             :Cartridge Temperature {F11.4}
DCAL .IN                                               :Differential Caliper {F11.4}
ED   .F                                                :East Departure {F11.4}
FPLC .CFCF                                             :Near/Far Corrected Limestone Porosity {F11.4}
GR_EDTC.GAPI                                           :Gamma Ray {F11.4}
GTEM .DEGF                                             :Generalized Borehole Temperature {F11.4}
HASC .CFCF                                             :APS High Resolution Near/Array Corrected Sandstone Porosity {F11.4}
HSIG .CU                                               :APS High Resolution Formation Capture Cross Section {F11.4}
HSTO .IN                                               :APS High Resolution Effective Standoff in Limestone {F11.4}
ND   .F                                                :North Departure {F11.4}
QSGF .                                                 :Quality of Formation Sigma {F11.4}
SIGF .CU                                               :Formation Capture Cross Section {F11.4}
SP   .MV                                               :Spontaneous Potential {F11.4}
SPAR .MV                                               :SP, Armor Return Compensated {F11.4}
STIT .F                                                :Stuck Tool Indicator, Total {F11.4}
STOF .IN                                               :Effective Standoff in Limestone {F11.4}
STPC .CFCF                                             :Corrected Standoff Porosity {F11.4}
TENS .LBF                                              :Cable Tension {F11.4}
#-----------------------------------------------------------------------------
# 
#      DEPT        AF10       AF20       AF30       AF60       AF90       AO10       AO20       AO30       AO60       AO90       AT10       AT20       AT30       AT60       AT90       AFEC       ANEC       AORT       AORX       APDC       APLC       APSC       CDF        CTEM       DCAL        ED        FPLC     GR_EDTC      GTEM       HASC       HSIG       HSTO        ND        QSGF       SIGF        SP        SPAR       STIT       STOF       STPC       TENS
#
~A  
# ...
    206.0000    10.2965    10.8825    11.6179    12.8263    12.8931     9.0508     9.2188     9.9875    10.8650    11.0584     9.5221     9.7626    10.4937    11.5944    11.6729   393.1429  2445.1428    11.6105     8.9273     0.7523    75.5464     0.7609   631.5077    88.4706     0.0000    -0.2109     0.6545    60.4836    56.5700     0.7777    25.4686     0.1349     0.0673     0.2747    25.8754  -215.9028  -216.5367     0.0000     0.2283     0.7891   854.4074
    206.5000    10.1761    10.6733    11.4394    12.6501    12.8673     8.7425     9.3997    10.1888    11.1306    11.3280     9.3633     9.7663    10.5526    11.5983    11.8405   367.4286  2405.1428    11.7367     9.1335     0.7237    72.7183     0.7337   634.3644    88.4706     0.0000    -0.2115     0.7157    60.3375    56.5750     0.7041    24.4487     0.4346     0.0635     0.3417    25.8478  -214.9606  -216.1565     0.0000     0.3739     0.7891   875.3928
    207.0000    10.2365    10.7481    11.5266    12.7519    13.1197    10.3909    10.8863    11.6668    12.9803    13.2421    10.2004    10.6160    11.4499    12.7615    13.3115   369.7143  2448.0000    13.7531    10.1625     0.6853    68.9299     0.6974   630.7713    88.4706     0.0000    -0.2120     0.6766    60.1873    56.5800     0.7020    25.2622     0.5226     0.0596     0.4527    25.7561  -214.6741  -215.9896     0.0000     0.5438     0.7888   842.8148
    207.5000    10.3946    10.8911    11.6471    12.9107    13.3785    12.2253    12.1175    12.8589    14.7073    15.0370    11.0232    11.5186    12.3882    13.7565    14.4409   402.8571  2398.2856    15.2041    10.9575     0.7211    72.4629     0.7313   633.5391    88.4706     0.0000    -0.2124     0.6204    61.4117    56.5850     0.6971    25.6275     0.5536     0.0557     0.3277    26.7209  -214.8472  -216.0009     0.0000     0.3829     0.7888   912.8215
    208.0000    10.5497    11.0284    11.7640    12.9694    13.5804    10.8594    11.2358    12.0153    13.8085    14.1142    10.8267    11.1987    11.9899    13.2593    14.2416   387.5000  2420.0000    14.7808    10.5534     0.7465    74.9677     0.7554   633.2377    88.4706     0.0000    -0.2128     0.5995    61.6259    56.5900     0.7854    27.4433     0.1009     0.0519     0.2643    27.1377  -214.8170  -216.0644     0.0000     0.2624     0.7895   911.2963
    208.5000    10.6328    11.0742    11.7832    12.9472    13.6528     9.7812    10.1988    11.0666    12.7142    12.9851    10.5051    10.8798    11.6368    12.8287    13.8223   385.7143  2453.1428    14.0353    10.0716     0.7654    76.8406     0.7734   630.1238    88.4706     0.0000    -0.2131     0.5961    60.4751    56.5950     0.8020    28.5465     0.0048     0.0481     0.2264    27.5339  -214.7593  -216.2094     0.0000     0.1721     0.7907   886.8148
    209.0000    10.6171    11.0423    11.7174    12.8063    13.5803    10.7577    11.1134    12.0091    13.9735    14.2879    10.6942    11.0739    11.7909    12.8815    14.0152   402.2857  2488.0000    14.7456    10.5843     0.7076    71.1276     0.7185   632.4472    88.4706     0.0000    -0.2133     0.5558    59.4344    56.6000     0.7252    27.9244     0.4283     0.0442     0.3787    26.7357  -215.2454  -216.5638     0.0000     0.4719     0.7916   888.9286
    209.5000    10.5331    10.9483    11.5807    12.5740    13.3795    11.4411    11.5560    12.1189    13.8224    14.1286    10.9028    11.2873    11.9763    12.9843    14.0687   414.2857  2427.4285    13.9947    10.8097     0.7105    71.4171     0.7212   632.8154    88.4706     0.0000    -0.2134     0.5259    59.5654    56.6050     0.6810    25.1617     0.6228     0.0404     0.3856    26.2769  -216.6741  -217.1521     0.0000     0.4656     0.7924   870.7037
    210.0000    10.3957    10.8030    11.3885    12.2803    13.0730    10.5355    10.8629    11.4503    12.7709    13.0361    10.5308    10.8614    11.4667    12.3272    13.3277   402.2857  2498.8572    13.2341    10.4043     0.6673    67.1470     0.6803   629.4128    88.4706     0.0000    -0.2135     0.5326    58.9279    56.6100     0.6893    24.4327     0.5770     0.0366     0.5264    26.0595  -217.6019  -217.7013     0.0000     0.6476     0.7923   864.7778
    210.5000    10.2393    10.6296    11.1630    11.9537    12.7317     9.8599    10.2439    10.7116    11.7781    12.0072    10.1602    10.5211    11.0602    11.8093    12.6482   392.0000  2457.7144    12.6241    10.0117     0.7089    71.2550     0.7197   632.3329    88.4706     0.0000    -0.2134     0.5692    59.8774    56.6150     0.7009    26.5030     0.5414     0.0328     0.3889    26.2314  -218.1065  -218.2226     0.0000     0.4691     0.7919   843.4644
    211.0000    10.0717    10.4567    10.9503    11.6678    12.3590    10.1476    10.5283    10.8629    11.8173    12.0399    10.0455    10.4280    10.8432    11.4468    12.1382   396.0000  2380.5715    11.9882    10.0316     0.7041    70.7863     0.7152   633.8438    88.4706     0.0000    -0.2133     0.6120    58.7831    56.6200     0.6995    26.8580     0.5575     0.0289     0.3988    26.2674  -218.9598  -218.7726     0.0000     0.4858     0.7914   826.6667
    211.5000     9.9579    10.3321    10.7885    11.4514    12.0879    10.0592    10.3558    10.4759    11.2521    11.4544     9.8043    10.2245    10.6365    11.2093    11.7618   386.2857  2476.0000    11.3635     9.8585     0.7290    73.2482     0.7388   631.2627    88.4706     0.0000    -0.2131     0.6039    58.9047    56.6250     0.6739    26.1933     0.6466     0.0252     0.3418    25.4250  -219.6574  -219.3091     0.0000     0.3569     0.7902   861.0000
    212.0000     9.9264    10.2947    10.7364    11.3687    11.9670     9.1695     9.6587     9.9325    10.5977    10.7798     9.6719    10.0323    10.3639    10.9125    11.3450   393.1429  2420.0000    10.6851     9.4530     0.7568    75.9912     0.7652   628.1685    88.4706     0.0000    -0.2129     0.7060    60.4674    56.6300     0.7618    25.0895    -0.0443     0.0213     0.2657    26.1529  -220.4074  -219.8086     0.0000     0.2179     0.7907   832.7500
    212.5000     9.9807    10.3367    10.7851    11.4153    11.9733     9.7555    10.1632    10.3190    10.9776    11.1693     9.8668    10.2468    10.6149    11.1501    11.4816   361.7143  2494.0000    11.0937     9.7555     0.7564    75.9513     0.7648   631.6473    88.4706     0.0000    -0.2125     0.6510    60.8945    56.6350     0.8105    24.0560    -0.0465     0.0175     0.2838    25.1683  -221.8912  -220.3818     0.0000     0.2167     0.7903   856.1852
    213.0000    10.0834    10.4264    10.8958    11.5459    12.0687    10.3202    10.7046    11.1400    11.8499    12.0676    10.1223    10.4419    10.9752    11.5206    11.7739   406.8571  2437.7144    11.9441    10.1393     0.7319    73.5341     0.7416   634.2646    88.4706     0.0000    -0.2121     0.6601    58.5988    56.6400     0.7344    23.1962     0.3823     0.0137     0.3579    24.7539  -222.6071  -220.7183     0.0000     0.3589     0.7920   865.9260
    213.5000    10.2021    10.5245    11.0300    11.7214    12.2280    10.2335    10.5339    10.9562    11.9265    12.1498    10.1960    10.5147    11.0761    11.7061    11.9726   385.7143  2425.7144    12.5658    10.0764     0.6786    68.2625     0.6910   632.1552    88.4706     0.0000    -0.2116     0.5060    54.4446    56.6450     0.6583    23.9491     0.7327     0.0100     0.5615    23.8382  -223.1366  -221.0059     0.0000     0.6086     0.7929   855.7778
    214.0000    10.3217    10.6170    11.1790    11.9311    12.4404    10.5139    10.7469    11.2328    12.6001    12.8479    10.2741    10.5410    11.1284    11.8064    12.1501   421.7143  2438.8572    13.2731    10.2217     0.6961    69.9975     0.7076   628.3209    88.4706     0.0000    -0.2110     0.5614    54.1627    56.6500     0.6923    24.9105     0.6017     0.0062     0.4587    25.3639  -222.8032  -220.9822     0.0000     0.5377     0.7932   898.4074
    214.5000    10.4344    10.7616    11.3737    12.2036    12.7167     9.8412    10.1879    10.9867    12.4303    12.6789    10.2269    10.4931    11.1548    11.9589    12.3040   382.8571  2393.1428    13.6024     9.9629     0.7013    70.5093     0.7125   631.3045    88.4706     0.0000    -0.2103     0.5531    58.1180    56.6550     0.7547    24.9432     0.2990     0.0024     0.4550    24.9394  -221.6088  -220.7262     0.0000     0.5174     0.7935   897.2857
