~VERSION INFORMATION
VERS.           1.2   :CWLS Log ASCII Standard - VERSION 1.2
WRAP.           NO    :One Line per depth step
PROD.  Schlumberger   :LAS Producer
PROG.  DLIS to ASCII 2.3                               :LAS Program name and version
CREA.        2015/05/30 23:46                          :LAS Creation date {YYYY/MM/DD hh:mm}
DLIS_CREA.  2015-May-30 15:01                          :DLIS Creation date and time {YYYY-MMM-DD hh:mm}
SOURCE.     b43ac578-4029-44ab-a201-dacd5736d378       :DLIS File Name
#--------------------------------------------------
~WELL INFORMATION
#MNEM.UNIT      DATA             DESCRIPTION
#---- ------ --------------   -----------------------------
STRT .F      5200.5000       :START DEPTH     
STOP .F      7212.5000       :STOP DEPTH     
STEP .F       0.5000         :STEP       
NULL .          -999.25      :NULL VALUE
COMP .                 COMPANY:  ADM COMPANY                        
WELL .                    WELL:  CCS#2                              
FLD  .                   FIELD:  WILDCAT                            
LOC  .                LOCATION:  LAT 39.885961                      
CNTY .                  COUNTY:  MACON                              
STAT .                   STATE:  ILLINOIS                           
CTRY .                 COUNTRY:  USA                                
SRVC .         SERVICE COMPANY:  Schlumberger                       
LATI .DEG             LATITUDE:  39.885961 degrees                  
LONG .DEG            LONGITUDE:  -88.888044 degrees                 
API  .              API NUMBER:  12-115-23713-00                    
DATE .                LOG DATE:  29-May-2015
UWI  .          UNIQUE WELL ID:  12-115-23713-00                    
#-----------------------------------------------------------------------------
~PARAMETER INFORMATION
#MNEM.UNIT    VALUE                      DESCRIPTION
#---- -----   --------------------       ------------------------
CN   .        ADM COMPANY                :Company Name
WN   .        CCS#2                      :Well Name
FN   .        WILDCAT                    :Field Name
FL   .        LAT 39.885961              :Field Location
FL1  .        LONG 39.885961             :Field Location, Line 1
COUN .        MACON                      :County or Parish
STAT .        ILLINOIS                   :State or Province
NATI .        USA                        :Nation
DATE .        29-May-2015                :Tools Above Rotary Table Date
APIN .        12-115-23713-00            :API Well Number
SECT .        32                         :Section
TOWN .        17N                        :Township
RANG .        3E                         :Range
DMF  .        KB                         :Drilling Measured From (Name of Drilling Elevation Reference)
LMF  .        KB                         :Logging Measured From (Name of Logging Elevation Reference)
PDAT .        GL                         :Permanent Datum
ENGI .        H. DIMITROV / M. MOHAMMED  :Engineer s Name
WITN .        NICK MALKEWICZ             :Witness s Name
LATI .        39.885961 degrees          :Latitude
LONG .        -88.888044 degrees         :Longitude
LUL  .        BRADFORD                   :Logging Unit Location
LUN  .        3003                       :Logging Unit Number
RUN  .        RUN 3B                     :Run Number
SON  .                                   :Service Order Number
BHT  .DEGF     127.00000                 :Bottom Hole Temperature
BS   .IN        12.25000                 :Bit Size
MDEN .LB/G      22.11532                 :Matrix Density for Density Porosity
DFD  .LB/G       9.20000                 :Drilling Fluid Density
DFV  .S         66.00000                 :Drilling Fluid Viscosity
DFL  .C3         7.60000                 :Drilling Fluid Loss
RMFS .OHMM       0.17000                 :Resistivity of Mud Filtrate Sample
EKB  .F        691.19995                 :Elevation of Kelly Bushing
EGL  .F        675.69995                 :Elevation of Ground Level
BLI  .F       7192.00000                 :Bottom Log Interval
BSAL .PPM     15100.00000                :Borehole Salinity
FLEV .F          8.00000                 :Depth of Drilling Fluid Level to LMF (Log Measured From)
MCST .DEGF      72.50000                 :Mudcake Sample Temperature
MFST .DEGF      72.50000                 :Mud Filtrate Sample Temperature
MRT  .DEGF     127.00000                 :Maximum Recorded Temperature
MST  .DEGF      72.50000                 :Mud Sample Temperature
RMCS .OHMM       0.14000                 :Resistivity of Mud Cake Sample
RMS  .OHMM       0.20000                 :Resistivity of Mud Sample
RW   .OHMM       1.00000                 :Connate Water Resistivity
TDD  .F       7193.00049                 :Driller Total Depth
TDL  .F       7192.00000                 :Logger Total Depth
TLI  .F       5231.00000                 :Top Log Interval
HIDE .        WILDCAT                    :Header Identifier
MATR .        SAND                       :Rock Matrix for Neutron Porosity Corrections
FNUM .           1.00000                 :F-Numerator for Formation Factor Formula
FEXP .           2.00000                 :Exponent "m" for Formation Factor Formula
DFT  .        Fresh Water                :Drilling Fluid Type
DFPH .          11.50000                 :Drilling Fluid pH
MCSS .        Calculated                 :Mudcake Sample Source
MFSS .        Calculated                 :Mud Filtrate Sample Source
FD   .LB/G       8.34540                 :Fluid Density
MSS  .        Active Tank                :Mud Sample Source
OS1  .                                   :Other Services Line 1
OS2  .                                   :Other Services Line 2
OS3  .                                   :Other Services Line 3
OS4  .                                   :Other Services Line 4
OS5  .                                   :Other Services Line 5
R1   .        THANKS FOR CHOOSING SCHLUMBERGER!!! :Remarks Line 1
R2   .        All WELL PROPERTIES PROVIDED BY CLIENT :Remarks Line 2
R3   .        ALL SCALES ON PRESENTATIONS AS PER

CLIENT REQUEST :Remarks Line 3
R4   .        MATRIX  SANDSTONE          :Remarks Line 4
R5   .        MATRIX DENSITY  2.65 G/CC  :Remarks Line 5
R6   .        ALL LOGGING INTERVALS AS PER CLIENT REQUEST :Remarks Line 6
R7   .        MRT = 127 DEGF FROM THE THERMOMETER :Remarks Line 7
R8   .                                   :Remarks Line 8
TCS  .        20 00 00                   :Time Circulation Stopped
TLAB .        11 17 00                   :Time Logger At Bottom
EPD  .C3         675.699951              :Elevation of Permanent Datum above Mean Sea Level
APD  .F          15.500000               :Elevation of Depth Reference (LMF) above Permanent Datum
#-----------------------------------------------------------------------------
~CURVE INFORMATION
#MNEM.UNIT   API CODE                                  DESCRIPTION
#---- -----  --------                                  -----------------------
DEPT .F                                                :DEPTH (BOREHOLE) {F12.4}
C1   .IN                                               :Caliper 1 {F11.4}
C2   .IN                                               :Caliper 2 {F11.4}
CDF  .LBF                                              :Calibrated Downhole Force {F11.4}
CTEM .DEGF                                             :Cartridge Temperature {F11.4}
DCAL .IN                                               :Differential Caliper {F11.4}
DEVI .DEG                                              :Hole Deviation {F11.4}
DEVIM.DEG                                              :Memorized Deviation {F11.4}
DTCO .US/F                                             :Delta-T Compressional {F11.4}
DTSM .US/F                                             :Delta-T Shear {F11.4}
ED   .F                                                :East Departure {F11.4}
GR_EDTC.GAPI                                           :Gamma Ray {F11.4}
GTEM .DEGF                                             :Generalized Borehole Temperature {F11.4}
HAZI .DEG                                              :Hole Azimuth Relative to True North {F11.4}
HAZIM.DEG                                              :Hole Azimuth Relative to True North {F11.4}
ITT  .S                                                :Integrated Transit Time {F11.4}
ND   .F                                                :North Departure {F11.4}
P1AZ .DEG                                              :Pad 1 Azimuth in Horizontal Plane (0 = True North) {F11.4}
PR   .                                                 :Poisson s Ratio {F11.4}
RB   .DEG                                              :Relative Bearing {F11.4}
SDEV .DEG                                              :Sonde Deviation {F11.4}
SDEVM.DEG                                              :Sonde Deviation {F11.4}
SPHI .CFCF                                             :Sonic Porosity {F11.4}
STIT .F                                                :Stuck Tool Indicator, Total {F11.4}
TENS .LBF                                              :Cable Tension {F11.4}
#-----------------------------------------------------------------------------
# 
#      DEPT         C1         C2        CDF        CTEM       DCAL       DEVI      DEVIM       DTCO       DTSM        ED      GR_EDTC      GTEM       HAZI      HAZIM       ITT         ND        P1AZ        PR         RB        SDEV      SDEVM       SPHI       STIT       TENS
#
~A  
# ...
   6665.0000    12.9863    12.8823  1474.3895   126.0235     0.4984     1.1471     1.1743    74.2979   132.7891   -53.3879    57.2808   122.6779    97.3507   100.0512     0.0375   101.0231   279.4236     0.2721   182.0732     1.1471     1.1743     0.1539     0.0000  3334.6667
   6665.5000    12.8871    12.8823  1485.6720   126.0235     0.5098     1.1419     1.1721    74.3305   131.5726   -53.3776    61.3939   122.6820    97.4510   100.1352     0.0375   101.0214   279.1547     0.2656   181.7033     1.1419     1.1721     0.1541     0.0000  3355.3335
   6666.0000    12.7712    12.8743  1482.5417   126.0235     0.4758     1.1364     1.1706    74.4699   131.3216   -53.3673    68.7490   122.6861    97.6719   100.1559     0.0374   101.0197   278.3735     0.2630   180.7015     1.1364     1.1706     0.1550     0.0000  3337.6665
   6666.5000    12.8912    12.8224  1464.8181   126.0235     0.5098     1.1320     1.1685    74.4935   131.1973   -53.3572    74.2517   122.6902    97.7759   100.2105     0.0374   101.0181   277.4856     0.2621   179.7091     1.1320     1.1685     0.1552     0.0000  3262.6667
   6667.0000    12.9863    12.8743  1445.5566   126.0235     0.5774     1.1276     1.1672    74.9664   130.8514   -53.3468    74.4485   122.6943    97.9733   100.2389     0.0374   101.0164   276.7396     0.2557   178.7661     1.1276     1.1672     0.1581     0.0000  3274.6667
   6667.5000    12.9780    12.8823  1441.3748   126.0235     0.5774     1.1231     1.1681    75.4854   130.7084   -53.3366    73.3787   122.6984    98.2265   100.2177     0.0373   101.0148   275.7438     0.2498   177.5174     1.1231     1.1681     0.1613     0.0000  3262.3335
   6668.0000    12.9863    12.8743  1483.6326   126.0235     0.5771     1.1211     1.1684    76.0141   131.4672   -53.3265    69.5559   122.7025    98.3794   100.2658     0.0373   101.0132   274.0239     0.2489   175.6456     1.1211     1.1684     0.1646     0.0000  3416.3333
   6668.5000    12.9780    12.8743  1537.0137   126.0235     0.5774     1.1178     1.1699    76.5334   131.9025   -53.3160    60.7399   122.7066    98.6607   100.2288     0.0372   101.0115   271.5071     0.2462   172.8474     1.1178     1.1699     0.1677     0.0000  3532.3333
   6669.0000    12.9780    12.8743  1541.3920   126.0235     0.5324     1.1180     1.1711    76.6761   132.7801   -53.3056    52.9452   122.7107    99.0095   100.2497     0.0372   101.0099   269.8860     0.2498   170.8783     1.1180     1.1711     0.1685     0.0000  3375.6667
   6669.5000    12.8953    12.8344  1511.1931   126.0235     0.5095     1.1211     1.1746    76.5630   133.6512   -53.2953    48.2709   122.7148    99.2327   100.1894     0.0372   101.0084   269.4560     0.2558   170.2251     1.1211     1.1746     0.1679     0.0000  3319.0000
   6670.0000    12.7837    12.8264  1481.3312   126.0235     0.4307     1.1262     1.1774    75.9082   133.4212   -53.2848    54.4719   122.7189    99.4881   100.1152     0.0371   101.0068   269.1564     0.2607   169.6704     1.1262     1.1774     0.1639     0.0000  3363.6667
   6670.5000    12.8292    12.8264  1520.1742   126.0235     0.4195     1.1337     1.1826    75.4356   132.5831   -53.2744    58.5871   122.7230    99.5903    99.9655     0.0371   101.0052   267.6208     0.2607   168.0329     1.1337     1.1826     0.1610     0.0000  3438.6667
   6671.0000    12.8126    12.8264  1546.5374   126.0235     0.4084     1.1430     1.1876    75.4351   132.5347   -53.2638    64.6514   122.7271    99.7321    99.8089     0.0371   101.0037   265.7980     0.2604   166.0690     1.1430     1.1876     0.1610     0.0000  3447.0000
   6671.5000    12.8126    12.8224  1535.7227   126.0235     0.3855     1.1518     1.1919    74.5600   132.5468   -53.2532    63.9770   122.7312    99.7378    99.6205     0.0370   101.0021   265.9374     0.2685   166.2024     1.1518     1.1919     0.1556     0.0000  3376.6667
   6672.0000    12.7712    12.7545  1506.6277   126.0235     0.3514     1.1607     1.1996    72.3824   130.6392   -53.2427    68.0534   122.7354    99.8463    99.3891     0.0370   101.0006   265.9914     0.2785   166.1475     1.1607     1.1996     0.1415     0.0000  3359.0000
   6672.5000    12.7630    12.7945  1497.2080   126.0235     0.3632     1.1679     1.2067    71.2241   122.6827   -53.2322    69.2480   122.7394    99.8866    99.1445     0.0369   100.9991   265.5298     0.2458   165.6467     1.1679     1.2067     0.1336     0.0000  3365.6667
   6673.0000    12.7216    12.7545  1504.3451   126.0235     0.3403     1.1742     1.2137    70.7343   122.3598   -53.2215    69.5886   122.7436    99.8500    98.9246     0.0369   100.9976   264.8682     0.2490   165.0202     1.1742     1.2137     0.1302     0.0000  3385.3333
   6673.5000    12.6803    12.7466  1515.5901   126.0235     0.3403     1.1764     1.2217    70.7409   121.8142   -53.2109    65.6075   122.7477    99.8625    98.6369     0.0369   100.9961   264.2167     0.2456   164.3571     1.1764     1.2217     0.1302     0.0000  3388.6667
   6674.0000    12.6224    12.6547  1479.9071   126.0235     0.3164     1.1770     1.2281    70.7335   122.2812   -53.2002    63.4395   122.7518    99.9326    98.4090     0.0368   100.9946   263.9728     0.2486   164.0433     1.1770     1.2281     0.1302     0.0000  3288.6667
   6674.5000    12.6182    12.6348  1476.2418   126.0235     0.3065     1.1760     1.2373    71.8207   122.1007   -53.1897    61.1941   122.7559    99.9970    98.0429     0.0368   100.9931   263.7498     0.2355   163.7558     1.1760     1.2373     0.1377     0.0000  3316.6667
   6675.0000    12.6224    12.6428  1515.0288   126.0235     0.3291     1.1744     1.2460    72.0476   122.2679   -53.1792    65.1657   122.7600   100.0633    97.6257     0.0368   100.9917   262.8516     0.2340   162.7925     1.1744     1.2460     0.1392     0.0000  3462.6667
   6675.5000    12.6885    12.6987  1540.1383   126.0235     0.3176     1.1715     1.2514    73.9031   125.6260   -53.1685    65.2860   122.7641   100.1329    97.3189     0.0367   100.9903   262.1702     0.2354   162.0414     1.1715     1.2514     0.1514     0.0000  3436.0000
   6676.0000    12.7216    12.6987  1538.1176   126.0235     0.3065     1.1694     1.2591    74.3510   126.9711   -53.1576    66.8493   122.7682   100.1805    96.8859     0.0367   100.9888   261.8626     0.2391   161.6856     1.1694     1.2591     0.1543     0.0000  3376.0000
   6676.5000    12.7258    12.6907  1499.3015   126.0235     0.3062     1.1685     1.2621    75.9162   129.8450   -53.1467    61.5412   122.7723   100.2105    96.4952     0.0367   100.9874   261.7202     0.2403   161.5142     1.1685     1.2621     0.1640     0.0000  3323.3333
   6677.0000    12.7299    12.6747  1499.8940   126.0235     0.2270     1.1672     1.2672    77.3030   132.7188   -53.1360    59.6649   122.7764   100.2389    96.1511     0.0366   100.9860   261.5415     0.2433   161.3060     1.1672     1.2672     0.1722     0.0000  3442.0000
   6677.5000    12.6141    12.5230  1550.6162   126.0235     0.1590     1.1681     1.2675    78.8791   139.4759   -53.1252    57.3264   122.7805   100.2332    95.8115     0.0366   100.9846   260.2183     0.2649   159.9895     1.1681     1.2675     0.1813     0.0000  3453.0002
   6678.0000    12.5148    12.5390  1512.5029   126.0235     0.1820     1.1679     1.2707    79.1790   140.7115   -53.1144    57.0568   122.7846   100.2813    95.5176     0.0365   100.9832   259.3814     0.2683   159.1048     1.1679     1.2707     0.1830     0.0000  3346.6667
   6678.5000    12.5231    12.5071  1460.3379   126.0235     0.1935     1.1697     1.2705    80.1581   143.1712   -53.1034    57.0808   122.7887   100.2516    95.2961     0.0365   100.9818   259.3271     0.2717   159.0790     1.1697     1.2705     0.1884     0.0000  3232.3333
   6679.0000    12.5893    12.5150  1445.0878   126.0235     0.1691     1.1711     1.2736    80.8997   144.9382   -53.0923    56.4245   122.7928   100.2497    95.1765     0.0365   100.9805   258.9778     0.2737   158.7323     1.1711     1.2736     0.1924     0.0000  3340.3333
