~VERSION INFORMATION
VERS.           1.2   :CWLS Log ASCII Standard - VERSION 1.2
WRAP.           NO    :One Line per depth step
PROD.  Schlumberger   :LAS Producer
PROG.  DLIS to ASCII 2.3                               :LAS Program name and version
CREA.        2015/01/14 20:42                          :LAS Creation date {YYYY/MM/DD hh:mm}
DLIS_CREA.  2015-Jan-14 13:26                          :DLIS Creation date and time {YYYY-MMM-DD hh:mm}
SOURCE.     b1232dd5-b707-4891-82b9-d24dcc6cb5d4       :DLIS File Name
#--------------------------------------------------
~WELL INFORMATION
#MNEM.UNIT      DATA             DESCRIPTION
#---- ------ --------------   -----------------------------
STRT .F      -8.0000         :START DEPTH     
STOP .F      352.5000        :STOP DEPTH     
STEP .F       0.5000         :STEP       
NULL .          -999.25      :NULL VALUE
COMP .                 COMPANY:  ADM Company                        
WELL .                    WELL:  CCS#2                              
FLD  .                   FIELD:  Wildcat                            
LOC  .                LOCATION:  Latitude: 39.885961                
CNTY .                  COUNTY:  Macon                              
STAT .                   STATE:  Illinois                           
CTRY .                 COUNTRY:  USA                                
SRVC .         SERVICE COMPANY:  Schlumberger                       
LATI .DEG             LATITUDE:  39° 53' 9.46" N                    
LONG .DEG            LONGITUDE:  88° 53' 16.959" W                  
API  .              API NUMBER:  12-115-23713-00                    
DATE .                LOG DATE:  13-Jan-2015
UWI  .          UNIQUE WELL ID:                                     
#-----------------------------------------------------------------------------
~PARAMETER INFORMATION
#MNEM.UNIT    VALUE                      DESCRIPTION
#---- -----   --------------------       ------------------------
CN   .        ADM Company                :Company Name
WN   .        CCS#2                      :Well Name
FN   .        Wildcat                    :Field Name
FL   .        Latitude  39.885961        :Field Location
FL1  .        Longitude  -88.888044      :Field Location, Line 1
COUN .        Macon                      :County or Parish
STAT .        Illinois                   :State or Province
NATI .        USA                        :Nation
DATE .        13-Jan-2015                :Tools Above Rotary Table Date
APIN .        12-115-23713-00            :API Well Number
SECT .        32                         :Section
TOWN .        17N                        :Township
RANG .        3E                         :Range
DMF  .        KB                         :Drilling Measured From (Name of Drilling Elevation Reference)
LMF  .        KB                         :Logging Measured From (Name of Logging Elevation Reference)
PDAT .        GL                         :Permanent Datum
ENGI .        Devin Arnold               :Engineer s Name
WITN .        Nick Malkewicz             :Witness s Name
LATI .        39° 53' 9.46  N            :Latitude
LONG .        88° 53' 16.959  W          :Longitude
LUL  .        Bradford                   :Logging Unit Location
LUN  .        3095                       :Logging Unit Number
RUN  .        2                          :Run Number
SON  .        D71E-00006                 :Service Order Number
BHT  .DEGF      58.00000                 :Bottom Hole Temperature
BS   .IN        26.00000                 :Bit Size
MDEN .G/C3       2.71000                 :Matrix Density for Density Porosity
DFD  .LB/G      10.10000                 :Drilling Fluid Density
DFV  .S       -999.25000                 :Drilling Fluid Viscosity
DFL  .C3      -999.25000                 :Drilling Fluid Loss
RMFS .OHMM       1.23200                 :Resistivity of Mud Filtrate Sample
EKB  .F        691.19995                 :Elevation of Kelly Bushing
EGL  .F        675.69995                 :Elevation of Ground Level
BLI  .F        345.00000                 :Bottom Log Interval
BSAL .PPM        0.00000                 :Borehole Salinity
FLEV .F          8.00000                 :Depth of Drilling Fluid Level to LMF (Log Measured From)
MCST .DEGF      42.80000                 :Mudcake Sample Temperature
MFST .DEGF      42.80000                 :Mud Filtrate Sample Temperature
MRT  .DEGF      58.00000                 :Maximum Recorded Temperature
MST  .DEGF      42.80000                 :Mud Sample Temperature
RMCS .OHMM       1.84800                 :Resistivity of Mud Cake Sample
RMS  .OHMM       1.54000                 :Resistivity of Mud Sample
RW   .OHMM       1.00000                 :Connate Water Resistivity
TDD  .F        349.00000                 :Driller Total Depth
TDL  .F        349.00000                 :Logger Total Depth
TLI  .F         50.00000                 :Top Log Interval
HIDE .        Wildcat                    :Header Identifier
MATR .        LIME                       :Rock Matrix for Neutron Porosity Corrections
FNUM .           1.00000                 :F-Numerator for Formation Factor Formula
FEXP .           2.00000                 :Exponent "m" for Formation Factor Formula
DFT  .        Fresh Mud                  :Drilling Fluid Type
DFPH .        -999.25000                 :Drilling Fluid pH
MCSS .        Calculated                 :Mudcake Sample Source
MFSS .        Calculated                 :Mud Filtrate Sample Source
FD   .G/C3       1.00000                 :Fluid Density
MSS  .        Active Tank                :Mud Sample Source
OS1  .                                   :Other Services Line 1
OS2  .                                   :Other Services Line 2
OS3  .                                   :Other Services Line 3
OS4  .                                   :Other Services Line 4
OS5  .                                   :Other Services Line 5
R1   .        Matrix Density  Limestone. :Remarks Line 1
R2   .        Mud Sample taken on location. :Remarks Line 2
R3   .        Presentations as per client request. :Remarks Line 3
R4   .        No Chemical Sources ran due to possible potable water zones. :Remarks Line 4
R5   .        Bottom Hole Temperature taken from GM2 temperature log provided by the client. 58degF :Remarks Line 5
R6   .                                   :Remarks Line 6
R7   .                                   :Remarks Line 7
R8   .                                   :Remarks Line 8
TCS  .        19 45 00                   :Time Circulation Stopped
TLAB .        03 30 00                   :Time Logger At Bottom
EPD  .C3         675.699951              :Elevation of Permanent Datum above Mean Sea Level
APD  .F          15.500000               :Elevation of Depth Reference (LMF) above Permanent Datum
#-----------------------------------------------------------------------------
~CURVE INFORMATION
#MNEM.UNIT   API CODE                                  DESCRIPTION
#---- -----  --------                                  -----------------------
DEPT .F                                                :DEPTH (BOREHOLE) {F12.4}
CDF  .LBF                                              :Calibrated Downhole Force {F11.4}
CTEM .DEGF                                             :Cartridge Temperature {F11.4}
DCAL .IN                                               :Differential Caliper {F11.4}
DT   .US/F                                             :Delta-T (also called Slowness or Interval Transit Time) {F11.4}
ED   .F                                                :East Departure {F11.4}
GR_EDTC.GAPI                                           :Gamma Ray {F11.4}
GTEM .DEGF                                             :Generalized Borehole Temperature {F11.4}
HAZI .DEG                                              :Hole Azimuth Relative to True North {F11.4}
HAZIM.DEG                                              :Memorized Hole Azimuth {F11.4}
ITT  .S                                                :Integrated Transit Time {F11.4}
ND   .F                                                :North Departure {F11.4}
P1AZ .DEG                                              :Pad 1 Azimuth in Horizontal Plane (0 = True North) {F11.4}
RB   .DEG                                              :Relative Bearing {F11.4}
SDEV .DEG                                              :Sonde Deviation {F11.4}
SDEVM.DEG                                              :Memorized Sonde Deviation {F11.4}
SPHI .CFCF                                             :Sonic Porosity {F11.4}
STIT .F                                                :Stuck Tool Indicator, Total {F11.4}
TENS .LBF                                              :Cable Tension {F11.4}
#-----------------------------------------------------------------------------
# 
#      DEPT        CDF        CTEM       DCAL        DT         ED      GR_EDTC      GTEM       HAZI      HAZIM       ITT         ND        P1AZ        RB        SDEV      SDEVM       SPHI       STIT       TENS
#
~A  
# ...
    334.0000   661.7514    69.8918     0.0000   106.2719     0.4571    69.0697    57.8500    99.6696  -999.2500     0.0014    -0.1573    59.1331   319.4907     2.5230  -999.2500     0.3780     0.0000   981.6000
    334.5000   664.0266    69.8918     0.0000    88.4941     0.4571    69.0697    57.8550   100.0993  -999.2500     0.0013    -0.1573    59.9885   319.9167     2.5181  -999.2500     0.2443     0.0000   999.8572
    335.0000   660.7797    69.8918     0.0000    84.2819     0.4571    69.0697    57.8600   100.5878  -999.2500     0.0013    -0.1573    60.7973   320.2365     2.5129  -999.2500     0.2126     0.0000   910.6667
    335.5000   666.3340    69.8918     0.0000    89.2034     0.4571    69.0697    57.8650   100.9772  -999.2500     0.0013    -0.1573    61.2599   320.3100     2.5085  -999.2500     0.2496     0.0000   923.1334
    336.0000   660.8745    69.8918     0.0000   102.8965     0.4571    69.0697    57.8700   101.4944  -999.2500     0.0012    -0.1573    61.8608   320.3934     2.5029  -999.2500     0.3526     0.0000   898.4286
    336.5000   661.7988    69.8918     0.0000   117.5427     0.4571    69.0697    57.8750   101.9751  -999.2500     0.0012    -0.1573    62.9679   321.0193     2.4970  -999.2500     0.4627     0.0000   972.1334
    337.0000   661.4434    69.8918     0.0000   119.9727     0.4571    69.0697    57.8800   102.3920  -999.2500     0.0011    -0.1573    63.1410   320.7755     2.4918  -999.2500     0.4810     0.0000   916.2858
    337.5000   660.7797    69.8918     0.0000   119.2517     0.4571    69.0697    57.8850   102.6394  -999.2500     0.0010    -0.1573    63.3480   320.7350     2.4880  -999.2500     0.4756     0.0000   939.7333
    338.0000   660.1128    69.8918     0.0000   119.6428     0.4571    69.0697    57.8900   102.8623  -999.2500     0.0010    -0.1573    63.1600   320.3241     2.4840  -999.2500     0.4785     0.0000   938.4286
    338.5000   660.8035    69.8918     0.0000   122.8559     0.4571    69.0697    57.8950   102.9455  -999.2500     0.0009    -0.1573    63.8013   320.8821     2.4806  -999.2500     0.5027     0.0000   977.4667
    339.0000   662.0358    69.8918     0.0000   122.9878     0.4571    69.0697    57.9000   102.8818  -999.2500     0.0009    -0.1573    64.5857   321.7300     2.4785  -999.2500     0.5037     0.0000   938.5333
    339.5000   661.4907    69.8918     0.0000   122.9655     0.4571    69.0697    57.9050   102.6796  -999.2500     0.0008    -0.1573    63.8816   321.2280     2.4773  -999.2500     0.5035     0.0000   948.8572
    340.0000   660.8508    69.8918     0.0000   124.1214     0.4571    69.0697    57.9100   102.3780  -999.2500     0.0007    -0.1573    62.7404   320.3889     2.4769  -999.2500     0.5122     0.0000   976.7334
    340.5000   660.8271    69.8918     0.0000   124.9225     0.4571    69.0697    57.9150   102.1126  -999.2500     0.0007    -0.1573    62.1614   320.0753     2.4769  -999.2500     0.5182     0.0000   979.6000
    341.0000   662.2299    69.8918     0.0000   125.0294     0.4571    69.0697    57.9200   101.7261  -999.2500     0.0006    -0.1573    61.5608   319.8613     2.4770  -999.2500     0.5190     0.0000   981.5625
    341.5000   660.2080    69.8918     0.0000   126.3021     0.4571    69.0697    57.9250   101.3645  -999.2500     0.0006    -0.1573    61.2146   319.8766     2.4768  -999.2500     0.5286     0.0000   918.7333
    342.0000   662.7231    69.8918     0.0000   127.4594     0.4571    69.0697    57.9300   101.0601  -999.2500     0.0005    -0.1573    61.2600   320.2260     2.4775  -999.2500     0.5373     0.0000   964.6667
    342.5000   660.7856    69.8918     0.0000   128.5524     0.4571    69.0697    57.9350   100.9679  -999.2500     0.0004    -0.1573    61.2884   320.3470     2.4762  -999.2500     0.5455     0.0000   947.7333
    343.0000   660.8745    69.8918     0.0000   122.7787     0.4571    69.0697    57.9400   100.8608  -999.2500     0.0004    -0.1573    60.8558   320.0213     2.4752  -999.2500     0.5021     0.0000   967.6874
    343.5000   661.7988    69.8918     0.0000   113.5303     0.4571    69.0697    57.9450   100.8257  -999.2500     0.0003    -0.1573    60.8445   320.0450     2.4738  -999.2500     0.4326     0.0000   926.0000
    344.0000   661.4078    69.8918     0.0000   102.0458     0.4571    69.0697    57.9500   100.8517  -999.2500     0.0002    -0.1573    61.3505   320.5253     2.4720  -999.2500     0.3462     0.0000   969.1250
    344.5000   662.6075    69.8918     0.0000    96.1337     0.4571    69.0697    57.9550   100.9124  -999.2500     0.0002    -0.1573    62.0300   321.1437     2.4702  -999.2500     0.3018     0.0000   949.0000
    345.0000   664.1407    69.8918     0.0000    96.7893     0.4571    69.0697    57.9600   100.9787  -999.2500     0.0001    -0.1573    62.7471   321.7943     2.4684  -999.2500     0.3067     0.0000   971.6250
    345.5000   663.5408    69.8918     0.0000    96.7555     0.4571    69.0697    57.9650   100.9812  -999.2500     0.0001    -0.1573    63.3562   322.4009     2.4675  -999.2500     0.3064     0.0000   950.2354
    346.0000   662.1583    69.8918     0.0000    96.7929     0.4571    69.0697    57.9700   100.9910  -999.2500     0.0000    -0.1573    62.9204   321.9554     2.4667  -999.2500     0.3067     0.0000   969.5883
    346.5000   663.0912    69.8918     0.0000    96.7929     0.4571    69.0697    57.9750   100.9664  -999.2500     0.0000    -0.1573    62.5570   321.6165     2.4661  -999.2500     0.3067     0.0000   997.2354
    347.0000   663.1091    69.8918     0.0000    96.7929     0.4571    69.0697    57.9800   100.8572  -999.2500     0.0000    -0.1573    62.2325   321.4011     2.4664  -999.2500     0.3067     0.0000   966.2000
    347.5000   662.1949    69.8918     0.0000    96.7929     0.4571    69.0697    57.9850   100.7540  -999.2500     0.0000    -0.1573    62.3613   321.6333     2.4670  -999.2500     0.3067     0.0000   985.7144
    348.0000   663.8801    69.8918     0.0000    96.7929     0.4571    69.0697    57.9900   100.6769  -999.2500     0.0000    -0.1573    62.4845   321.8334     2.4665  -999.2500     0.3067     0.0000   941.7728
    348.5000   663.1213    69.8918     0.0000    96.7929     0.4571    69.0697    57.9950   100.3586  -999.2500     0.0000    -0.1573    62.1570   321.8245     2.4704  -999.2500     0.3067     0.0000   947.5000
    349.0000   662.2438    69.8918     0.0000    96.7929     0.4571    69.0697    58.0000   100.3611  -999.2500     0.0000    -0.1573    62.3877   322.0522     2.4694  -999.2500     0.3067     0.0000   957.8890
    349.5000   663.0075    69.8918     0.0000    96.7929     0.4571    69.0697    58.0050   100.2641  -999.2500     0.0000    -0.1573    62.4252   322.1870     2.4743  -999.2500     0.3067     0.0000   977.6334
    350.0000   662.1871    69.8918     0.0000    96.7929     0.4571    69.0697    58.0100   100.0390  -999.2500     0.0000    -0.1573    62.0896   322.0764     2.4664  -999.2500     0.3067     0.0000   901.9474
    350.5000   663.9366    69.8918     0.0000    96.7929     0.4571    69.0697    58.0150    99.8915  -999.2500     0.0000    -0.1573    62.0665   322.2007     2.4705  -999.2500     0.3067     0.0000   947.5000
    351.0000   591.4098    69.8918     0.0000    96.7929     0.4571    69.0697    58.0200    99.8498  -999.2500     0.0000    -0.1573    62.2231   322.3991     2.4767  -999.2500     0.3067     0.0000   840.7727
    351.5000   252.7431    69.8918     0.0000    96.7929     0.4571    69.0697    58.0250    99.3425  -999.2500     0.0000    -0.1573    61.9529   322.6363     2.4708  -999.2500     0.3067     0.0000   408.4250
    352.0000    87.0879    69.8918     0.0000    96.7929     0.4571    69.0697    58.0300    99.1085  -999.2500     0.0000    -0.1573    61.8534   322.7708     2.4795  -999.2500     0.3067     0.0000   188.8919
    352.5000    70.3890    69.8918     0.0000    96.7929     0.4571    69.0697    58.0300    99.1503  -999.2500     0.0000    -0.1573    61.9152   322.7907     2.4800  -999.2500     0.3067     0.0000   198.0500
