~VERSION INFORMATION
VERS.           1.2   :CWLS Log ASCII Standard - VERSION 1.2
WRAP.           NO    :One Line per depth step
PROD.  Schlumberger   :LAS Producer
PROG.  DLIS to ASCII 2.3                               :LAS Program name and version
CREA.        2015/01/14 20:43                          :LAS Creation date {YYYY/MM/DD hh:mm}
DLIS_CREA.  2015-Jan-14 13:25                          :DLIS Creation date and time {YYYY-MMM-DD hh:mm}
SOURCE.     d5fbb1e7-1f44-4e43-b8fb-7fdeb49dde7f       :DLIS File Name
#--------------------------------------------------
~WELL INFORMATION
#MNEM.UNIT      DATA             DESCRIPTION
#---- ------ --------------   -----------------------------
STRT .F       8.0000         :START DEPTH     
STOP .F      353.0000        :STOP DEPTH     
STEP .F       0.5000         :STEP       
NULL .          -999.25      :NULL VALUE
COMP .                 COMPANY:  ADM Company                        
WELL .                    WELL:  CCS#2                              
FLD  .                   FIELD:  Wildcat                            
LOC  .                LOCATION:  Latitude: 39.885961                
CNTY .                  COUNTY:  Macon                              
STAT .                   STATE:  Illinois                           
CTRY .                 COUNTRY:  USA                                
SRVC .         SERVICE COMPANY:  Schlumberger                       
LATI .DEG             LATITUDE:  39° 53' 9.46" N                    
LONG .DEG            LONGITUDE:  88° 53' 16.959" W                  
API  .              API NUMBER:  12-115-23713-00                    
DATE .                LOG DATE:  12-Jan-2015
UWI  .          UNIQUE WELL ID:                                     
#-----------------------------------------------------------------------------
~PARAMETER INFORMATION
#MNEM.UNIT    VALUE                      DESCRIPTION
#---- -----   --------------------       ------------------------
CN   .        ADM Company                :Company Name
WN   .        CCS#2                      :Well Name
FN   .        Wildcat                    :Field Name
FL   .        Latitude  39.885961        :Field Location
FL1  .        Longitude  -88.888044      :Field Location, Line 1
COUN .        Macon                      :County or Parish
STAT .        Illinois                   :State or Province
NATI .        USA                        :Nation
DATE .        12-Jan-2015                :Tools Above Rotary Table Date
APIN .        12-115-23713-00            :API Well Number
SECT .        32                         :Section
TOWN .        17N                        :Township
RANG .        3E                         :Range
DMF  .        KB                         :Drilling Measured From (Name of Drilling Elevation Reference)
LMF  .        KB                         :Logging Measured From (Name of Logging Elevation Reference)
PDAT .        GL                         :Permanent Datum
ENGI .        Devin Arnold               :Engineer s Name
WITN .        Nick Malkewicz             :Witness s Name
LATI .        39° 53' 9.46  N            :Latitude
LONG .        88° 53' 16.959  W          :Longitude
LUL  .        Bradford                   :Logging Unit Location
LUN  .        3095                       :Logging Unit Number
RUN  .        1                          :Run Number
SON  .        D71E-00006                 :Service Order Number
BHT  .DEGF      58.00000                 :Bottom Hole Temperature
BS   .IN        26.00000                 :Bit Size
MDEN .G/C3       2.71000                 :Matrix Density for Density Porosity
DFD  .LB/G      10.10000                 :Drilling Fluid Density
DFV  .S         60.00000                 :Drilling Fluid Viscosity
DFL  .C3      -999.25000                 :Drilling Fluid Loss
RMFS .OHMM       1.23200                 :Resistivity of Mud Filtrate Sample
EKB  .F        691.19995                 :Elevation of Kelly Bushing
EGL  .F        675.69995                 :Elevation of Ground Level
BLI  .F        342.00000                 :Bottom Log Interval
BSAL .PPM        0.00000                 :Borehole Salinity
FLEV .F          8.00000                 :Depth of Drilling Fluid Level to LMF (Log Measured From)
MCST .DEGF      42.80000                 :Mudcake Sample Temperature
MFST .DEGF      42.80000                 :Mud Filtrate Sample Temperature
MRT  .DEGF      58.00000                 :Maximum Recorded Temperature
MST  .DEGF      42.80000                 :Mud Sample Temperature
RMCS .OHMM       1.84800                 :Resistivity of Mud Cake Sample
RMS  .OHMM       1.54000                 :Resistivity of Mud Sample
RW   .OHMM       1.00000                 :Connate Water Resistivity
TDD  .F        349.00000                 :Driller Total Depth
TDL  .F        349.00000                 :Logger Total Depth
TLI  .F         50.00000                 :Top Log Interval
HIDE .        Wildcat                    :Header Identifier
MATR .        LIME                       :Rock Matrix for Neutron Porosity Corrections
FNUM .           1.00000                 :F-Numerator for Formation Factor Formula
FEXP .           2.00000                 :Exponent "m" for Formation Factor Formula
DFT  .        Fresh Mud                  :Drilling Fluid Type
DFPH .        -999.25000                 :Drilling Fluid pH
MCSS .        Calculated                 :Mudcake Sample Source
MFSS .        Calculated                 :Mud Filtrate Sample Source
FD   .G/C3       1.00000                 :Fluid Density
MSS  .        Active Tank                :Mud Sample Source
OS1  .                                   :Other Services Line 1
OS2  .                                   :Other Services Line 2
OS3  .                                   :Other Services Line 3
OS4  .                                   :Other Services Line 4
OS5  .                                   :Other Services Line 5
R1   .        Matrix Density  Limestone. :Remarks Line 1
R2   .        Mud Sample taken on location. :Remarks Line 2
R3   .        Presentations as per client request. :Remarks Line 3
R4   .        No Chemical Sources ran due to possible potable water zones. :Remarks Line 4
R5   .        Bottom Hole Temperature taken from GM2 temperature log provided by the client. 58degF :Remarks Line 5
R6   .                                   :Remarks Line 6
R7   .                                   :Remarks Line 7
R8   .        APS ran outside max bit size range of 20in causing faulty data. :Remarks Line 8
TCS  .        19 45 00                   :Time Circulation Stopped
TLAB .        01 15 00                   :Time Logger At Bottom
NMT  .        NOBARITE                   :HRDD Mud Type for Nuclear Devices
EPD  .C3         675.699951              :Elevation of Permanent Datum above Mean Sea Level
APD  .F          15.500000               :Elevation of Depth Reference (LMF) above Permanent Datum
#-----------------------------------------------------------------------------
~CURVE INFORMATION
#MNEM.UNIT   API CODE                                  DESCRIPTION
#---- -----  --------                                  -----------------------
DEPT .F                                                :DEPTH (BOREHOLE) {F12.4}
AF10 .OHMM                                             :Array Induction Four Foot Resistivity A10 {F11.4}
AF20 .OHMM                                             :Array Induction Four Foot Resistivity A20 {F11.4}
AF30 .OHMM                                             :Array Induction Four Foot Resistivity A30 {F11.4}
AF60 .OHMM                                             :Array Induction Four Foot Resistivity A60 {F11.4}
AF90 .OHMM                                             :Array Induction Four Foot Resistivity A90 {F11.4}
AO10 .OHMM                                             :Array Induction One Foot Resistivity A10 {F11.4}
AO20 .OHMM                                             :Array Induction One Foot Resistivity A20 {F11.4}
AO30 .OHMM                                             :Array Induction One Foot Resistivity A30 {F11.4}
AO60 .OHMM                                             :Array Induction One Foot Resistivity A60 {F11.4}
AO90 .OHMM                                             :Array Induction One Foot Resistivity A90 {F11.4}
AT10 .OHMM                                             :Array Induction Two Foot Resistivity A10 {F11.4}
AT20 .OHMM                                             :Array Induction Two Foot Resistivity A20 {F11.4}
AT30 .OHMM                                             :Array Induction Two Foot Resistivity A30 {F11.4}
AT60 .OHMM                                             :Array Induction Two Foot Resistivity A60 {F11.4}
AT90 .OHMM                                             :Array Induction Two Foot Resistivity A90 {F11.4}
AFEC .HZ                                               :Far Detector Count Rate {F11.4}
ANEC .HZ                                               :Near Detector Count Rate {F11.4}
AORT .OHMM                                             :Array Induction One Foot Rt {F11.4}
AORX .OHMM                                             :Array Induction One Foot Rxo {F11.4}
APDC .CFCF                                             :Near/Array Corrected Dolomite Porosity {F11.4}
APLC .PU                                               :Near/Array Corrected Limestone Porosity {F11.4}
APSC .CFCF                                             :Near/Array Corrected Sandstone Porosity {F11.4}
CDF  .LBF                                              :Calibrated Downhole Force {F11.4}
CTEM .DEGF                                             :Cartridge Temperature {F11.4}
DCAL .IN                                               :Differential Caliper {F11.4}
ED   .F                                                :East Departure {F11.4}
FPLC .CFCF                                             :Near/Far Corrected Limestone Porosity {F11.4}
GR_EDTC.GAPI                                           :Gamma Ray {F11.4}
GTEM .DEGF                                             :Generalized Borehole Temperature {F11.4}
HASC .CFCF                                             :APS High Resolution Near/Array Corrected Sandstone Porosity {F11.4}
HSIG .CU                                               :APS High Resolution Formation Capture Cross Section {F11.4}
HSTO .IN                                               :APS High Resolution Effective Standoff in Limestone {F11.4}
ND   .F                                                :North Departure {F11.4}
QSGF .                                                 :Quality of Formation Sigma {F11.4}
SIGF .CU                                               :Formation Capture Cross Section {F11.4}
SP   .MV                                               :Spontaneous Potential {F11.4}
SPAR .MV                                               :SP, Armor Return Compensated {F11.4}
STIT .F                                                :Stuck Tool Indicator, Total {F11.4}
STOF .IN                                               :Effective Standoff in Limestone {F11.4}
STPC .CFCF                                             :Corrected Standoff Porosity {F11.4}
TENS .LBF                                              :Cable Tension {F11.4}
#-----------------------------------------------------------------------------
# 
#      DEPT        AF10       AF20       AF30       AF60       AF90       AO10       AO20       AO30       AO60       AO90       AT10       AT20       AT30       AT60       AT90       AFEC       ANEC       AORT       AORX       APDC       APLC       APSC       CDF        CTEM       DCAL        ED        FPLC     GR_EDTC      GTEM       HASC       HSIG       HSTO        ND        QSGF       SIGF        SP        SPAR       STIT       STOF       STPC       TENS
#
~A  
# ...
    233.0000     8.7873     9.6352    10.3928    11.8639    12.1803     9.3362    10.4225    11.5097    13.4436    13.7221     9.2499    10.0953    10.9240    12.3607    12.8480   403.5000  2503.4285    14.1372     9.2007     0.7180    72.1575     0.7283   631.7744    88.4706     0.0000    -0.1341     0.5490    62.3209    56.8400     0.6999    28.1991     0.5329    -0.1294     0.2940    28.6601  -210.9514  -209.8568     0.0000     0.3955     0.7885   844.9286
    233.5000     8.5527     9.3310    10.0524    11.4619    11.7140     9.3063     9.8007    10.7071    12.8107    13.0636     9.0231     9.7339    10.5174    11.9627    12.4630   398.8571  2453.1428    13.5212     8.8811     0.7199    72.3476     0.7302   629.9333    88.4706     0.0000    -0.1311     0.5579    62.1050    56.8450     0.7768    28.9142     0.1363    -0.1325     0.2950    28.7842  -210.7299  -209.3138     0.0000     0.4026     0.7903   920.4815
    234.0000     8.1746     8.8882     9.5552    10.8441    11.0792     8.3919     9.1225     9.9011    11.5628    11.7700     8.3095     9.0040     9.7341    10.9197    11.4562   390.8571  2466.0000    12.2153     8.2842     0.7527    75.5887     0.7613   632.6631    88.4706     0.0000    -0.1281     0.5559    61.9446    56.8500     0.7965    28.6968     0.0500    -0.1354     0.2322    28.6771  -209.5833  -208.5512     0.0000     0.2501     0.7919   886.8928
    234.5000     7.7498     8.3791     8.9652    10.1297    10.3673     7.7400     8.4718     9.0468    10.3677    10.5342     7.7967     8.4174     8.9875    10.0541    10.4869   409.1429  2412.5715    10.9414     7.7315     0.7061    70.9858     0.7171   632.3583    88.4706     0.0000    -0.1251     0.5723    61.7122    56.8550     0.7247    28.8273     0.4371    -0.1384     0.3568    27.6303  -208.0960  -207.6891     0.0000     0.4701     0.7907   900.5556
    235.0000     7.3419     7.8942     8.3973     9.4236     9.6110     7.3988     7.8652     8.4104     9.4113     9.5471     7.3380     7.8891     8.4011     9.3663     9.7115   382.2857  2467.2000     9.8508     7.3082     0.6780    68.2071     0.6905   634.5421    88.4706     0.0000    -0.1220     0.4571    62.7977    56.8600     0.7017    26.8791     0.5493    -0.1413     0.4460    27.5726  -206.8415  -206.8649     0.0000     0.5996     0.7917   896.8572
    235.5000     6.9643     7.4590     7.8892     8.8229     9.0017     7.0086     7.4556     7.8179     8.7380     8.8526     6.9680     7.4609     7.8952     8.7307     9.0031   446.0000  2418.8572     9.0951     6.8777     0.6915    69.5450     0.7033   635.4563    88.4706     0.0000    -0.1190     0.4972    64.8563    56.8650     0.6792    24.5670     0.6291    -0.1441     0.4300    26.7045  -205.4005  -206.0150     0.0000     0.5468     0.7920   884.6296
    236.0000     6.6305     7.0794     7.4493     8.2709     8.4188     6.4717     7.0369     7.2115     8.0711     8.1671     6.5634     7.0068     7.3883     8.2227     8.3792   388.5714  2420.5715     8.2729     6.4727     0.7128    71.6467     0.7234   634.4025    88.4706     0.0000    -0.1159     0.4979    67.1603    56.8700     0.7360    25.6716     0.3832    -0.1469     0.3567    26.4955  -204.1204  -205.1581     0.0000     0.4263     0.7892   894.4074
    236.5000     6.3529     6.7575     7.0798     7.8026     7.9185     6.1381     6.5561     6.7295     7.2236     7.2983     6.2428     6.6571     6.9623     7.5932     7.7454   390.8571  2488.5000     7.4442     6.0669     0.7274    73.0844     0.7373   628.5240    88.4706     0.0000    -0.1127     0.6101    67.5325    56.8750     0.7326    26.0902     0.1091    -0.1497     0.3162    26.5604  -203.1183  -204.3606     0.0000     0.3540     0.7889   849.8929
    237.0000     6.1282     6.4955     6.7814     7.4392     7.5708     6.0680     6.4394     6.6274     7.1004     7.1710     6.0575     6.4422     6.7290     7.3322     7.5115   392.0000  2515.4285     7.2670     6.0567     0.7534    75.6538     0.7620   629.1843    88.4706     0.0000    -0.1096     0.6536    68.0481    56.8800     0.8313    25.9481    -0.1611    -0.1524     0.2556    26.9436  -202.6574  -203.6926     0.0000     0.2298     0.7899   830.8519
    237.5000     5.9595     6.3035     6.5610     7.1888     7.3063     5.9453     6.3174     6.4787     6.9700     7.0369     5.8955     6.2551     6.4925     7.0507     7.2206   373.7143  2434.8572     7.0456     5.8882     0.7820    78.4723     0.7891   630.7492    88.4706     0.0000    -0.1064     0.7429    66.4322    56.8850     0.8265    26.5787    -0.1232    -0.1551     0.2081    27.2309  -202.0903  -203.0487     0.0000     0.0701     0.7891   855.2222
    238.0000     5.8655     6.1906     6.4254     7.0265     7.1342     5.7056     5.9638     6.1545     6.6345     6.6929     5.7287     6.0477     6.2591     6.7760     6.9580   365.5000  2422.2856     6.7754     5.7056     0.7933    79.5921     0.8000   629.3366    88.4706     0.0000    -0.1032     0.6857    65.8712    56.8900     0.7493    26.6228     0.1187    -0.1577     0.1977    27.4244  -201.8727  -202.4878     0.0000     0.0158     0.7901   800.7143
    238.5000     5.8496     6.1591     6.3807     6.9725     7.0830     5.5593     5.8847     6.0749     6.5755     6.6306     5.6521     5.9270     6.1180     6.6157     6.8190   411.4286  2440.5715     6.7935     5.6297     0.7765    77.9289     0.7839   631.1014    88.4706     0.0000    -0.0999     0.6512    65.1245    56.8950     0.7599    28.1882     0.2606    -0.1603     0.2158    27.4217  -201.8929  -202.0323     0.0000     0.1238     0.7922   831.0741
    239.0000     5.9219     6.2125     6.4280     7.0294     7.1476     5.6225     5.8830     6.0762     6.6044     6.6580     5.7362     5.9986     6.2054     6.7191     6.9477   380.5714  2502.2856     6.8603     5.6276     0.8207    82.2924     0.8261   631.2411    88.4706     0.0000    -0.0966     0.5885    63.4169    56.9000     0.8122    28.2048    -0.0439    -0.1629     0.1822    27.7421  -201.7778  -201.6489     0.0000    -0.1187     0.7917   863.9643
    239.5000     6.0751     6.3434     6.5600     7.1906     7.3132     6.0688     6.3285     6.5181     7.1443     7.2023     6.0228     6.2378     6.4471     7.0408     7.3195   384.0000  2487.5000     7.4000     5.9762     0.8170    81.9250     0.8225   630.4031    88.4706     0.0000    -0.0933     0.6326    61.5502    56.9050     0.8040    26.5125     0.0053    -0.1654     0.1927    27.0911  -201.5764  -201.3165     0.0000    -0.0985     0.7919   840.1852
    240.0000     6.2476     6.5140     6.7383     7.4212     7.5425     6.2834     6.4698     6.6978     7.4097     7.4674     6.2871     6.5280     6.7619     7.3954     7.7071   400.5714  2414.2856     7.8140     6.2162     0.7807    78.3490     0.7880   631.8251    88.4706     0.0000    -0.0901     0.5780    59.5209    56.9100     0.7525    25.5607     0.2800    -0.1678     0.2214    26.6652  -201.5625  -201.0112     0.0000     0.0920     0.7911   926.0741
    240.5000     6.4370     6.7024     6.9380     7.6488     7.7674     6.6177     6.8270     7.1485     8.0821     8.1451     6.5933     6.8348     7.1065     7.7874     8.1544   402.2857  2461.1428     8.3839     6.5218     0.6958    69.9682     0.7073   629.5651    88.4706     0.0000    -0.0867     0.5700    61.8443    56.9150     0.7226    24.6086     0.4349    -0.1702     0.4087    26.4566  -201.4329  -200.7201     0.0000     0.5075     0.7897   881.8929
    241.0000     6.5822     6.8256     7.0691     7.7922     7.9153     6.8560     7.0441     7.3976     8.2429     8.3056     6.8661     7.0681     7.3293     8.0705     8.4213   386.5000  2448.0000     8.4530     6.7528     0.6695    67.3700     0.6825   630.4539    88.4706     0.0000    -0.0834     0.5536    62.0546    56.9200     0.7024    25.6405     0.5266    -0.1726     0.4996    26.6207  -200.9576  -200.3240     0.0000     0.6350     0.7919   911.8148
    241.5000     6.6002     6.8332     7.0763     7.7861     7.9088     7.0149     7.2798     7.5776     8.3670     8.4279     6.9246     7.1807     7.4623     8.2089     8.5523   402.0000  2478.2856     8.3459     6.9207     0.7222    72.5713     0.7323   631.6346    88.4706     0.0000    -0.0800     0.6456    66.4908    56.9250     0.7223    27.7848     0.4252    -0.1749     0.3368    26.9484  -200.5648  -199.9053     0.0000     0.4089     0.7922   894.8214
