~VERSION INFORMATION
VERS.           1.2   :CWLS Log ASCII Standard - VERSION 1.2
WRAP.           NO    :One Line per depth step
PROD.  Schlumberger   :LAS Producer
PROG.  DLIS to ASCII 2.3                               :LAS Program name and version
CREA.        2015/01/14 20:42                          :LAS Creation date {YYYY/MM/DD hh:mm}
DLIS_CREA.  2015-Jan-14 13:26                          :DLIS Creation date and time {YYYY-MMM-DD hh:mm}
SOURCE.     b1232dd5-b707-4891-82b9-d24dcc6cb5d4       :DLIS File Name
#--------------------------------------------------
~WELL INFORMATION
#MNEM.UNIT      DATA             DESCRIPTION
#---- ------ --------------   -----------------------------
STRT .F      -8.0000         :START DEPTH     
STOP .F      352.5000        :STOP DEPTH     
STEP .F       0.5000         :STEP       
NULL .          -999.25      :NULL VALUE
COMP .                 COMPANY:  ADM Company                        
WELL .                    WELL:  CCS#2                              
FLD  .                   FIELD:  Wildcat                            
LOC  .                LOCATION:  Latitude: 39.885961                
CNTY .                  COUNTY:  Macon                              
STAT .                   STATE:  Illinois                           
CTRY .                 COUNTRY:  USA                                
SRVC .         SERVICE COMPANY:  Schlumberger                       
LATI .DEG             LATITUDE:  39° 53' 9.46" N                    
LONG .DEG            LONGITUDE:  88° 53' 16.959" W                  
API  .              API NUMBER:  12-115-23713-00                    
DATE .                LOG DATE:  13-Jan-2015
UWI  .          UNIQUE WELL ID:                                     
#-----------------------------------------------------------------------------
~PARAMETER INFORMATION
#MNEM.UNIT    VALUE                      DESCRIPTION
#---- -----   --------------------       ------------------------
CN   .        ADM Company                :Company Name
WN   .        CCS#2                      :Well Name
FN   .        Wildcat                    :Field Name
FL   .        Latitude  39.885961        :Field Location
FL1  .        Longitude  -88.888044      :Field Location, Line 1
COUN .        Macon                      :County or Parish
STAT .        Illinois                   :State or Province
NATI .        USA                        :Nation
DATE .        13-Jan-2015                :Tools Above Rotary Table Date
APIN .        12-115-23713-00            :API Well Number
SECT .        32                         :Section
TOWN .        17N                        :Township
RANG .        3E                         :Range
DMF  .        KB                         :Drilling Measured From (Name of Drilling Elevation Reference)
LMF  .        KB                         :Logging Measured From (Name of Logging Elevation Reference)
PDAT .        GL                         :Permanent Datum
ENGI .        Devin Arnold               :Engineer s Name
WITN .        Nick Malkewicz             :Witness s Name
LATI .        39° 53' 9.46  N            :Latitude
LONG .        88° 53' 16.959  W          :Longitude
LUL  .        Bradford                   :Logging Unit Location
LUN  .        3095                       :Logging Unit Number
RUN  .        2                          :Run Number
SON  .        D71E-00006                 :Service Order Number
BHT  .DEGF      58.00000                 :Bottom Hole Temperature
BS   .IN        26.00000                 :Bit Size
MDEN .G/C3       2.71000                 :Matrix Density for Density Porosity
DFD  .LB/G      10.10000                 :Drilling Fluid Density
DFV  .S       -999.25000                 :Drilling Fluid Viscosity
DFL  .C3      -999.25000                 :Drilling Fluid Loss
RMFS .OHMM       1.23200                 :Resistivity of Mud Filtrate Sample
EKB  .F        691.19995                 :Elevation of Kelly Bushing
EGL  .F        675.69995                 :Elevation of Ground Level
BLI  .F        345.00000                 :Bottom Log Interval
BSAL .PPM        0.00000                 :Borehole Salinity
FLEV .F          8.00000                 :Depth of Drilling Fluid Level to LMF (Log Measured From)
MCST .DEGF      42.80000                 :Mudcake Sample Temperature
MFST .DEGF      42.80000                 :Mud Filtrate Sample Temperature
MRT  .DEGF      58.00000                 :Maximum Recorded Temperature
MST  .DEGF      42.80000                 :Mud Sample Temperature
RMCS .OHMM       1.84800                 :Resistivity of Mud Cake Sample
RMS  .OHMM       1.54000                 :Resistivity of Mud Sample
RW   .OHMM       1.00000                 :Connate Water Resistivity
TDD  .F        349.00000                 :Driller Total Depth
TDL  .F        349.00000                 :Logger Total Depth
TLI  .F         50.00000                 :Top Log Interval
HIDE .        Wildcat                    :Header Identifier
MATR .        LIME                       :Rock Matrix for Neutron Porosity Corrections
FNUM .           1.00000                 :F-Numerator for Formation Factor Formula
FEXP .           2.00000                 :Exponent "m" for Formation Factor Formula
DFT  .        Fresh Mud                  :Drilling Fluid Type
DFPH .        -999.25000                 :Drilling Fluid pH
MCSS .        Calculated                 :Mudcake Sample Source
MFSS .        Calculated                 :Mud Filtrate Sample Source
FD   .G/C3       1.00000                 :Fluid Density
MSS  .        Active Tank                :Mud Sample Source
OS1  .                                   :Other Services Line 1
OS2  .                                   :Other Services Line 2
OS3  .                                   :Other Services Line 3
OS4  .                                   :Other Services Line 4
OS5  .                                   :Other Services Line 5
R1   .        Matrix Density  Limestone. :Remarks Line 1
R2   .        Mud Sample taken on location. :Remarks Line 2
R3   .        Presentations as per client request. :Remarks Line 3
R4   .        No Chemical Sources ran due to possible potable water zones. :Remarks Line 4
R5   .        Bottom Hole Temperature taken from GM2 temperature log provided by the client. 58degF :Remarks Line 5
R6   .                                   :Remarks Line 6
R7   .                                   :Remarks Line 7
R8   .                                   :Remarks Line 8
TCS  .        19 45 00                   :Time Circulation Stopped
TLAB .        03 30 00                   :Time Logger At Bottom
EPD  .C3         675.699951              :Elevation of Permanent Datum above Mean Sea Level
APD  .F          15.500000               :Elevation of Depth Reference (LMF) above Permanent Datum
#-----------------------------------------------------------------------------
~CURVE INFORMATION
#MNEM.UNIT   API CODE                                  DESCRIPTION
#---- -----  --------                                  -----------------------
DEPT .F                                                :DEPTH (BOREHOLE) {F12.4}
CDF  .LBF                                              :Calibrated Downhole Force {F11.4}
CTEM .DEGF                                             :Cartridge Temperature {F11.4}
DCAL .IN                                               :Differential Caliper {F11.4}
DT   .US/F                                             :Delta-T (also called Slowness or Interval Transit Time) {F11.4}
ED   .F                                                :East Departure {F11.4}
GR_EDTC.GAPI                                           :Gamma Ray {F11.4}
GTEM .DEGF                                             :Generalized Borehole Temperature {F11.4}
HAZI .DEG                                              :Hole Azimuth Relative to True North {F11.4}
HAZIM.DEG                                              :Memorized Hole Azimuth {F11.4}
ITT  .S                                                :Integrated Transit Time {F11.4}
ND   .F                                                :North Departure {F11.4}
P1AZ .DEG                                              :Pad 1 Azimuth in Horizontal Plane (0 = True North) {F11.4}
RB   .DEG                                              :Relative Bearing {F11.4}
SDEV .DEG                                              :Sonde Deviation {F11.4}
SDEVM.DEG                                              :Memorized Sonde Deviation {F11.4}
SPHI .CFCF                                             :Sonic Porosity {F11.4}
STIT .F                                                :Stuck Tool Indicator, Total {F11.4}
TENS .LBF                                              :Cable Tension {F11.4}
#-----------------------------------------------------------------------------
# 
#      DEPT        CDF        CTEM       DCAL        DT         ED      GR_EDTC      GTEM       HAZI      HAZIM       ITT         ND        P1AZ        RB        SDEV      SDEVM       SPHI       STIT       TENS
#
~A  
# ...
    220.0000   655.8975    72.6588    -5.9219   111.9406    -0.1978    55.3505    56.7100   185.5913   138.5975     0.0151    -0.0384   137.7198   312.1552     2.4768     2.4877     0.4206     0.0000   869.0714
    220.5000   655.1865    72.6588    -5.9219   111.7633    -0.1962    56.2264    56.7150   185.2340   137.9859     0.0150    -0.0422   137.3674   312.1601     2.4763     2.4886     0.4193     0.0000   888.0667
    221.0000   655.8975    72.6588    -5.9219   112.1634    -0.1945    55.8945    56.7200   184.8869   137.5225     0.0150    -0.0459   137.0675   312.2073     2.4759     2.4890     0.4223     0.0000   936.7143
    221.5000   653.1043    72.6588    -5.9224   114.0394    -0.1928    61.4411    56.7250   184.6183   136.9108     0.0149    -0.0495   136.9177   312.3260     2.4754     2.4896     0.4364     0.0000   876.5000
    222.0000   655.2814    72.6588    -5.8948   114.6690    -0.1909    63.7336    56.7300   184.2734   136.3071     0.0149    -0.0532   136.6479   312.4011     2.4751     2.4902     0.4411     0.0000   878.2667
    222.5000   654.4755    72.6588    -5.8948   115.0538    -0.1889    64.7116    56.7350   183.9263   135.6920     0.0148    -0.0569   136.2202   312.3206     2.4749     2.4904     0.4440     0.0000   883.9286
    223.0000   655.5657    72.6588    -5.9489   115.6126    -0.1870    64.3159    56.7400   183.6520   135.2360     0.0147    -0.0605   135.8633   312.2379     2.4740     2.4907     0.4482     0.0000   906.8572
    223.5000   655.1611    72.6588    -5.9489   115.2892    -0.1849    62.8709    56.7450   183.2994   134.6256     0.0147    -0.0641   135.5643   312.2915     2.4734     2.4908     0.4458     0.0000   928.9285
    224.0000   655.8975    72.6588    -5.9489   114.7099    -0.1827    60.7390    56.7500   182.9157   134.0242     0.0146    -0.0678   135.1848   312.2957     2.4723     2.4909     0.4414     0.0000   897.7333
    224.5000   654.2859    72.6588    -5.9489   114.3066    -0.1805    54.7395    56.7550   182.5102   133.4346     0.0146    -0.0714   134.7470   312.2634     2.4713     2.4913     0.4384     0.0000   924.0715
    225.0000   654.1708    72.6588    -5.9489   114.7287    -0.1782    54.0078    56.7600   182.1925   132.9882     0.0145    -0.0750   134.4406   312.2747     2.4705     2.4912     0.4416     0.0000   911.8571
    225.5000   657.8646    72.6588    -5.9489   114.8136    -0.1758    56.3406    56.7650   181.7285   132.4160     0.0145    -0.0786   134.1990   312.4970     2.4694     2.4917     0.4422     0.0000   943.4667
    226.0000   655.8975    72.6588    -5.9495   115.0383    -0.1732    56.5749    56.7700   181.2235   131.8373     0.0144    -0.0823   133.6611   312.4641     2.4684     2.4916     0.4439     0.0000   874.3572
    226.5000   656.2293    72.6588    -5.9495   115.1472    -0.1707    54.1296    56.7750   180.6821   131.4238     0.0143    -0.0858   133.1381   312.4825     2.4674     2.4917     0.4447     0.0000   878.8571
    227.0000   655.5421    72.6588    -5.9766   114.7311    -0.1681    56.2423    56.7800   180.2463   130.8723     0.0143    -0.0895   132.7016   312.4817     2.4665     2.4917     0.4416     0.0000   879.6000
    227.5000   655.5657    72.6588    -5.9766   114.8354    -0.1653    60.6428    56.7850   179.6244   130.3465     0.0142    -0.0931   131.9930   312.3950     2.4653     2.4916     0.4424     0.0000   903.6429
    228.0000   655.1865    72.6588    -5.9489   116.3253    -0.1627    67.2721    56.7900   178.9722   129.8384     0.0142    -0.0966   131.2272   312.2813     2.4642     2.4914     0.4536     0.0000   867.2857
    228.5000   656.2293    72.6588    -5.9489   116.2199    -0.1599    64.8909    56.7950   178.4621   129.4847     0.0141    -0.1001   130.6601   312.2244     2.4634     2.4914     0.4528     0.0000   901.0000
    229.0000   655.2814    72.6588    -5.9775   116.8938    -0.1571    63.6091    56.8000   177.7626   129.0322     0.0140    -0.1035   130.0439   312.3076     2.4622     2.4911     0.4578     0.0000   881.5715
    229.5000   655.8975    72.6588    -6.0037   116.8194    -0.1544    60.9598    56.8050   177.0407   128.6192     0.0140    -0.1068   129.2992   312.2848     2.4610     2.4909     0.4573     0.0000   869.8572
    230.0000   654.2385    72.6588    -6.0308   116.1008    -0.1516    61.4382    56.8100   176.3023   128.2435     0.0139    -0.1102   128.5066   312.2306     2.4602     2.4906     0.4519     0.0000   896.9333
    230.5000   657.3195    72.6588    -6.0579   115.9873    -0.1487    59.5283    56.8150   175.7469   127.9628     0.0139    -0.1135   128.0653   312.3446     2.4594     2.4901     0.4510     0.0000   912.4286
    231.0000   655.8975    72.6588    -6.0579   116.3738    -0.1458    61.4285    56.8200   174.9837   127.6279     0.0138    -0.1168   127.2887   312.3312     2.4585     2.4897     0.4539     0.0000   942.8667
    231.5000   654.5263    72.6588    -6.0308   117.1478    -0.1429    60.3223    56.8250   174.2174   127.3018     0.0138    -0.1201   126.4556   312.2644     2.4576     2.4890     0.4598     0.0000   899.4286
    232.0000   658.1490    72.6588    -6.0302   116.3525    -0.1400    61.0717    56.8300   173.6372   126.9674     0.0137    -0.1232   125.8861   312.2751     2.4567     2.4880     0.4538     0.0000   913.2857
    232.5000   657.2941    72.6588    -6.0308   115.8056    -0.1372    61.8230    56.8350   172.8611   126.7240     0.0136    -0.1263   124.9930   312.1581     2.4558     2.4877     0.4497     0.0000   900.9286
    233.0000   654.3096    72.6588    -6.0302   113.9913    -0.1342    64.7899    56.8400   172.0819   126.3757     0.0136    -0.1294   124.1774   312.1217     2.4549     2.4868     0.4360     0.0000   887.3334
    233.5000   655.2119    72.6588    -6.0302   115.1682    -0.1311    64.8927    56.8450   171.3091   126.0197     0.0135    -0.1325   123.5572   312.2742     2.4542     2.4864     0.4449     0.0000   889.3571
    234.0000   656.8929    72.6588    -6.0573   117.9862    -0.1281    60.9005    56.8500   170.7360   125.6284     0.0135    -0.1355   123.0571   312.3472     2.4539     2.4860     0.4661     0.0000   907.9333
    234.5000   654.6177    72.6588    -6.0302   120.5101    -0.1250    58.3465    56.8550   169.9731   125.3073     0.0134    -0.1384   122.2014   312.2545     2.4535     2.4857     0.4850     0.0000   883.3572
    235.0000   654.1201    72.6588    -6.0579   121.8383    -0.1220    60.2210    56.8600   169.2188   124.8621     0.0134    -0.1413   121.4307   312.2382     2.4534     2.4857     0.4950     0.0000   916.5000
    235.5000   655.8975    72.6588    -6.0573   121.9811    -0.1190    60.5035    56.8650   168.4928   124.3869     0.0133    -0.1441   120.7521   312.2854     2.4538     2.4855     0.4961     0.0000   910.2857
    236.0000   655.1865    72.6588    -6.0579   122.9890    -0.1158    62.4598    56.8700   167.9658   123.8871     0.0132    -0.1469   120.1636   312.2239     2.4535     2.4854     0.5037     0.0000   876.5334
    236.5000   655.8975    72.6588    -6.0579   124.7835    -0.1127    63.7552    56.8750   167.2941   123.5081     0.0132    -0.1498   119.5415   312.2736     2.4542     2.4854     0.5172     0.0000   906.0714
    237.0000   653.9067    72.6588    -6.0579   126.3058    -0.1096    62.6525    56.8800   166.6580   122.9720     0.0131    -0.1524   118.9353   312.3035     2.4546     2.4851     0.5286     0.0000   917.2143
    237.5000   655.5657    72.6588    -6.0573   125.8295    -0.1064    64.6649    56.8850   166.1879   122.4240     0.0130    -0.1550   118.4551   312.2933     2.4547     2.4847     0.5250     0.0000   952.6428
    238.0000   656.6339    72.6588    -6.0573   126.3847    -0.1032    60.5070    56.8900   165.5891   121.8595     0.0130    -0.1577   117.9672   312.4043     2.4549     2.4844     0.5292     0.0000   928.0000
    238.5000   656.8929    72.6588    -6.0844   126.8491    -0.1000    62.9497    56.8950   164.9825   121.4263     0.0129    -0.1603   117.5182   312.5619     2.4548     2.4843     0.5327     0.0000   889.2857
