~VERSION INFORMATION
VERS.           1.2   :CWLS Log ASCII Standard - VERSION 1.2
WRAP.           NO    :One Line per depth step
PROD.  Schlumberger   :LAS Producer
PROG.  DLIS to ASCII 2.3                               :LAS Program name and version
CREA.        2015/05/30 23:46                          :LAS Creation date {YYYY/MM/DD hh:mm}
DLIS_CREA.  2015-May-30 15:01                          :DLIS Creation date and time {YYYY-MMM-DD hh:mm}
SOURCE.     b43ac578-4029-44ab-a201-dacd5736d378       :DLIS File Name
#--------------------------------------------------
~WELL INFORMATION
#MNEM.UNIT      DATA             DESCRIPTION
#---- ------ --------------   -----------------------------
STRT .F      5200.5000       :START DEPTH     
STOP .F      7212.5000       :STOP DEPTH     
STEP .F       0.5000         :STEP       
NULL .          -999.25      :NULL VALUE
COMP .                 COMPANY:  ADM COMPANY                        
WELL .                    WELL:  CCS#2                              
FLD  .                   FIELD:  WILDCAT                            
LOC  .                LOCATION:  LAT 39.885961                      
CNTY .                  COUNTY:  MACON                              
STAT .                   STATE:  ILLINOIS                           
CTRY .                 COUNTRY:  USA                                
SRVC .         SERVICE COMPANY:  Schlumberger                       
LATI .DEG             LATITUDE:  39.885961 degrees                  
LONG .DEG            LONGITUDE:  -88.888044 degrees                 
API  .              API NUMBER:  12-115-23713-00                    
DATE .                LOG DATE:  29-May-2015
UWI  .          UNIQUE WELL ID:  12-115-23713-00                    
#-----------------------------------------------------------------------------
~PARAMETER INFORMATION
#MNEM.UNIT    VALUE                      DESCRIPTION
#---- -----   --------------------       ------------------------
CN   .        ADM COMPANY                :Company Name
WN   .        CCS#2                      :Well Name
FN   .        WILDCAT                    :Field Name
FL   .        LAT 39.885961              :Field Location
FL1  .        LONG 39.885961             :Field Location, Line 1
COUN .        MACON                      :County or Parish
STAT .        ILLINOIS                   :State or Province
NATI .        USA                        :Nation
DATE .        29-May-2015                :Tools Above Rotary Table Date
APIN .        12-115-23713-00            :API Well Number
SECT .        32                         :Section
TOWN .        17N                        :Township
RANG .        3E                         :Range
DMF  .        KB                         :Drilling Measured From (Name of Drilling Elevation Reference)
LMF  .        KB                         :Logging Measured From (Name of Logging Elevation Reference)
PDAT .        GL                         :Permanent Datum
ENGI .        H. DIMITROV / M. MOHAMMED  :Engineer s Name
WITN .        NICK MALKEWICZ             :Witness s Name
LATI .        39.885961 degrees          :Latitude
LONG .        -88.888044 degrees         :Longitude
LUL  .        BRADFORD                   :Logging Unit Location
LUN  .        3003                       :Logging Unit Number
RUN  .        RUN 3B                     :Run Number
SON  .                                   :Service Order Number
BHT  .DEGF     127.00000                 :Bottom Hole Temperature
BS   .IN        12.25000                 :Bit Size
MDEN .LB/G      22.11532                 :Matrix Density for Density Porosity
DFD  .LB/G       9.20000                 :Drilling Fluid Density
DFV  .S         66.00000                 :Drilling Fluid Viscosity
DFL  .C3         7.60000                 :Drilling Fluid Loss
RMFS .OHMM       0.17000                 :Resistivity of Mud Filtrate Sample
EKB  .F        691.19995                 :Elevation of Kelly Bushing
EGL  .F        675.69995                 :Elevation of Ground Level
BLI  .F       7192.00000                 :Bottom Log Interval
BSAL .PPM     15100.00000                :Borehole Salinity
FLEV .F          8.00000                 :Depth of Drilling Fluid Level to LMF (Log Measured From)
MCST .DEGF      72.50000                 :Mudcake Sample Temperature
MFST .DEGF      72.50000                 :Mud Filtrate Sample Temperature
MRT  .DEGF     127.00000                 :Maximum Recorded Temperature
MST  .DEGF      72.50000                 :Mud Sample Temperature
RMCS .OHMM       0.14000                 :Resistivity of Mud Cake Sample
RMS  .OHMM       0.20000                 :Resistivity of Mud Sample
RW   .OHMM       1.00000                 :Connate Water Resistivity
TDD  .F       7193.00049                 :Driller Total Depth
TDL  .F       7192.00000                 :Logger Total Depth
TLI  .F       5231.00000                 :Top Log Interval
HIDE .        WILDCAT                    :Header Identifier
MATR .        SAND                       :Rock Matrix for Neutron Porosity Corrections
FNUM .           1.00000                 :F-Numerator for Formation Factor Formula
FEXP .           2.00000                 :Exponent "m" for Formation Factor Formula
DFT  .        Fresh Water                :Drilling Fluid Type
DFPH .          11.50000                 :Drilling Fluid pH
MCSS .        Calculated                 :Mudcake Sample Source
MFSS .        Calculated                 :Mud Filtrate Sample Source
FD   .LB/G       8.34540                 :Fluid Density
MSS  .        Active Tank                :Mud Sample Source
OS1  .                                   :Other Services Line 1
OS2  .                                   :Other Services Line 2
OS3  .                                   :Other Services Line 3
OS4  .                                   :Other Services Line 4
OS5  .                                   :Other Services Line 5
R1   .        THANKS FOR CHOOSING SCHLUMBERGER!!! :Remarks Line 1
R2   .        All WELL PROPERTIES PROVIDED BY CLIENT :Remarks Line 2
R3   .        ALL SCALES ON PRESENTATIONS AS PER

CLIENT REQUEST :Remarks Line 3
R4   .        MATRIX  SANDSTONE          :Remarks Line 4
R5   .        MATRIX DENSITY  2.65 G/CC  :Remarks Line 5
R6   .        ALL LOGGING INTERVALS AS PER CLIENT REQUEST :Remarks Line 6
R7   .        MRT = 127 DEGF FROM THE THERMOMETER :Remarks Line 7
R8   .                                   :Remarks Line 8
TCS  .        20 00 00                   :Time Circulation Stopped
TLAB .        11 17 00                   :Time Logger At Bottom
EPD  .C3         675.699951              :Elevation of Permanent Datum above Mean Sea Level
APD  .F          15.500000               :Elevation of Depth Reference (LMF) above Permanent Datum
#-----------------------------------------------------------------------------
~CURVE INFORMATION
#MNEM.UNIT   API CODE                                  DESCRIPTION
#---- -----  --------                                  -----------------------
DEPT .F                                                :DEPTH (BOREHOLE) {F12.4}
C1   .IN                                               :Caliper 1 {F11.4}
C2   .IN                                               :Caliper 2 {F11.4}
CDF  .LBF                                              :Calibrated Downhole Force {F11.4}
CTEM .DEGF                                             :Cartridge Temperature {F11.4}
DCAL .IN                                               :Differential Caliper {F11.4}
DEVI .DEG                                              :Hole Deviation {F11.4}
DEVIM.DEG                                              :Memorized Deviation {F11.4}
DTCO .US/F                                             :Delta-T Compressional {F11.4}
DTSM .US/F                                             :Delta-T Shear {F11.4}
ED   .F                                                :East Departure {F11.4}
GR_EDTC.GAPI                                           :Gamma Ray {F11.4}
GTEM .DEGF                                             :Generalized Borehole Temperature {F11.4}
HAZI .DEG                                              :Hole Azimuth Relative to True North {F11.4}
HAZIM.DEG                                              :Hole Azimuth Relative to True North {F11.4}
ITT  .S                                                :Integrated Transit Time {F11.4}
ND   .F                                                :North Departure {F11.4}
P1AZ .DEG                                              :Pad 1 Azimuth in Horizontal Plane (0 = True North) {F11.4}
PR   .                                                 :Poisson s Ratio {F11.4}
RB   .DEG                                              :Relative Bearing {F11.4}
SDEV .DEG                                              :Sonde Deviation {F11.4}
SDEVM.DEG                                              :Sonde Deviation {F11.4}
SPHI .CFCF                                             :Sonic Porosity {F11.4}
STIT .F                                                :Stuck Tool Indicator, Total {F11.4}
TENS .LBF                                              :Cable Tension {F11.4}
#-----------------------------------------------------------------------------
# 
#      DEPT         C1         C2        CDF        CTEM       DCAL       DEVI      DEVIM       DTCO       DTSM        ED      GR_EDTC      GTEM       HAZI      HAZIM       ITT         ND        P1AZ        PR         RB        SDEV      SDEVM       SPHI       STIT       TENS
#
~A  
# ...
   5998.0000    12.2005    12.1238  1502.9913   126.0235    -0.0226     0.5409     0.5405    62.6724   100.5447   -57.5101    34.2585   117.2017   199.2291   198.4803     0.0820   105.0149   166.4702     0.1823   327.2429     0.5409     0.5405     0.0665     0.0000  3303.6667
   5998.5000    12.2088    12.1558  1516.6676   126.0235    -0.0116     0.5434     0.5416    62.3028    99.9638   -57.5111    34.5371   117.2058   199.2578   198.5313     0.0820   105.0137   165.1472     0.1824   325.8905     0.5434     0.5416     0.0632     0.0000  3290.3333
   5999.0000    12.2253    12.1638  1523.7567   126.0235    -0.0001     0.5469     0.5412    62.2935    99.6308   -57.5121    32.1867   117.2099   199.1640   198.5325     0.0820   105.0125   163.7104     0.1791   324.5475     0.5469     0.5412     0.0631     0.0000  3323.5000
   5999.5000    12.2129    12.1558  1534.7134   126.0235    -0.0456     0.5486     0.5406    62.3751    99.6204   -57.5131    29.8726   117.2140   199.0946   198.5492     0.0820   105.0113   163.0384     0.1776   323.9451     0.5486     0.5406     0.0639     0.0000  3306.0002
   6000.0000    12.1757    12.1598  1556.1490   126.0235    -0.0344     0.5500     0.5386    61.6887    98.6879   -57.5140    27.4119   117.2181   199.0757   198.4299     0.0819   105.0101   162.2632     0.1793   323.1884     0.5500     0.5386     0.0576     0.0000  3303.0002
   6000.5000    12.1343    12.0919  1572.1466   126.0235    -0.0456     0.5498     0.5349    61.6319    97.8594   -57.5150    27.8371   117.2222   198.9206   197.9092     0.0819   105.0089   161.1706     0.1713   322.2515     0.5498     0.5349     0.0571     0.0000  3325.6667
   6001.0000    12.1178    12.0999  1570.3273   126.0235    -0.0681     0.5497     0.5316    61.3765    97.3341   -57.5160    30.1007   117.2263   198.8049   197.5867     0.0819   105.0077   159.8026     0.1700   320.9988     0.5497     0.5316     0.0547     0.0000  3270.0002
   6001.5000    12.1343    12.1638  1584.0872   126.0235    -0.0456     0.5481     0.5280    60.8515    96.7921   -57.5170    28.5170   117.2305   198.7044   197.2191     0.0818   105.0065   158.5036     0.1732   319.8005     0.5481     0.5280     0.0498     0.0000  3342.3333
   6002.0000    12.1385    12.0919  1612.4492   126.0235    -0.0238     0.5462     0.5217    60.5696    96.4757   -57.5180    27.0568   117.2346   198.6145   196.8150     0.0818   105.0052   157.2609     0.1747   318.6476     0.5462     0.5217     0.0472     0.0000  3456.5000
   6002.5000    12.1178    12.1039  1596.4042   126.0235    -0.0456     0.5438     0.5178    60.2136    95.7222   -57.5189    27.2037   117.2387   198.4502   196.5073     0.0818   105.0039   156.0655     0.1726   317.6166     0.5438     0.5178     0.0437     0.0000  3355.3335
   6003.0000    12.1178    12.1159  1571.8119   126.0235    -0.0344     0.5415     0.5109    60.2722    96.7345   -57.5199    26.8140   117.2428   198.4219   196.2758     0.0817   105.0027   154.2280     0.1827   315.8074     0.5415     0.5109     0.0443     0.0000  3314.0000
   6003.5000    12.1260    12.1079  1561.1783   126.0235    -0.0569     0.5393     0.5072    60.5332    95.6488   -57.5209    28.1778   117.2469   198.3406   196.0799     0.0817   105.0014   151.9034     0.1659   313.5638     0.5393     0.5072     0.0468     0.0000  3372.3333
   6004.0000    12.1674    12.0999  1566.3330   126.0235    -0.0456     0.5361     0.5034    61.6850    95.8218   -57.5219    24.6952   117.2510   198.3889   195.9326     0.0817   105.0001   150.5999     0.1462   312.2125     0.5361     0.5034     0.0576     0.0000  3310.3335
   6004.5000    12.1840    12.1558  1555.2289   126.0235    -0.0344     0.5338     0.4981    62.2248    96.7089   -57.5228    29.1268   117.2551   198.4223   195.5904     0.0816   104.9988   150.0561     0.1468   311.6353     0.5338     0.4981     0.0625     0.0000  3342.6667
   6005.0000    12.2088    12.1638  1565.8312   126.0235    -0.0126     0.5326     0.4949    62.4787    97.4750   -57.5238    29.5163   117.2592   198.4299   195.5047     0.0816   104.9975   149.3995     0.1513   310.9713     0.5326     0.4949     0.0648     0.0000  3381.5002
   6005.5000    12.2419    12.2196  1595.2959   126.0235    -0.0113     0.5320     0.4923    63.0436    98.9174   -57.5248    34.5821   117.2633   198.3949   195.4361     0.0816   104.9961   148.4464     0.1580   310.0529     0.5320     0.4923     0.0698     0.0000  3429.3333
   6006.0000    12.1674    12.1638  1594.6545   126.0235    -0.0344     0.5322     0.4902    63.6939    99.5766   -57.5257    36.9401   117.2674   198.3655   195.3928     0.0816   104.9948   147.3629     0.1538   308.9986     0.5322     0.4902     0.0755     0.0000  3394.0000
   6006.5000    12.1178    12.1638  1591.2599   126.0235    -0.0348     0.5338     0.4887    64.4348   100.5439   -57.5267    39.5072   117.2715   198.4368   195.2076     0.0815   104.9935   146.5334     0.1515   308.0981     0.5338     0.4887     0.0818     0.0000  3436.0000
   6007.0000    12.0557    12.1638  1615.8522   126.0235    -0.0001     0.5358     0.4861    64.7547   103.8681   -57.5277    39.3113   117.2756   198.5260   194.9794     0.0815   104.9920   145.4518     0.1821   306.9269     0.5358     0.4861     0.0845     0.0000  3528.0000
   6007.5000    12.0557    12.1039  1609.2858   126.0235    -0.0001     0.5389     0.4838    64.4314   104.2882   -57.5286    36.6600   117.2797   198.4823   194.8876     0.0815   104.9907   144.6765     0.1913   306.1961     0.5389     0.4838     0.0818     0.0000  3390.0000
   6008.0000    12.0847    12.1558  1571.2263   126.0235    -0.0005     0.5405     0.4811    64.1446   104.3991   -57.5295    36.9191   117.2838   198.4803   194.8732     0.0814   104.9893   144.3800     0.1968   305.9006     0.5405     0.4811     0.0794     0.0000  3388.3333
   6008.5000    12.0433    12.0999  1578.4792   126.0235    -0.0113     0.5416     0.4775    63.2106   103.4852   -57.5305    35.6293   117.2879   198.5313   194.7457     0.0814   104.9879   143.7788     0.2024   305.2490     0.5416     0.4775     0.0713     0.0000  3425.0000
   6009.0000    12.0764    12.1079  1591.2808   126.0235    -0.0456     0.5414     0.4747    62.9620   103.5558   -57.5315    32.3435   117.2920   198.6538   194.7298     0.0814   104.9865   143.0661     0.2068   304.4139     0.5414     0.4747     0.0691     0.0000  3424.3333
   6009.5000    12.0433    12.0919  1591.5736   126.0235    -0.0116     0.5406     0.4708    62.6793   101.9244   -57.5324    27.9343   117.2961   198.5492   194.7382     0.0813   104.9850   142.8279     0.1959   304.2794     0.5406     0.4708     0.0666     0.0000  3361.6667
   6010.0000    12.0599    12.1159  1594.3978   126.0235    -0.0456     0.5377     0.4662    62.5791   101.4453   -57.5334    23.6001   117.3002   198.2087   194.8445     0.0813   104.9836   142.7518     0.1929   304.5439     0.5377     0.4662     0.0657     0.0000  3410.3333
   6010.5000    12.0433    12.0919  1590.9253   126.0235    -0.0569     0.5349     0.4610    62.4611   100.6799   -57.5343    23.3308   117.3043   197.9092   194.8726     0.0813   104.9822   142.3744     0.1871   304.4667     0.5349     0.4610     0.0647     0.0000  3346.0000
   6011.0000    12.0516    12.0999  1582.6860   126.0235    -0.0341     0.5294     0.4559    62.7783    99.8347   -57.5352    25.0851   117.3085   197.5637   194.9412     0.0812   104.9807   141.8283     0.1730   304.2666     0.5294     0.4559     0.0675     0.0000  3349.0000
   6011.5000    12.0268    12.0919  1583.2297   126.0235    -0.0341     0.5257     0.4476    63.1594    99.8143   -57.5362    26.4489   117.3126   197.1794   195.0413     0.0812   104.9793   141.2906     0.1661   304.1122     0.5257     0.4476     0.0708     0.0000  3436.6667
   6012.0000    12.0516    12.0999  1593.2256   126.0235    -0.0569     0.5217     0.4416    63.3799    99.3796   -57.5371    25.5729   117.3167   196.8150   195.1607     0.0812   104.9778   140.4784     0.1572   303.6649     0.5217     0.4416     0.0728     0.0000  3352.3335
