~VERSION INFORMATION
VERS.           1.2   :CWLS Log ASCII Standard - VERSION 1.2
WRAP.           NO    :One Line per depth step
PROD.  Schlumberger   :LAS Producer
PROG.  DLIS to ASCII 2.3                               :LAS Program name and version
CREA.        2015/01/14 20:42                          :LAS Creation date {YYYY/MM/DD hh:mm}
DLIS_CREA.  2015-Jan-14 13:26                          :DLIS Creation date and time {YYYY-MMM-DD hh:mm}
SOURCE.     b1232dd5-b707-4891-82b9-d24dcc6cb5d4       :DLIS File Name
#--------------------------------------------------
~WELL INFORMATION
#MNEM.UNIT      DATA             DESCRIPTION
#---- ------ --------------   -----------------------------
STRT .F      -8.0000         :START DEPTH     
STOP .F      352.5000        :STOP DEPTH     
STEP .F       0.5000         :STEP       
NULL .          -999.25      :NULL VALUE
COMP .                 COMPANY:  ADM Company                        
WELL .                    WELL:  CCS#2                              
FLD  .                   FIELD:  Wildcat                            
LOC  .                LOCATION:  Latitude: 39.885961                
CNTY .                  COUNTY:  Macon                              
STAT .                   STATE:  Illinois                           
CTRY .                 COUNTRY:  USA                                
SRVC .         SERVICE COMPANY:  Schlumberger                       
LATI .DEG             LATITUDE:  39° 53' 9.46" N                    
LONG .DEG            LONGITUDE:  88° 53' 16.959" W                  
API  .              API NUMBER:  12-115-23713-00                    
DATE .                LOG DATE:  13-Jan-2015
UWI  .          UNIQUE WELL ID:                                     
#-----------------------------------------------------------------------------
~PARAMETER INFORMATION
#MNEM.UNIT    VALUE                      DESCRIPTION
#---- -----   --------------------       ------------------------
CN   .        ADM Company                :Company Name
WN   .        CCS#2                      :Well Name
FN   .        Wildcat                    :Field Name
FL   .        Latitude  39.885961        :Field Location
FL1  .        Longitude  -88.888044      :Field Location, Line 1
COUN .        Macon                      :County or Parish
STAT .        Illinois                   :State or Province
NATI .        USA                        :Nation
DATE .        13-Jan-2015                :Tools Above Rotary Table Date
APIN .        12-115-23713-00            :API Well Number
SECT .        32                         :Section
TOWN .        17N                        :Township
RANG .        3E                         :Range
DMF  .        KB                         :Drilling Measured From (Name of Drilling Elevation Reference)
LMF  .        KB                         :Logging Measured From (Name of Logging Elevation Reference)
PDAT .        GL                         :Permanent Datum
ENGI .        Devin Arnold               :Engineer s Name
WITN .        Nick Malkewicz             :Witness s Name
LATI .        39° 53' 9.46  N            :Latitude
LONG .        88° 53' 16.959  W          :Longitude
LUL  .        Bradford                   :Logging Unit Location
LUN  .        3095                       :Logging Unit Number
RUN  .        2                          :Run Number
SON  .        D71E-00006                 :Service Order Number
BHT  .DEGF      58.00000                 :Bottom Hole Temperature
BS   .IN        26.00000                 :Bit Size
MDEN .G/C3       2.71000                 :Matrix Density for Density Porosity
DFD  .LB/G      10.10000                 :Drilling Fluid Density
DFV  .S       -999.25000                 :Drilling Fluid Viscosity
DFL  .C3      -999.25000                 :Drilling Fluid Loss
RMFS .OHMM       1.23200                 :Resistivity of Mud Filtrate Sample
EKB  .F        691.19995                 :Elevation of Kelly Bushing
EGL  .F        675.69995                 :Elevation of Ground Level
BLI  .F        345.00000                 :Bottom Log Interval
BSAL .PPM        0.00000                 :Borehole Salinity
FLEV .F          8.00000                 :Depth of Drilling Fluid Level to LMF (Log Measured From)
MCST .DEGF      42.80000                 :Mudcake Sample Temperature
MFST .DEGF      42.80000                 :Mud Filtrate Sample Temperature
MRT  .DEGF      58.00000                 :Maximum Recorded Temperature
MST  .DEGF      42.80000                 :Mud Sample Temperature
RMCS .OHMM       1.84800                 :Resistivity of Mud Cake Sample
RMS  .OHMM       1.54000                 :Resistivity of Mud Sample
RW   .OHMM       1.00000                 :Connate Water Resistivity
TDD  .F        349.00000                 :Driller Total Depth
TDL  .F        349.00000                 :Logger Total Depth
TLI  .F         50.00000                 :Top Log Interval
HIDE .        Wildcat                    :Header Identifier
MATR .        LIME                       :Rock Matrix for Neutron Porosity Corrections
FNUM .           1.00000                 :F-Numerator for Formation Factor Formula
FEXP .           2.00000                 :Exponent "m" for Formation Factor Formula
DFT  .        Fresh Mud                  :Drilling Fluid Type
DFPH .        -999.25000                 :Drilling Fluid pH
MCSS .        Calculated                 :Mudcake Sample Source
MFSS .        Calculated                 :Mud Filtrate Sample Source
FD   .G/C3       1.00000                 :Fluid Density
MSS  .        Active Tank                :Mud Sample Source
OS1  .                                   :Other Services Line 1
OS2  .                                   :Other Services Line 2
OS3  .                                   :Other Services Line 3
OS4  .                                   :Other Services Line 4
OS5  .                                   :Other Services Line 5
R1   .        Matrix Density  Limestone. :Remarks Line 1
R2   .        Mud Sample taken on location. :Remarks Line 2
R3   .        Presentations as per client request. :Remarks Line 3
R4   .        No Chemical Sources ran due to possible potable water zones. :Remarks Line 4
R5   .        Bottom Hole Temperature taken from GM2 temperature log provided by the client. 58degF :Remarks Line 5
R6   .                                   :Remarks Line 6
R7   .                                   :Remarks Line 7
R8   .                                   :Remarks Line 8
TCS  .        19 45 00                   :Time Circulation Stopped
TLAB .        03 30 00                   :Time Logger At Bottom
EPD  .C3         675.699951              :Elevation of Permanent Datum above Mean Sea Level
APD  .F          15.500000               :Elevation of Depth Reference (LMF) above Permanent Datum
#-----------------------------------------------------------------------------
~CURVE INFORMATION
#MNEM.UNIT   API CODE                                  DESCRIPTION
#---- -----  --------                                  -----------------------
DEPT .F                                                :DEPTH (BOREHOLE) {F12.4}
CDF  .LBF                                              :Calibrated Downhole Force {F11.4}
CTEM .DEGF                                             :Cartridge Temperature {F11.4}
DCAL .IN                                               :Differential Caliper {F11.4}
DT   .US/F                                             :Delta-T (also called Slowness or Interval Transit Time) {F11.4}
ED   .F                                                :East Departure {F11.4}
GR_EDTC.GAPI                                           :Gamma Ray {F11.4}
GTEM .DEGF                                             :Generalized Borehole Temperature {F11.4}
HAZI .DEG                                              :Hole Azimuth Relative to True North {F11.4}
HAZIM.DEG                                              :Memorized Hole Azimuth {F11.4}
ITT  .S                                                :Integrated Transit Time {F11.4}
ND   .F                                                :North Departure {F11.4}
P1AZ .DEG                                              :Pad 1 Azimuth in Horizontal Plane (0 = True North) {F11.4}
RB   .DEG                                              :Relative Bearing {F11.4}
SDEV .DEG                                              :Sonde Deviation {F11.4}
SDEVM.DEG                                              :Memorized Sonde Deviation {F11.4}
SPHI .CFCF                                             :Sonic Porosity {F11.4}
STIT .F                                                :Stuck Tool Indicator, Total {F11.4}
TENS .LBF                                              :Cable Tension {F11.4}
#-----------------------------------------------------------------------------
# 
#      DEPT        CDF        CTEM       DCAL        DT         ED      GR_EDTC      GTEM       HAZI      HAZIM       ITT         ND        P1AZ        RB        SDEV      SDEVM       SPHI       STIT       TENS
#
~A  
# ...
    296.0000   651.7585    70.6823    -8.2658   112.3737     0.3848    65.0663    57.4700   105.1642    97.9465     0.0059    -0.1805    59.0836   313.9471     2.5123     2.5412     0.4239     0.0000   945.6429
    296.5000   652.9113    70.6823    -8.3763   108.1839     0.3881    64.4776    57.4750   105.0015    98.1383     0.0058    -0.1794    58.9537   313.9799     2.5131     2.5395     0.3924     0.0000   890.0000
    297.0000   653.0298    70.6823    -8.6738   107.4052     0.3915    63.0726    57.4800   104.8811    98.3216     0.0058    -0.1783    58.9536   314.0997     2.5135     2.5380     0.3865     0.0000   889.7334
    297.5000   654.2859    70.6823    -8.6719   105.8153     0.3948    61.3999    57.4850   104.7062    98.5151     0.0057    -0.1773    58.7571   314.0782     2.5145     2.5360     0.3746     0.0000   962.7857
    298.0000   656.1819    70.6823    -8.6131   107.7875     0.3979    62.9662    57.4900   104.5318    98.6593     0.0057    -0.1763    58.6180   314.1138     2.5150     2.5344     0.3894     0.0000   964.2001
    298.5000   655.2814    70.6823    -8.8742   109.8657     0.4010    62.3882    57.4950   104.3412    98.8871     0.0056    -0.1753    58.7064   314.3925     2.5157     2.5317     0.4050     0.0000   948.5715
    299.0000   653.6223    70.6823    -8.9384   109.6158     0.4039    63.6969    57.5000   104.1330    99.1455     0.0056    -0.1743    58.6412   314.5358     2.5167     2.5289     0.4031     0.0000   939.6000
    299.5000   653.5106    70.6823    -9.2316   110.5643     0.4068    62.5549    57.5050   103.9659    99.4815     0.0055    -0.1734    58.5753   314.6369     2.5175     2.5252     0.4103     0.0000   925.7143
    300.0000   656.8929    70.6823    -9.1429   111.7258     0.4097    66.2070    57.5100   103.7316    99.7661     0.0054    -0.1725    58.4935   314.7899     2.5185     2.5219     0.4190     0.0000   950.6000
    300.5000   656.2293    70.6823    -8.9974   111.8795     0.4125    65.5784    57.5150   103.4864   100.2175     0.0054    -0.1716    58.1032   314.6445     2.5196     2.5171     0.4201     0.0000   907.4667
    301.0000   654.9495    70.6823    -9.1429   111.1451     0.4151    65.7960    57.5200   103.2246   100.7188     0.0053    -0.1708    57.8334   314.6364     2.5207     2.5116     0.4146     0.0000   876.6429
    301.5000   654.5941    70.6823    -9.0839   111.5149     0.4177    63.6356    57.5250   102.9619   101.2317     0.0053    -0.1699    57.6462   314.7119     2.5215     2.5062     0.4174     0.0000   901.8667
    302.0000   655.5657    70.6823    -9.1983   112.3475     0.4202    65.7294    57.5300   102.7694   101.7371     0.0052    -0.1691    57.6364   314.8947     2.5220     2.5001     0.4237     0.0000   929.1334
    302.5000   654.2385    70.6823    -9.0564   112.9342     0.4226    65.8286    57.5350   102.5135   102.0869     0.0052    -0.1684    57.5252   315.0396     2.5229     2.4958     0.4281     0.0000   943.0714
    303.0000   655.1866    70.6823    -9.2611   113.0564     0.4249    71.6207    57.5400   102.2676   102.4834     0.0051    -0.1676    57.3573   315.1173     2.5236     2.4904     0.4290     0.0000   915.3333
    303.5000   656.5612    70.6823    -9.3521   112.8421     0.4273    73.4209    57.5450   102.0216   102.7720     0.0051    -0.1669    57.0980   315.1044     2.5243     2.4858     0.4274     0.0000   933.8000
    304.0000   655.2339    70.6823    -9.3515   111.2876     0.4294    69.8316    57.5500   101.7807   102.9228     0.0050    -0.1662    57.0020   315.2491     2.5244     2.4824     0.4157     0.0000   946.2142
    304.5000   656.1819    70.6823    -9.4135   111.0722     0.4315    64.9631    57.5550   101.5910   102.9261     0.0049    -0.1655    56.8021   315.2390     2.5252     2.4798     0.4141     0.0000   954.5334
    305.0000   654.9022    70.6823    -9.3811   112.3943     0.4335    60.9394    57.5600   101.3502   102.8383     0.0049    -0.1649    56.5871   315.2648     2.5254     2.4783     0.4240     0.0000   932.3571
    305.5000   656.9640    70.6823    -9.3811   113.7071     0.4354    64.1321    57.5650   101.0949   102.6098     0.0048    -0.1643    56.5667   315.4996     2.5264     2.4771     0.4339     0.0000   942.9333
    306.0000   656.2293    70.6823    -9.4151   114.1506     0.4373    70.2115    57.5700   100.8495   102.2945     0.0048    -0.1637    56.4675   315.6461     2.5271     2.4767     0.4372     0.0000   946.5715
    306.5000   657.5566    70.6823    -9.3586   114.0050     0.4390    69.9635    57.5750   100.6017   101.9157     0.0047    -0.1631    56.3322   315.7588     2.5276     2.4768     0.4361     0.0000   940.9333
    307.0000   654.2385    70.6823    -9.4751   113.5379     0.4407    70.0077    57.5800   100.4148   101.5438     0.0047    -0.1626    56.1424   315.7554     2.5282     2.4769     0.4326     0.0000   931.4667
    307.5000   655.5657    70.6823    -9.5666   112.6981     0.4423    65.7474    57.5850   100.1744   101.2018     0.0046    -0.1621    55.9981   315.8514     2.5290     2.4774     0.4263     0.0000   922.4286
    308.0000   656.6085    70.6823    -9.5625   112.9535     0.4439    66.9753    57.5900    99.9443   100.9393     0.0045    -0.1616    55.8269   315.9106     2.5300     2.4775     0.4282     0.0000   938.8667
    308.5000   655.9449    70.6823    -9.5375   113.4908     0.4453    67.4228    57.5950    99.7334   100.9049     0.0045    -0.1611    55.7557   316.0505     2.5312     2.4759     0.4323     0.0000   932.2858
    309.0000   658.8363    70.6823    -9.5649   113.5949     0.4466    66.2970    57.6000    99.5464   100.8351     0.0044    -0.1607    55.6281   316.1098     2.5328     2.4748     0.4330     0.0000   947.7333
    309.5000   658.8364    70.4796    -9.5946   113.0055     0.4479    65.2115    57.6050    99.4323   100.8333     0.0044    -0.1603    55.5380   316.1338     2.5333     2.4732     0.4286     0.0000   913.4667
    310.0000   659.8317    69.8918    -9.6541   112.5196     0.4491    65.5836    57.6100    99.2948   100.8800     0.0043    -0.1599    55.6354   316.3685     2.5346     2.4715     0.4250     0.0000   933.4286
    310.5000   657.8883    69.8918    -9.6291   112.1039     0.4502    66.9596    57.6150    99.1827   100.9472     0.0043    -0.1595    55.8155   316.6604     2.5356     2.4696     0.4218     0.0000   906.0000
    311.0000   659.2155    69.8918    -9.6630   112.1280     0.4512    68.0373    57.6200    99.0843   101.0077     0.0042    -0.1592    55.8896   316.8334     2.5366     2.4679     0.4220     0.0000   939.4286
    311.5000   656.5611    69.8918    -9.5760   112.6916     0.4522    69.0697    57.6250    98.9906   100.9856     0.0042    -0.1589    55.9203   316.9576     2.5377     2.4672     0.4263     0.0000   905.4000
    312.0000   657.3196    69.8918    -9.5760   113.3091     0.4530    69.0697    57.6300    98.9270   100.9799     0.0041    -0.1586    55.9340   317.0353     2.5384     2.4660     0.4309     0.0000   966.9333
    312.5000   658.8837    69.8918    -9.6356   113.5749     0.4538    69.0697    57.6350    98.8278   100.8987     0.0040    -0.1584    55.8702   317.0706     2.5398     2.4665     0.4329     0.0000   984.7143
    313.0000   659.8554    69.8918    -9.6356   113.2659     0.4545    69.0697    57.6400    98.7291   100.8283     0.0040    -0.1582    55.8517   317.1508     2.5411     2.4664     0.4306     0.0000   947.6000
    313.5000   658.2201    69.8918    -9.6051   113.7052     0.4551    69.0697    57.6450    98.6111   100.7277     0.0039    -0.1580    55.7687   317.1857     2.5430     2.4638     0.4339     0.0000   931.1428
    314.0000   659.5474    69.8918    -9.6017   114.3069     0.4557    69.0697    57.6500    98.4886   100.5445     0.0039    -0.1578    55.8502   317.3894     2.5452     2.4701     0.4384     0.0000   960.2667
    314.5000   659.0208    69.8918    -9.5775   114.4239     0.4561    69.0697    57.6550    98.3963   100.2904     0.0038    -0.1577    55.7948   317.4266     2.5468     2.4709     0.4393     0.0000   955.6428
