~VERSION INFORMATION
VERS.           1.2   :CWLS Log ASCII Standard - VERSION 1.2
WRAP.           NO    :One Line per depth step
PROD.  Schlumberger   :LAS Producer
PROG.  DLIS to ASCII 2.3                               :LAS Program name and version
CREA.        2015/05/30 05:44                          :LAS Creation date {YYYY/MM/DD hh:mm}
DLIS_CREA.  2015-May-29 22:59                          :DLIS Creation date and time {YYYY-MMM-DD hh:mm}
SOURCE.     3feb4549-4107-45e4-8f62-928498d876c9       :DLIS File Name
#--------------------------------------------------
~WELL INFORMATION
#MNEM.UNIT      DATA             DESCRIPTION
#---- ------ --------------   -----------------------------
STRT .F      5218.5000       :START DEPTH     
STOP .F      7211.0000       :STOP DEPTH     
STEP .F       0.5000         :STEP       
NULL .          -999.25      :NULL VALUE
COMP .                 COMPANY:  ADM COMPANY                        
WELL .                    WELL:  CCS#2                              
FLD  .                   FIELD:  WILDCAT                            
LOC  .                LOCATION:  LAT 39.885961                      
CNTY .                  COUNTY:  MACON                              
STAT .                   STATE:  ILLINOIS                           
CTRY .                 COUNTRY:  USA                                
SRVC .         SERVICE COMPANY:  Schlumberger                       
LATI .DEG             LATITUDE:  39.885961 degrees                  
LONG .DEG            LONGITUDE:  -88.888044 degrees                 
API  .              API NUMBER:  12-115-23713-00                    
DATE .                LOG DATE:  29-May-2015
UWI  .          UNIQUE WELL ID:  12-115-23713-00                    
#-----------------------------------------------------------------------------
~PARAMETER INFORMATION
#MNEM.UNIT    VALUE                      DESCRIPTION
#---- -----   --------------------       ------------------------
CN   .        ADM COMPANY                :Company Name
WN   .        CCS#2                      :Well Name
FN   .        WILDCAT                    :Field Name
FL   .        LAT 39.885961              :Field Location
FL1  .        LONG 39.885961             :Field Location, Line 1
COUN .        MACON                      :County or Parish
STAT .        ILLINOIS                   :State or Province
NATI .        USA                        :Nation
DATE .        29-May-2015                :Tools Above Rotary Table Date
APIN .        12-115-23713-00            :API Well Number
SECT .        32                         :Section
TOWN .        17N                        :Township
RANG .        3E                         :Range
DMF  .        KB                         :Drilling Measured From (Name of Drilling Elevation Reference)
LMF  .        KB                         :Logging Measured From (Name of Logging Elevation Reference)
PDAT .        GL                         :Permanent Datum
ENGI .        H. DIMITROV / M. MOHAMMED  :Engineer s Name
WITN .        NICK MALKEWICZ             :Witness s Name
LATI .        39.885961 degrees          :Latitude
LONG .        -88.888044 degrees         :Longitude
LUL  .        BRADFORD                   :Logging Unit Location
LUN  .        3003                       :Logging Unit Number
RUN  .        Run 3C                     :Run Number
SON  .                                   :Service Order Number
BHT  .DEGF     127.00000                 :Bottom Hole Temperature
BS   .IN        12.25000                 :Bit Size
DFD  .LB/G       9.20000                 :Drilling Fluid Density
DFV  .S         66.00000                 :Drilling Fluid Viscosity
DFL  .C3         7.60000                 :Drilling Fluid Loss
RMFS .OHMM       0.17000                 :Resistivity of Mud Filtrate Sample
EKB  .F        691.19995                 :Elevation of Kelly Bushing
EGL  .F        675.69995                 :Elevation of Ground Level
BLI  .F       7192.00000                 :Bottom Log Interval
BSAL .PPM     15100.00000                :Borehole Salinity
FLEV .F          8.00000                 :Depth of Drilling Fluid Level to LMF (Log Measured From)
MCST .DEGF      72.50000                 :Mudcake Sample Temperature
MFST .DEGF      72.50000                 :Mud Filtrate Sample Temperature
MRT  .DEGF     127.00000                 :Maximum Recorded Temperature
MST  .DEGF      72.50000                 :Mud Sample Temperature
RMCS .OHMM       0.14000                 :Resistivity of Mud Cake Sample
RMS  .OHMM       0.20000                 :Resistivity of Mud Sample
RW   .OHMM       1.00000                 :Connate Water Resistivity
TDD  .F       7193.00049                 :Driller Total Depth
TDL  .F       7193.00049                 :Logger Total Depth
TLI  .F       5240.00000                 :Top Log Interval
HIDE .        WILDCAT                    :Header Identifier
MATR .        SAND                       :Rock Matrix for Neutron Porosity Corrections
FNUM .           1.00000                 :F-Numerator for Formation Factor Formula
FEXP .           2.00000                 :Exponent "m" for Formation Factor Formula
DFT  .        Fresh Water                :Drilling Fluid Type
DFPH .          11.50000                 :Drilling Fluid pH
MCSS .        Calculated                 :Mudcake Sample Source
MFSS .        Calculated                 :Mud Filtrate Sample Source
FD   .LB/G       8.34540                 :Fluid Density
MSS  .        Active Tank                :Mud Sample Source
OS1  .                                   :Other Services Line 1
OS2  .                                   :Other Services Line 2
OS3  .                                   :Other Services Line 3
OS4  .                                   :Other Services Line 4
OS5  .                                   :Other Services Line 5
R1   .        THANKS FOR CHOOSING SCHLUMBERGER!!! :Remarks Line 1
R2   .        All WELL PROPERTIES PROVIDED BY CLIENT :Remarks Line 2
R3   .        ALL SCALES ON PRESENTATIONS AS PER

CLIENT REQUEST :Remarks Line 3
R4   .        MATRIX  SANDSTONE          :Remarks Line 4
R5   .        MATRIX DENSITY  2.65 G/CC  :Remarks Line 5
R6   .        ALL LOGGING INTERVALS AS PER CLIENT REQUEST :Remarks Line 6
R7   .        MRT = 127 DEGF FROM THE THERMOMETER :Remarks Line 7
R8   .                                   :Remarks Line 8
TCS  .        20 00 00                   :Time Circulation Stopped
TLAB .        14 31 00                   :Time Logger At Bottom
EPD  .C3         675.699951              :Elevation of Permanent Datum above Mean Sea Level
APD  .F          15.500000               :Elevation of Depth Reference (LMF) above Permanent Datum
#-----------------------------------------------------------------------------
~CURVE INFORMATION
#MNEM.UNIT   API CODE                                  DESCRIPTION
#---- -----  --------                                  -----------------------
DEPT .F                                                :DEPTH (BOREHOLE) {F12.4}
BFV  .CFCF                                             :Bound Fluid Volume {F11.4}
CBP1 .CFCF                                             :CMR Bin Porosity 1 {F11.4}
CBP2 .CFCF                                             :CMR Bin Porosity 2 {F11.4}
CBP3 .CFCF                                             :CMR Bin Porosity 3 {F11.4}
CBP4 .CFCF                                             :CMR Bin Porosity 4 {F11.4}
CBP5 .CFCF                                             :CMR Bin Porosity 5 {F11.4}
CBP6 .CFCF                                             :CMR Bin Porosity 6 {F11.4}
CBP7 .CFCF                                             :CMR Bin Porosity 7 {F11.4}
CBP8 .CFCF                                             :CMR Bin Porosity 8 {F11.4}
CDF  .LBF                                              :Calibrated Downhole Force {F11.4}
CMFF .CFCF                                             :CMR Free Fluid {F11.4}
CMFF_SIG.CFCF                                          :Standard Deviation of CMR Free Fluid {F11.4}
CMR_PHI_CONV.                                          :CMR Porosity Conversion factor {F11.4}
CMRP_3MS.CFCF                                          :CMR Porosity with T2 values greater than 3 ms {F11.4}
CTEM .DEGF                                             :Cartridge Temperature {F11.4}
DCAL .IN                                               :Differential Caliper {F11.4}
ED   .F                                                :East Departure {F11.4}
GR_EDTC.GAPI                                           :Gamma Ray {F11.4}
GTEM .DEGF                                             :Generalized Borehole Temperature {F11.4}
HCGR .GAPI                                             :HNGS Computed Gamma Ray {F11.4}
HFK  .%                                                :HNGS Formation Potassium Concentration {F11.4}
HSGR .GAPI                                             :HNGS Standard Gamma-Ray {F11.4}
HTHO .PPM                                              :HNGS Formation Thorium Concentration {F11.4}
HURA .PPM                                              :HNGS Formation Uranium Concentration {F11.4}
KSDR .MD                                               :SDR Permeability {F11.4}
KTIM .MD                                               :Timur/Coates Permeability {F11.4}
ND   .F                                                :North Departure {F11.4}
STIT .F                                                :Stuck Tool Indicator, Total {F11.4}
T2LM .MS                                               :T2 Logarithmic Mean {F11.4}
T2LM_SIG.MS                                            :Standard Deviation of T2 Logarithmic Mean {F11.4}
TCMR .CFCF                                             :Total CMR Porosity {F11.4}
TENS .LBF                                              :Cable Tension {F11.4}
#-----------------------------------------------------------------------------
# 
#      DEPT        BFV        CBP1       CBP2       CBP3       CBP4       CBP5       CBP6       CBP7       CBP8       CDF        CMFF     CMFF_SIG  CMR_PHI_CO  CMRP_3MS     CTEM       DCAL        ED      GR_EDTC      GTEM       HCGR       HFK        HSGR       HTHO       HURA       KSDR       KTIM        ND        STIT       T2LM     T2LM_SIG     TCMR       TENS
#                                                                                                                                                   NV
~A  
# ...
   5878.5000     0.0420     0.0001     0.0050     0.0105     0.0264     0.0287     0.0341     0.0193     0.0000  1207.9999     0.0822     0.0043     0.0006     0.1190   124.0471     0.0000    -1.5764    25.7285   116.2282    23.9813     0.8857    26.2856     2.5018     0.3322     3.5059     9.1349    39.9053     0.0000    60.7748  -999.2500     0.1241  2745.9001
   5879.0000     0.0414     0.0009     0.0048     0.0103     0.0255     0.0254     0.0276     0.0248     0.0007  1207.8490     0.0785     0.0043     0.0006     0.1142   124.0471     0.0000    -1.5769    23.9271   116.2323    23.7401     0.8654    26.2695     2.5433     0.3571     3.4083     7.4974    39.9043     0.0000    64.5211  -999.2500     0.1198  2660.5000
   5879.5000     0.0380     0.0030     0.0040     0.0077     0.0233     0.0195     0.0219     0.0281     0.0027  1204.9918     0.0722     0.0039     0.0006     0.1032   124.0471     0.0000    -1.5773    26.1614   116.2364    26.8386     0.9906    29.8482     2.8034     0.4271     3.0123     5.4232    39.9033     0.0000    71.1641  -999.2500     0.1102  2696.0908
   5880.0000     0.0333     0.0071     0.0020     0.0053     0.0189     0.0129     0.0179     0.0268     0.0064  1205.8232     0.0640     0.0039     0.0006     0.0882   124.0471     0.0000    -1.5778    37.3181   116.2405    40.9759     1.5280    46.0991     4.1886     0.6993     2.0670     3.3142    39.9024     0.0000    75.9016  -999.2500     0.0973  2664.0000
   5880.5000     0.0275     0.0076     0.0020     0.0042     0.0138     0.0108     0.0186     0.0233     0.0061  1212.5887     0.0587     0.0039     0.0006     0.0766   124.0471     0.0000    -1.5782    55.2737   116.2446    57.8787     2.1629    65.2779     5.8897     1.0027     1.3249     2.5372    39.9014     0.0000    76.5340  -999.2500     0.0862  2625.2000
   5881.0000     0.0225     0.0037     0.0018     0.0079     0.0090     0.0110     0.0234     0.0188     0.0061  1221.2465     0.0593     0.0038     0.0006     0.0762   124.0471     0.0000    -1.5786    68.8219   116.2487    68.6635     2.5721    76.9256     6.9508     1.1870     1.4420     3.2456    39.9004     0.0000    89.8304  -999.2500     0.0817  2692.2000
   5881.5000     0.0229     0.0010     0.0021     0.0117     0.0081     0.0113     0.0273     0.0187     0.0057  1197.2130     0.0630     0.0037     0.0006     0.0828   124.0471     0.0000    -1.5790    69.7601   116.2528    66.4161     2.4823    73.2273     6.7564     0.9748     1.9573     4.1680    39.8994     0.0000    94.5168  -999.2500     0.0859  2669.6001
   5882.0000     0.0291     0.0016     0.0029     0.0131     0.0115     0.0108     0.0277     0.0244     0.0044  1199.4023     0.0673     0.0036     0.0006     0.0920   124.0471     0.0000    -1.5794    58.5250   116.2569    53.8713     2.0610    59.4709     5.2017     0.8114     2.5415     4.6719    39.8984     0.0000    85.8883  -999.2500     0.0965  2665.0000
   5882.5000     0.0367     0.0039     0.0038     0.0124     0.0166     0.0098     0.0249     0.0330     0.0024  1196.1674     0.0702     0.0040     0.0006     0.0991   124.0471     0.0000    -1.5798    45.9865   116.2610    41.9628     1.6132    46.0364     4.0062     0.5984     2.9966     4.7636    39.8974     0.0000    75.8086  -999.2500     0.1069  2657.3999
   5883.0000     0.0444     0.0092     0.0044     0.0097     0.0210     0.0096     0.0214     0.0405     0.0009  1194.6133     0.0724     0.0047     0.0006     0.1032   124.0471     0.0000    -1.5802    34.9418   116.2651    31.6947     1.2343    34.8285     2.9330     0.4426     2.9673     4.9619    39.8964     0.0000    63.5844  -999.2500     0.1167  2640.9001
   5883.5000     0.0457     0.0111     0.0055     0.0094     0.0198     0.0109     0.0251     0.0426     0.0005  1199.1073     0.0791     0.0045     0.0006     0.1083   124.0471     0.0000    -1.5806    29.5919   116.2692    27.1836     1.0803    29.7716     2.3887     0.3830     3.6448     7.5284    39.8954     0.0000    60.9367  -999.2500     0.1249  2649.5999
   5884.0000     0.0435     0.0096     0.0071     0.0103     0.0165     0.0124     0.0303     0.0422     0.0023  1191.0029     0.0872     0.0042     0.0006     0.1140   124.0471     0.0000    -1.5810    27.9809   116.2733    28.8137     1.1693    31.5663     2.3904     0.4097     5.6001    12.2213    39.8943     0.0000    68.0550  -999.2500     0.1307  2628.6362
   5884.5000     0.0388     0.0056     0.0085     0.0113     0.0134     0.0131     0.0344     0.0405     0.0057  1200.2583     0.0937     0.0042     0.0006     0.1184   124.0471     0.0000    -1.5815    31.6856   116.2774    31.5520     1.2919    34.2149     2.5499     0.3634     8.7802    18.3400    39.8932     0.0000    84.4277  -999.2500     0.1325  2639.9089
   5885.0000     0.0314     0.0007     0.0086     0.0113     0.0108     0.0127     0.0376     0.0370     0.0087  1184.0424     0.0961     0.0040     0.0006     0.1182   124.0471     0.0000    -1.5819    37.3954   116.2815    34.9645     1.4395    38.2481     2.7802     0.4390    12.5084    24.7256    39.8920     0.0000   108.8424  -999.2500     0.1275  2645.7000
   5885.5000     0.0292     0.0006     0.0085     0.0092     0.0109     0.0118     0.0309     0.0312     0.0095  1186.9796     0.0834     0.0038     0.0006     0.1035   124.0471     0.0000    -1.5824    49.5591   116.2856    44.4374     1.8412    48.9257     3.4643     0.5980     7.5501    13.7787    39.8908     0.0000   106.5502  -999.2500     0.1126  2645.7778
   5886.0000     0.0295     0.0020     0.0093     0.0084     0.0098     0.0103     0.0235     0.0255     0.0052  1185.1108     0.0646     0.0036     0.0006     0.0829   124.0471     0.0000    -1.5828    74.0223   116.2897    65.2561     2.7146    72.3324     5.0245     0.9157     2.9453     5.3967    39.8895     0.0000    77.7377  -999.2500     0.0941  2594.4446
   5886.5000     0.0308     0.0036     0.0099     0.0090     0.0083     0.0073     0.0206     0.0192     0.0014  1189.8112     0.0485     0.0035     0.0006     0.0658   124.0471     0.0000    -1.5833    99.1106   116.2938    92.2764     3.8463   101.9223     7.0600     1.2188     0.4758     1.1473    39.8882     0.0000    49.7317  -999.2500     0.0793  2652.5557
   5887.0000     0.0303     0.0036     0.0093     0.0103     0.0070     0.0039     0.0232     0.0142     0.0000  1182.1166     0.0414     0.0034     0.0006     0.0587   124.0471     0.0000    -1.5838   110.2468   116.2979   103.2254     4.3299   115.4949     7.7383     1.4980     0.1914     0.5302    39.8869     0.0000    41.2913  -999.2500     0.0717  2595.0002
   5887.5000     0.0244     0.0002     0.0063     0.0116     0.0063     0.0039     0.0281     0.0152     0.0000  1189.6216     0.0471     0.0035     0.0006     0.0650   124.0471     0.0000    -1.5844    92.9544   116.3020    91.1563     3.7874   101.4131     7.0459     1.2350     0.4096     0.9767    39.8856     0.0000    62.6080  -999.2500     0.0715  2599.2002
   5888.0000     0.0194     0.0000     0.0022     0.0074     0.0099     0.0086     0.0308     0.0234     0.0008  1190.7953     0.0636     0.0036     0.0006     0.0808   124.0471     0.0000    -1.5849    68.6797   116.3061    66.5942     2.7552    73.4563     5.2157     0.8073     2.6245     4.9298    39.8841     0.0000   109.1298  -999.2500     0.0830  2636.6362
   5888.5000     0.0165     0.0000     0.0007     0.0034     0.0124     0.0131     0.0305     0.0301     0.0027  1186.5405     0.0764     0.0036     0.0006     0.0922   124.0471     0.0000    -1.5854    48.4410   116.3102    46.1770     1.8940    50.7680     3.7133     0.5553     6.8406    10.5359    39.8827     0.0000   144.3538  -999.2500     0.0929  2607.2222
   5889.0000     0.0160     0.0019     0.0011     0.0009     0.0121     0.0160     0.0280     0.0338     0.0062  1190.3773     0.0841     0.0036     0.0006     0.0971   124.0471     0.0000    -1.5860    42.7071   116.3143    40.5374     1.6498    44.3039     3.3352     0.4352     9.6130    16.3623    39.8812     0.0000   154.9770  -999.2500     0.1001  2645.1001
