~VERSION INFORMATION
VERS.           1.2   :CWLS Log ASCII Standard - VERSION 1.2
WRAP.           NO    :One Line per depth step
PROD.  Schlumberger   :LAS Producer
PROG.  DLIS to ASCII 2.3                               :LAS Program name and version
CREA.        2015/05/06 16:26                          :LAS Creation date {YYYY/MM/DD hh:mm}
DLIS_CREA.  2015-May-04 11:59                          :DLIS Creation date and time {YYYY-MMM-DD hh:mm}
SOURCE.     301ad50a-0e97-4ef4-9f57-5a70afd84532       :DLIS File Name
#--------------------------------------------------
~WELL INFORMATION
#MNEM.UNIT      DATA             DESCRIPTION
#---- ------ --------------   -----------------------------
STRT .F      23.5000         :START DEPTH     
STOP .F      5264.5000       :STOP DEPTH     
STEP .F       0.5000         :STEP       
NULL .          -999.25      :NULL VALUE
COMP .                 COMPANY:  ADM COMPANY                        
WELL .                    WELL:  CCS#2                              
FLD  .                   FIELD:  WILDCAT                            
LOC  .                LOCATION:  Latitude: 39.885961                
CNTY .                  COUNTY:  MACON                              
STAT .                   STATE:  ILLINOIS                           
CTRY .                 COUNTRY:  USA                                
SRVC .         SERVICE COMPANY:  Schlumberger                       
LATI .DEG             LATITUDE:  39° 53' 9.46" N                    
LONG .DEG            LONGITUDE:  88° 53' 16.958" W                  
API  .              API NUMBER:  12-115-23713-00                    
DATE .                LOG DATE:  03-May-2015
UWI  .          UNIQUE WELL ID:                                     
#-----------------------------------------------------------------------------
~PARAMETER INFORMATION
#MNEM.UNIT    VALUE                      DESCRIPTION
#---- -----   --------------------       ------------------------
CN   .        ADM COMPANY                :Company Name
WN   .        CCS#2                      :Well Name
FN   .        WILDCAT                    :Field Name
FL   .        Latitude  39.885961        :Field Location
FL1  .        Longitude  -88.888044      :Field Location, Line 1
COUN .        MACON                      :County or Parish
STAT .        ILLINOIS                   :State or Province
NATI .        USA                        :Nation
DATE .        03-May-2015                :Tools Above Rotary Table Date
APIN .        12-115-23713-00            :API Well Number
SECT .        32                         :Section
TOWN .        17N                        :Township
RANG .        3E                         :Range
DMF  .        KB                         :Drilling Measured From (Name of Drilling Elevation Reference)
LMF  .        KB                         :Logging Measured From (Name of Logging Elevation Reference)
PDAT .        GL                         :Permanent Datum
ENGI .        Yazan Alhabahbeh           :Engineer s Name
WITN .        Nick Malkewicz             :Witness s Name
LATI .        39° 53' 9.46  N            :Latitude
LONG .        88° 53' 16.958  W          :Longitude
LUL  .        BRADFORD                   :Logging Unit Location
LUN  .        3019                       :Logging Unit Number
RUN  .        2B                         :Run Number
SON  .        D9QJ-00005                 :Service Order Number
BHT  .DEGF     132.00000                 :Bottom Hole Temperature
BS   .IN        17.50000                 :Bit Size
MDEN .G/C3       2.71000                 :Matrix Density for Density Porosity
DFD  .LB/G       9.15000                 :Drilling Fluid Density
DFV  .S         61.00000                 :Drilling Fluid Viscosity
DFL  .C3      -999.25000                 :Drilling Fluid Loss
RMFS .OHMM       0.16000                 :Resistivity of Mud Filtrate Sample
EKB  .F        691.19995                 :Elevation of Kelly Bushing
EGL  .F        675.69995                 :Elevation of Ground Level
BLI  .F       5252.00000                 :Bottom Log Interval
BSAL .PPM     14700.00000                :Borehole Salinity
FLEV .F          8.00000                 :Depth of Drilling Fluid Level to LMF (Log Measured From)
MCST .DEGF      74.30000                 :Mudcake Sample Temperature
MFST .DEGF      72.50000                 :Mud Filtrate Sample Temperature
MRT  .DEGF     135.00000                 :Maximum Recorded Temperature
MST  .DEGF      73.50000                 :Mud Sample Temperature
RMCS .OHMM       0.26600                 :Resistivity of Mud Cake Sample
RMS  .OHMM       0.19000                 :Resistivity of Mud Sample
RW   .OHMM       1.00000                 :Connate Water Resistivity
TDD  .F       5252.00000                 :Driller Total Depth
TDL  .F       5252.00000                 :Logger Total Depth
TLI  .F        200.00000                 :Top Log Interval
HIDE .        WILDCAT                    :Header Identifier
MATR .        LIME                       :Rock Matrix for Neutron Porosity Corrections
FNUM .           1.00000                 :F-Numerator for Formation Factor Formula
FEXP .           2.00000                 :Exponent "m" for Formation Factor Formula
DFT  .        SALT WATER                 :Drilling Fluid Type
DFPH .          11.00000                 :Drilling Fluid pH
MCSS .        Calculated                 :Mudcake Sample Source
MFSS .        Calculated                 :Mud Filtrate Sample Source
FD   .G/C3       1.00000                 :Fluid Density
MSS  .        Active Tank                :Mud Sample Source
OS1  .                                   :Other Services Line 1
OS2  .                                   :Other Services Line 2
OS3  .                                   :Other Services Line 3
OS4  .                                   :Other Services Line 4
OS5  .                                   :Other Services Line 5
R1   .        THANKS FOR CHOOSING

SCHLUMBERGER!!! :Remarks Line 1
R2   .        MATRIX  LIMESTONE          :Remarks Line 2
R3   .        MATRIX DENSITY  2.71 G/CC  :Remarks Line 3
R4   .        All WELL PROPERTIES PROVIDED BY

CLIENT . :Remarks Line 4
R5   .        ALL SCALES ON PRESENTATIONS AS PER

CLIENT REQUEST :Remarks Line 5
R6   .        Temp recorded by sensors inside the tool . :Remarks Line 6
R7   .                                   :Remarks Line 7
R8   .                                   :Remarks Line 8
TCS  .        04 45 00                   :Time Circulation Stopped
TLAB .        22 39 00                   :Time Logger At Bottom
EPD  .C3         675.699951              :Elevation of Permanent Datum above Mean Sea Level
APD  .F          15.500000               :Elevation of Depth Reference (LMF) above Permanent Datum
#-----------------------------------------------------------------------------
~CURVE INFORMATION
#MNEM.UNIT   API CODE                                  DESCRIPTION
#---- -----  --------                                  -----------------------
DEPT .F                                                :DEPTH (BOREHOLE) {F12.4}
C1   .IN                                               :Caliper 1 {F11.4}
C2   .IN                                               :Caliper 2 {F11.4}
CDF  .LBF                                              :Calibrated Downhole Force {F11.4}
CTEM .DEGF                                             :Cartridge Temperature {F11.4}
DCAL .IN                                               :Differential Caliper {F11.4}
DEVI .DEG                                              :Hole Deviation {F11.4}
DEVIM.DEG                                              :Memorized Deviation {F11.4}
DTCO .US/F                                             :Delta-T Compressional {F11.4}
DTSM .US/F                                             :Delta-T Shear {F11.4}
ED   .F                                                :East Departure {F11.4}
GR_EDTC.GAPI                                           :Gamma Ray {F11.4}
GTEM .DEGF                                             :Generalized Borehole Temperature {F11.4}
HAZI .DEG                                              :Hole Azimuth Relative to True North {F11.4}
HAZIM.DEG                                              :Hole Azimuth Relative to True North {F11.4}
ITT  .S                                                :Integrated Transit Time {F11.4}
ND   .F                                                :North Departure {F11.4}
P1AZ .DEG                                              :Pad 1 Azimuth in Horizontal Plane (0 = True North) {F11.4}
PR   .                                                 :Poisson s Ratio {F11.4}
RB   .DEG                                              :Relative Bearing {F11.4}
SDEV .DEG                                              :Sonde Deviation {F11.4}
SDEVM.DEG                                              :Sonde Deviation {F11.4}
SPHI .CFCF                                             :Sonic Porosity {F11.4}
STIT .F                                                :Stuck Tool Indicator, Total {F11.4}
TENS .LBF                                              :Cable Tension {F11.4}
#-----------------------------------------------------------------------------
# 
#      DEPT         C1         C2        CDF        CTEM       DCAL       DEVI      DEVIM       DTCO       DTSM        ED      GR_EDTC      GTEM       HAZI      HAZIM       ITT         ND        P1AZ        PR         RB        SDEV      SDEVM       SPHI       STIT       TENS
#
~A  
# ...
   1763.5000    19.5063    18.5329   236.0365   137.8823     1.4678     2.0729     2.1003    79.7898   147.0285     0.0000    66.4486    89.4897   331.5228   324.6629     0.2041     0.0000   100.6304     0.2913   129.1280     2.1802     2.2103     0.1789     0.0000  2039.3333
   1764.0000    19.4906    18.5478   233.5790   137.8823     1.4677     2.0691     2.0922    79.9212   146.6044     0.0000    69.3717    89.4958   331.3629   324.3152     0.2041     0.0000    99.9509     0.2886   128.6081     2.1760     2.2013     0.1799     0.0000  1993.2500
   1764.5000    19.4355    18.5143   235.8202   137.8823     1.5277     2.0672     2.0814    79.7519   146.7722     0.0000    70.2035    89.5019   331.2491   324.0099     0.2040     0.0000    98.9768     0.2905   127.7476     2.1734     2.1890     0.1786     0.0000  2006.6667
   1765.0000    19.5536    18.5664   233.3471   137.8823     1.5275     2.0642     2.0665    79.8697   147.1210     0.0000    74.4848    89.5080   331.1397   323.7331     0.2040     0.0000    98.3616     0.2911   127.2418     2.1707     2.1731     0.1795     0.0000  1993.7500
   1765.5000    19.5575    18.5664   230.5959   137.8823     1.5549     2.0613     2.0496    79.8191   146.8560     0.0000    70.4259    89.5141   331.0715   323.5030     0.2040     0.0000    97.7941     0.2904   126.7422     2.1674     2.1543     0.1791     0.0000  1984.3333
   1766.0000    19.6796    18.7340   237.4740   137.8823     1.5869     2.0580     2.0304    79.6242   146.8906     0.0000    67.1967    89.5202   330.9691   323.3046     0.2039     0.0000    97.2691     0.2920   126.3196     2.1650     2.1344     0.1776     0.0000  2038.4999
   1766.5000    19.7465    18.7824   232.2652   137.8823     1.5864     2.0578     2.0120    79.0271   146.5495     0.0000    68.7883    89.5263   330.8372   323.1411     0.2039     0.0000    97.0424     0.2950   126.2246     2.1653     2.1144     0.1731     0.0000  1947.5001
   1767.0000    19.6953    18.7787   239.2206   137.8823     1.5869     2.0595     1.9908    79.0071   146.5362     0.0000    71.1883    89.5324   330.7401   322.9679     0.2038     0.0000    96.6879     0.2951   125.9673     2.1670     2.0909     0.1730     0.0000  2059.6667
   1767.5000    19.5142    18.7861   235.8356   137.8823     1.6016     2.0630     1.9678    79.2052   146.0730     0.0000    72.9991    89.5385   330.5110   322.7921     0.2038     0.0000    96.3170     0.2918   125.8254     2.1703     2.0651     0.1745     0.0000  2042.2500
   1768.0000    19.6756    18.9053   231.8324   137.8823     1.6155     2.0680     1.9419    79.4084   145.8846     0.0000    69.0404    89.5445   330.2180   322.7004     0.2038     0.0000    95.8706     0.2895   125.6721     2.1770     2.0377     0.1760     0.0000  1974.2500
   1768.5000    19.7977    19.1474   233.8881   137.8823     1.5869     2.0743     1.9164    79.4874   146.5130     0.0000    67.3269    89.5506   329.7870   322.5893     0.2037     0.0000    95.4075     0.2914   125.6406     2.1858     2.0110     0.1766     0.0000  2000.5001
   1769.0000    19.6874    18.9091   237.1340   137.8823     1.5698     2.0830     1.8939    79.5974   146.7778     0.0000    63.3066    89.5567   329.2959   322.4828     0.2037     0.0000    95.1170     0.2917   125.8410     2.1936     1.9849     0.1774     0.0000  2090.5000
   1769.5000    19.6481    18.8010   234.5682   137.8823     1.5716     2.0912     1.8703    79.5534   146.8672     0.0000    65.7634    89.5628   328.8027   322.4496     0.2036     0.0000    94.9768     0.2924   126.1944     2.2021     1.9584     0.1771     0.0000  2019.0001
   1770.0000    19.6953    18.8942   229.7148   137.8823     1.6160     2.0981     1.8457    79.7242   146.8203     0.0000    66.6363    89.5689   328.2264   322.4292     0.2036     0.0000    94.2931     0.2909   126.0869     2.2104     1.9319     0.1784     0.0000  1969.7500
   1770.5000    19.6402    18.7713   232.2961   137.8823     1.5411     2.1045     1.8243    79.7364   147.2172     0.0000    72.8468    89.5750   327.6002   322.3982     0.2036     0.0000    94.1798     0.2924   126.6002     2.2167     1.9079     0.1785     0.0000  2014.0001
   1771.0000    19.5575    18.7824   233.7336   137.8823     1.5427     2.1095     1.8034    79.7852   148.0099     0.0000    73.0378    89.5811   326.9962   322.4231     0.2035     0.0000    93.9308     0.2952   126.9553     2.2222     1.8849     0.1788     0.0000  2041.0000
   1771.5000    19.4630    18.7861   231.1214   137.8823     1.5579     2.1122     1.7838    80.2050   148.2381     0.0000    74.5840    89.5872   326.4226   322.3767     0.2035     0.0000    93.6281     0.2930   127.2262     2.2249     1.8634     0.1820     0.0000  1986.0000
   1772.0000    19.4670    18.6558   241.3691   137.8823     1.6321     2.1133     1.7697    80.4049   148.3694     0.0000    69.9849    89.5933   325.9147   322.3770     0.2034     0.0000    93.6022     0.2921   127.7087     2.2254     1.8475     0.1835     0.0000  2041.5001
   1772.5000    19.6678    18.7824   236.9111   137.8823     1.8241     2.1094     1.7514    80.4791   148.9278     0.0000    68.3781    89.5994   325.4381   322.3651     0.2034     0.0000    93.1531     0.2938   127.7359     2.2224     1.8285     0.1841     0.0000  2049.5002
   1773.0000    19.8056    18.9575   234.2099   137.8823     1.8993     2.1038     1.7356    80.5713   149.0535     0.0000    69.5868    89.6055   324.9992   322.3548     0.2034     0.0000    93.6718     0.2936   128.6934     2.2178     1.8122     0.1847     0.0000  2013.2501
   1773.5000    20.0457    19.1214   239.5478   137.8823     1.9723     2.0956     1.7235    80.7234   149.1065     0.0000    74.1610    89.6116   324.6109   322.3950     0.2033     0.0000    93.3784     0.2927   128.7883     2.2103     1.8000     0.1859     0.0000  2055.2500
   1774.0000    20.1205    19.1810   241.9873   137.8823     2.0323     2.0851     1.7126    80.7684   148.9481     0.0000    73.3085    89.6177   324.2726   322.5225     0.2033     0.0000    93.0852     0.2917   128.8332     2.1993     1.7886     0.1862     0.0000  2088.3335
   1774.5000    20.3017    19.2480   235.4492   137.8823     2.0156     2.0751     1.7035    81.8067   148.5921     0.0000    67.9000    89.6238   324.0099   322.6457     0.2032     0.0000    92.9213     0.2825   128.9319     2.1890     1.7792     0.1940     0.0000  2009.6669
   1775.0000    20.3765    19.3746   238.7569   137.8823     2.0769     2.0599     1.6955    82.7280   149.1506     0.0000    65.3137    89.6298   323.7331   322.8083     0.2032     0.0000    92.6802     0.2778   128.9672     2.1731     1.7710     0.2010     0.0000  2026.5000
   1775.5000    20.4119    19.3672   236.0365   137.8823     2.0321     2.0430     1.6884    82.8029   150.1063     0.0000    66.6442    89.6359   323.5030   323.0419     0.2032     0.0000    92.2389     0.2813   128.7554     2.1543     1.7634     0.2015     0.0000  2057.0000
   1776.0000    20.4198    19.3076   235.6502   137.8823     2.0318     2.0254     1.6834    83.4601   149.9373     0.0000    67.2969    89.6420   323.3046   323.2740     0.2031     0.0000    92.0153     0.2755   128.7300     2.1344     1.7577     0.2065     0.0000  1975.6666
   1776.5000    20.3489    19.3970   230.3486   137.8823     2.0892     2.0045     1.6761    83.1153   149.4577     0.0000    69.2020    89.6481   323.0963   323.5556     0.2031     0.0000    91.9014     0.2761   128.8240     2.1114     1.7500     0.2039     0.0000  1963.5000
   1777.0000    20.3568    19.4640   234.5836   137.8823     2.1038     1.9811     1.6678    83.9019   149.8614     0.0000    71.0665    89.6542   322.9252   323.8897     0.2030     0.0000    91.6243     0.2717   128.7175     2.0858     1.7411     0.2098     0.0000  2000.7500
   1777.5000    20.3489    19.4566   235.2019   137.8823     2.0885     1.9580     1.6568    83.4314   150.1604     0.0000    71.9352    89.6603   322.8098   324.3428     0.2030     0.0000    91.5723     0.2767   128.7806     2.0602     1.7291     0.2063     0.0000  2025.9999
