~VERSION INFORMATION
VERS.           1.2   :CWLS Log ASCII Standard - VERSION 1.2
WRAP.           NO    :One Line per depth step
PROD.  Schlumberger   :LAS Producer
PROG.  DLIS to ASCII 2.3                               :LAS Program name and version
CREA.        2015/05/06 16:26                          :LAS Creation date {YYYY/MM/DD hh:mm}
DLIS_CREA.  2015-May-04 11:59                          :DLIS Creation date and time {YYYY-MMM-DD hh:mm}
SOURCE.     301ad50a-0e97-4ef4-9f57-5a70afd84532       :DLIS File Name
#--------------------------------------------------
~WELL INFORMATION
#MNEM.UNIT      DATA             DESCRIPTION
#---- ------ --------------   -----------------------------
STRT .F      23.5000         :START DEPTH     
STOP .F      5264.5000       :STOP DEPTH     
STEP .F       0.5000         :STEP       
NULL .          -999.25      :NULL VALUE
COMP .                 COMPANY:  ADM COMPANY                        
WELL .                    WELL:  CCS#2                              
FLD  .                   FIELD:  WILDCAT                            
LOC  .                LOCATION:  Latitude: 39.885961                
CNTY .                  COUNTY:  MACON                              
STAT .                   STATE:  ILLINOIS                           
CTRY .                 COUNTRY:  USA                                
SRVC .         SERVICE COMPANY:  Schlumberger                       
LATI .DEG             LATITUDE:  39° 53' 9.46" N                    
LONG .DEG            LONGITUDE:  88° 53' 16.958" W                  
API  .              API NUMBER:  12-115-23713-00                    
DATE .                LOG DATE:  03-May-2015
UWI  .          UNIQUE WELL ID:                                     
#-----------------------------------------------------------------------------
~PARAMETER INFORMATION
#MNEM.UNIT    VALUE                      DESCRIPTION
#---- -----   --------------------       ------------------------
CN   .        ADM COMPANY                :Company Name
WN   .        CCS#2                      :Well Name
FN   .        WILDCAT                    :Field Name
FL   .        Latitude  39.885961        :Field Location
FL1  .        Longitude  -88.888044      :Field Location, Line 1
COUN .        MACON                      :County or Parish
STAT .        ILLINOIS                   :State or Province
NATI .        USA                        :Nation
DATE .        03-May-2015                :Tools Above Rotary Table Date
APIN .        12-115-23713-00            :API Well Number
SECT .        32                         :Section
TOWN .        17N                        :Township
RANG .        3E                         :Range
DMF  .        KB                         :Drilling Measured From (Name of Drilling Elevation Reference)
LMF  .        KB                         :Logging Measured From (Name of Logging Elevation Reference)
PDAT .        GL                         :Permanent Datum
ENGI .        Yazan Alhabahbeh           :Engineer s Name
WITN .        Nick Malkewicz             :Witness s Name
LATI .        39° 53' 9.46  N            :Latitude
LONG .        88° 53' 16.958  W          :Longitude
LUL  .        BRADFORD                   :Logging Unit Location
LUN  .        3019                       :Logging Unit Number
RUN  .        2B                         :Run Number
SON  .        D9QJ-00005                 :Service Order Number
BHT  .DEGF     132.00000                 :Bottom Hole Temperature
BS   .IN        17.50000                 :Bit Size
MDEN .G/C3       2.71000                 :Matrix Density for Density Porosity
DFD  .LB/G       9.15000                 :Drilling Fluid Density
DFV  .S         61.00000                 :Drilling Fluid Viscosity
DFL  .C3      -999.25000                 :Drilling Fluid Loss
RMFS .OHMM       0.16000                 :Resistivity of Mud Filtrate Sample
EKB  .F        691.19995                 :Elevation of Kelly Bushing
EGL  .F        675.69995                 :Elevation of Ground Level
BLI  .F       5252.00000                 :Bottom Log Interval
BSAL .PPM     14700.00000                :Borehole Salinity
FLEV .F          8.00000                 :Depth of Drilling Fluid Level to LMF (Log Measured From)
MCST .DEGF      74.30000                 :Mudcake Sample Temperature
MFST .DEGF      72.50000                 :Mud Filtrate Sample Temperature
MRT  .DEGF     135.00000                 :Maximum Recorded Temperature
MST  .DEGF      73.50000                 :Mud Sample Temperature
RMCS .OHMM       0.26600                 :Resistivity of Mud Cake Sample
RMS  .OHMM       0.19000                 :Resistivity of Mud Sample
RW   .OHMM       1.00000                 :Connate Water Resistivity
TDD  .F       5252.00000                 :Driller Total Depth
TDL  .F       5252.00000                 :Logger Total Depth
TLI  .F        200.00000                 :Top Log Interval
HIDE .        WILDCAT                    :Header Identifier
MATR .        LIME                       :Rock Matrix for Neutron Porosity Corrections
FNUM .           1.00000                 :F-Numerator for Formation Factor Formula
FEXP .           2.00000                 :Exponent "m" for Formation Factor Formula
DFT  .        SALT WATER                 :Drilling Fluid Type
DFPH .          11.00000                 :Drilling Fluid pH
MCSS .        Calculated                 :Mudcake Sample Source
MFSS .        Calculated                 :Mud Filtrate Sample Source
FD   .G/C3       1.00000                 :Fluid Density
MSS  .        Active Tank                :Mud Sample Source
OS1  .                                   :Other Services Line 1
OS2  .                                   :Other Services Line 2
OS3  .                                   :Other Services Line 3
OS4  .                                   :Other Services Line 4
OS5  .                                   :Other Services Line 5
R1   .        THANKS FOR CHOOSING

SCHLUMBERGER!!! :Remarks Line 1
R2   .        MATRIX  LIMESTONE          :Remarks Line 2
R3   .        MATRIX DENSITY  2.71 G/CC  :Remarks Line 3
R4   .        All WELL PROPERTIES PROVIDED BY

CLIENT . :Remarks Line 4
R5   .        ALL SCALES ON PRESENTATIONS AS PER

CLIENT REQUEST :Remarks Line 5
R6   .        Temp recorded by sensors inside the tool . :Remarks Line 6
R7   .                                   :Remarks Line 7
R8   .                                   :Remarks Line 8
TCS  .        04 45 00                   :Time Circulation Stopped
TLAB .        22 39 00                   :Time Logger At Bottom
EPD  .C3         675.699951              :Elevation of Permanent Datum above Mean Sea Level
APD  .F          15.500000               :Elevation of Depth Reference (LMF) above Permanent Datum
#-----------------------------------------------------------------------------
~CURVE INFORMATION
#MNEM.UNIT   API CODE                                  DESCRIPTION
#---- -----  --------                                  -----------------------
DEPT .F                                                :DEPTH (BOREHOLE) {F12.4}
C1   .IN                                               :Caliper 1 {F11.4}
C2   .IN                                               :Caliper 2 {F11.4}
CDF  .LBF                                              :Calibrated Downhole Force {F11.4}
CTEM .DEGF                                             :Cartridge Temperature {F11.4}
DCAL .IN                                               :Differential Caliper {F11.4}
DEVI .DEG                                              :Hole Deviation {F11.4}
DEVIM.DEG                                              :Memorized Deviation {F11.4}
DTCO .US/F                                             :Delta-T Compressional {F11.4}
DTSM .US/F                                             :Delta-T Shear {F11.4}
ED   .F                                                :East Departure {F11.4}
GR_EDTC.GAPI                                           :Gamma Ray {F11.4}
GTEM .DEGF                                             :Generalized Borehole Temperature {F11.4}
HAZI .DEG                                              :Hole Azimuth Relative to True North {F11.4}
HAZIM.DEG                                              :Hole Azimuth Relative to True North {F11.4}
ITT  .S                                                :Integrated Transit Time {F11.4}
ND   .F                                                :North Departure {F11.4}
P1AZ .DEG                                              :Pad 1 Azimuth in Horizontal Plane (0 = True North) {F11.4}
PR   .                                                 :Poisson s Ratio {F11.4}
RB   .DEG                                              :Relative Bearing {F11.4}
SDEV .DEG                                              :Sonde Deviation {F11.4}
SDEVM.DEG                                              :Sonde Deviation {F11.4}
SPHI .CFCF                                             :Sonic Porosity {F11.4}
STIT .F                                                :Stuck Tool Indicator, Total {F11.4}
TENS .LBF                                              :Cable Tension {F11.4}
#-----------------------------------------------------------------------------
# 
#      DEPT         C1         C2        CDF        CTEM       DCAL       DEVI      DEVIM       DTCO       DTSM        ED      GR_EDTC      GTEM       HAZI      HAZIM       ITT         ND        P1AZ        PR         RB        SDEV      SDEVM       SPHI       STIT       TENS
#
~A  
# ...
   3503.5000    19.3488    18.1232   243.7114   139.8588     0.9112     1.4143     1.5550    57.6730    94.4963     0.0000    32.5181   110.6931   285.1815   281.7608     0.0906     0.0000   289.8274     0.2032     4.6447     1.4647     1.6162     0.0126     0.0000  2535.3333
   3504.0000    19.2937    18.1157   240.6581   139.8588     0.8814     1.4373     1.5500    57.6784    95.8501     0.0000    30.1337   110.6992   285.1015   281.5621     0.0906     0.0000   291.4281     0.2162     6.3251     1.4892     1.6106     0.0126     0.0000  2557.6667
   3504.5000    19.2937    18.1195   245.0688   139.8588     0.8218     1.4563     1.5425    57.8019    95.9947     0.0000    26.1774   110.7053   284.9280   281.3344     0.0906     0.0000   292.5110     0.2156     7.5806     1.5096     1.6026     0.0135     0.0000  2598.0002
   3505.0000    19.0968    18.1157   241.6754   139.8588     0.8100     1.4758     1.5391    57.8105    95.9669     0.0000    23.6983   110.7113   284.7577   281.1763     0.0905     0.0000   292.8793     0.2152     8.1185     1.5298     1.5980     0.0136     0.0000  2518.0000
   3505.5000    19.0457    18.0189   243.2589   139.8588     0.8090     1.4915     1.5295    56.9911    95.2837     0.0000    22.1738   110.7174   284.5771   280.9906     0.0905     0.0000   292.2023     0.2215     7.6224     1.5464     1.5874     0.0075     0.0000  2612.0000
   3506.0000    19.0535    17.9519   241.2391   139.8588     0.8069     1.5036     1.5211    56.9559    96.3060     0.0000    23.6139   110.7235   284.3344   280.8881     0.0905     0.0000   291.9288     0.2311     7.5918     1.5595     1.5784     0.0072     0.0000  2525.3333
   3506.5000    19.0142    18.0040   239.2192   139.8588     0.8218     1.5143     1.5113    59.6971    95.3999     0.0000    23.9767   110.7296   284.1693   280.8040     0.0904     0.0000   291.9065     0.1782     7.7345     1.5709     1.5676     0.0278     0.0000  2501.7500
   3507.0000    18.9905    17.9891   239.8655   139.8588     0.8100     1.5252     1.5006    60.2968    94.8836     0.0000    26.0975   110.7357   283.9188   280.8021     0.0904     0.0000   291.8579     0.1613     7.9365     1.5825     1.5560     0.0323     0.0000  2509.0000
   3507.5000    19.0496    17.9444   238.3304   139.8588     0.7918     1.5297     1.4879    60.6336    95.9012     0.0000    25.4917   110.7418   283.8006   280.7820     0.0904     0.0000   292.0531     0.1670     8.2492     1.5876     1.5426     0.0348     0.0000  2483.0000
   3508.0000    18.9945    17.9146   236.1651   139.8588     0.7469     1.5387     1.4785    60.4796    95.9421     0.0000    28.4666   110.7479   283.5734   280.8236     0.0904     0.0000   292.0538     0.1703     8.4771     1.5971     1.5322     0.0337     0.0000  2491.2502
   3508.5000    18.8685    17.8476   242.3702   139.8588     0.7351     1.5461     1.4669    59.9744    94.9942     0.0000    30.2696   110.7540   283.4370   280.8188     0.0903     0.0000   291.9334     0.1686     8.4929     1.6044     1.5192     0.0299     0.0000  2533.0000
   3509.0000    18.6086    17.7954   240.0918   139.8588     0.7629     1.5523     1.4598    59.4774    95.2066     0.0000    32.1083   110.7601   283.2984   280.8802     0.0903     0.0000   291.4907     0.1800     8.1894     1.6100     1.5107     0.0261     0.0000  2500.3335
   3509.5000    18.6007    17.7768   240.5604   139.8588     0.7169     1.5584     1.4512    56.4756    96.2384     0.0000    28.7211   110.7662   283.1760   280.8626     0.0903     0.0000   291.4189     0.2374     8.2395     1.6165     1.5014     0.0036     0.0000  2512.7502
   3510.0000    18.5692    17.7731   239.6716   139.8588     0.7620     1.5624     1.4453    55.9076    96.6629     0.0000    26.4019   110.7723   283.0312   280.8861     0.0902     0.0000   291.5646     0.2487     8.5305     1.6207     1.4950    -0.0007     0.0000  2504.3333
   3510.5000    19.1756    17.7805   240.7866   139.8588     0.9731     1.5651     1.4385    55.4869    95.2896     0.0000    22.6635   110.7784   282.8989   280.9057     0.0902     0.0000   291.4114     0.2435     8.5086     1.6263     1.4900    -0.0039     0.0000  2499.7500
   3511.0000    19.1520    17.7954   240.8744   139.8588     1.0039     1.5657     1.4345    54.7632    95.4870     0.0000    22.3114   110.7845   282.7206   280.9299     0.0902     0.0000   290.6111     0.2549     7.8874     1.6269     1.4857    -0.0093     0.0000  2495.0002
   3511.5000    19.2937    18.0599   239.6878   139.8588     1.0039     1.5675     1.4306    54.3332    95.1219     0.0000    21.1316   110.7905   282.5341   280.9630     0.0902     0.0000   289.3935     0.2579     6.8570     1.6295     1.4820    -0.0125     0.0000  2492.2500
   3512.0000    19.2937    18.1157   242.8065   139.8588     0.9861     1.5643     1.4262    53.0981    94.3408     0.0000    23.7355   110.7966   282.3806   280.9854     0.0901     0.0000   288.3156     0.2682     5.9326     1.6261     1.4773    -0.0218     0.0000  2541.0000
   3512.5000    19.2898    18.1232   244.8425   139.8588     1.0161     1.5627     1.4224    55.6923    93.8334     0.0000    27.3452   110.8027   282.1805   280.9843     0.0901     0.0000   287.0119     0.2281     4.8298     1.6243     1.4732    -0.0023     0.0000  2560.2500
   3513.0000    19.2858    18.1753   245.2789   139.8588     1.0010     1.5590     1.4171    56.1315    93.4534     0.0000    31.1353   110.8088   281.9801   281.0660     0.0901     0.0000   286.8745     0.2178     4.8930     1.6203     1.4675     0.0010     0.0000  2575.2500
   3513.5000    19.2780    18.1753   240.3180   139.8588     1.0170     1.5537     1.4121    56.4240    93.2442     0.0000    32.7329   110.8149   281.7596   281.0859     0.0900     0.0000   287.8149     0.2111     6.0525     1.6146     1.4621     0.0032     0.0000  2565.2500
   3514.0000    19.2937    18.1828   239.4131   139.8588     1.0490     1.5488     1.4048    57.2900    93.6826     0.0000    32.8811   110.8210   281.5043   281.1884     0.0900     0.0000   288.2949     0.2013     6.7878     1.6093     1.4544     0.0097     0.0000  2555.3335
   3514.5000    19.3488    18.2200   241.2229   139.8588     1.0181     1.5423     1.3991    56.0326    93.5982     0.0000    35.0078   110.8271   281.3344   281.3285     0.0900     0.0000   287.5752     0.2207     6.2382     1.6026     1.4485     0.0002     0.0000  2486.5000
   3515.0000    19.3370    18.2126   242.1278   139.8588     1.0032     1.5359     1.3911    58.0515    94.8471     0.0000    37.1100   110.8332   281.1185   281.5253     0.0900     0.0000   286.5318     0.2005     5.4110     1.5956     1.4399     0.0154     0.0000  2580.0000
   3515.5000    19.3410    18.2312   244.7941   139.8588     1.0163     1.5277     1.3850    60.0950    95.4912     0.0000    37.6701   110.8393   280.9673   281.8146     0.0899     0.0000   286.2182     0.1721     5.2491     1.5868     1.4332     0.0308     0.0000  2561.6667
   3516.0000    19.3567    18.2275   245.9575   139.8588     1.0161     1.5198     1.3789    60.6423    95.8962     0.0000    35.0486   110.8454   280.8881   282.1729     0.0899     0.0000   286.1866     0.1668     5.2969     1.5784     1.4267     0.0349     0.0000  2533.0000
   3516.5000    19.3488    18.2349   243.2589   139.8588     1.0010     1.5091     1.3739    60.8678    96.2243     0.0000    34.9784   110.8515   280.8274   282.5706     0.0899     0.0000   286.2000     0.1665     5.3709     1.5667     1.4213     0.0366     0.0000  2552.7500
   3517.0000    19.3646    18.2275   240.9967   139.8588     1.0338     1.4964     1.3699    61.1621    96.6282     0.0000    38.8985   110.8576   280.7732   283.0458     0.0898     0.0000   287.0253     0.1658     6.2503     1.5531     1.4171     0.0388     0.0000  2522.7500
   3517.5000    19.3567    18.2424   243.2589   139.8588     1.0461     1.4867     1.3672    61.4869    97.8254     0.0000    44.3664   110.8637   280.7820   283.5198     0.0898     0.0000   287.9652     0.1735     7.1805     1.5426     1.4142     0.0413     0.0000  2510.4998
