~VERSION INFORMATION
VERS.           1.2   :CWLS Log ASCII Standard - VERSION 1.2
WRAP.           NO    :One Line per depth step
PROD.  Schlumberger   :LAS Producer
PROG.  DLIS to ASCII 2.3                               :LAS Program name and version
CREA.        2015/01/14 20:42                          :LAS Creation date {YYYY/MM/DD hh:mm}
DLIS_CREA.  2015-Jan-14 13:26                          :DLIS Creation date and time {YYYY-MMM-DD hh:mm}
SOURCE.     b1232dd5-b707-4891-82b9-d24dcc6cb5d4       :DLIS File Name
#--------------------------------------------------
~WELL INFORMATION
#MNEM.UNIT      DATA             DESCRIPTION
#---- ------ --------------   -----------------------------
STRT .F      -8.0000         :START DEPTH     
STOP .F      352.5000        :STOP DEPTH     
STEP .F       0.5000         :STEP       
NULL .          -999.25      :NULL VALUE
COMP .                 COMPANY:  ADM Company                        
WELL .                    WELL:  CCS#2                              
FLD  .                   FIELD:  Wildcat                            
LOC  .                LOCATION:  Latitude: 39.885961                
CNTY .                  COUNTY:  Macon                              
STAT .                   STATE:  Illinois                           
CTRY .                 COUNTRY:  USA                                
SRVC .         SERVICE COMPANY:  Schlumberger                       
LATI .DEG             LATITUDE:  39° 53' 9.46" N                    
LONG .DEG            LONGITUDE:  88° 53' 16.959" W                  
API  .              API NUMBER:  12-115-23713-00                    
DATE .                LOG DATE:  13-Jan-2015
UWI  .          UNIQUE WELL ID:                                     
#-----------------------------------------------------------------------------
~PARAMETER INFORMATION
#MNEM.UNIT    VALUE                      DESCRIPTION
#---- -----   --------------------       ------------------------
CN   .        ADM Company                :Company Name
WN   .        CCS#2                      :Well Name
FN   .        Wildcat                    :Field Name
FL   .        Latitude  39.885961        :Field Location
FL1  .        Longitude  -88.888044      :Field Location, Line 1
COUN .        Macon                      :County or Parish
STAT .        Illinois                   :State or Province
NATI .        USA                        :Nation
DATE .        13-Jan-2015                :Tools Above Rotary Table Date
APIN .        12-115-23713-00            :API Well Number
SECT .        32                         :Section
TOWN .        17N                        :Township
RANG .        3E                         :Range
DMF  .        KB                         :Drilling Measured From (Name of Drilling Elevation Reference)
LMF  .        KB                         :Logging Measured From (Name of Logging Elevation Reference)
PDAT .        GL                         :Permanent Datum
ENGI .        Devin Arnold               :Engineer s Name
WITN .        Nick Malkewicz             :Witness s Name
LATI .        39° 53' 9.46  N            :Latitude
LONG .        88° 53' 16.959  W          :Longitude
LUL  .        Bradford                   :Logging Unit Location
LUN  .        3095                       :Logging Unit Number
RUN  .        2                          :Run Number
SON  .        D71E-00006                 :Service Order Number
BHT  .DEGF      58.00000                 :Bottom Hole Temperature
BS   .IN        26.00000                 :Bit Size
MDEN .G/C3       2.71000                 :Matrix Density for Density Porosity
DFD  .LB/G      10.10000                 :Drilling Fluid Density
DFV  .S       -999.25000                 :Drilling Fluid Viscosity
DFL  .C3      -999.25000                 :Drilling Fluid Loss
RMFS .OHMM       1.23200                 :Resistivity of Mud Filtrate Sample
EKB  .F        691.19995                 :Elevation of Kelly Bushing
EGL  .F        675.69995                 :Elevation of Ground Level
BLI  .F        345.00000                 :Bottom Log Interval
BSAL .PPM        0.00000                 :Borehole Salinity
FLEV .F          8.00000                 :Depth of Drilling Fluid Level to LMF (Log Measured From)
MCST .DEGF      42.80000                 :Mudcake Sample Temperature
MFST .DEGF      42.80000                 :Mud Filtrate Sample Temperature
MRT  .DEGF      58.00000                 :Maximum Recorded Temperature
MST  .DEGF      42.80000                 :Mud Sample Temperature
RMCS .OHMM       1.84800                 :Resistivity of Mud Cake Sample
RMS  .OHMM       1.54000                 :Resistivity of Mud Sample
RW   .OHMM       1.00000                 :Connate Water Resistivity
TDD  .F        349.00000                 :Driller Total Depth
TDL  .F        349.00000                 :Logger Total Depth
TLI  .F         50.00000                 :Top Log Interval
HIDE .        Wildcat                    :Header Identifier
MATR .        LIME                       :Rock Matrix for Neutron Porosity Corrections
FNUM .           1.00000                 :F-Numerator for Formation Factor Formula
FEXP .           2.00000                 :Exponent "m" for Formation Factor Formula
DFT  .        Fresh Mud                  :Drilling Fluid Type
DFPH .        -999.25000                 :Drilling Fluid pH
MCSS .        Calculated                 :Mudcake Sample Source
MFSS .        Calculated                 :Mud Filtrate Sample Source
FD   .G/C3       1.00000                 :Fluid Density
MSS  .        Active Tank                :Mud Sample Source
OS1  .                                   :Other Services Line 1
OS2  .                                   :Other Services Line 2
OS3  .                                   :Other Services Line 3
OS4  .                                   :Other Services Line 4
OS5  .                                   :Other Services Line 5
R1   .        Matrix Density  Limestone. :Remarks Line 1
R2   .        Mud Sample taken on location. :Remarks Line 2
R3   .        Presentations as per client request. :Remarks Line 3
R4   .        No Chemical Sources ran due to possible potable water zones. :Remarks Line 4
R5   .        Bottom Hole Temperature taken from GM2 temperature log provided by the client. 58degF :Remarks Line 5
R6   .                                   :Remarks Line 6
R7   .                                   :Remarks Line 7
R8   .                                   :Remarks Line 8
TCS  .        19 45 00                   :Time Circulation Stopped
TLAB .        03 30 00                   :Time Logger At Bottom
EPD  .C3         675.699951              :Elevation of Permanent Datum above Mean Sea Level
APD  .F          15.500000               :Elevation of Depth Reference (LMF) above Permanent Datum
#-----------------------------------------------------------------------------
~CURVE INFORMATION
#MNEM.UNIT   API CODE                                  DESCRIPTION
#---- -----  --------                                  -----------------------
DEPT .F                                                :DEPTH (BOREHOLE) {F12.4}
CDF  .LBF                                              :Calibrated Downhole Force {F11.4}
CTEM .DEGF                                             :Cartridge Temperature {F11.4}
DCAL .IN                                               :Differential Caliper {F11.4}
DT   .US/F                                             :Delta-T (also called Slowness or Interval Transit Time) {F11.4}
ED   .F                                                :East Departure {F11.4}
GR_EDTC.GAPI                                           :Gamma Ray {F11.4}
GTEM .DEGF                                             :Generalized Borehole Temperature {F11.4}
HAZI .DEG                                              :Hole Azimuth Relative to True North {F11.4}
HAZIM.DEG                                              :Memorized Hole Azimuth {F11.4}
ITT  .S                                                :Integrated Transit Time {F11.4}
ND   .F                                                :North Departure {F11.4}
P1AZ .DEG                                              :Pad 1 Azimuth in Horizontal Plane (0 = True North) {F11.4}
RB   .DEG                                              :Relative Bearing {F11.4}
SDEV .DEG                                              :Sonde Deviation {F11.4}
SDEVM.DEG                                              :Memorized Sonde Deviation {F11.4}
SPHI .CFCF                                             :Sonic Porosity {F11.4}
STIT .F                                                :Stuck Tool Indicator, Total {F11.4}
TENS .LBF                                              :Cable Tension {F11.4}
#-----------------------------------------------------------------------------
# 
#      DEPT        CDF        CTEM       DCAL        DT         ED      GR_EDTC      GTEM       HAZI      HAZIM       ITT         ND        P1AZ        RB        SDEV      SDEVM       SPHI       STIT       TENS
#
~A  
# ...
     11.0000   712.1258    82.5412   -23.7903  -253.5628     0.0066    50.4426    54.6201   208.6292     3.2009     0.0000    -0.0364   170.2678   321.6590     2.1830     2.4635  -999.2500     0.0000   632.0400
     11.5000   708.9097    82.5412   -23.7903  -253.7375     0.0072    50.5772    54.6251   198.3733     3.2012     0.0000    -0.0398   159.6195   321.2645     2.0575     2.4634  -999.2500     0.0000   602.1667
     12.0000   706.5267    82.5412   -23.7903  -254.3332     0.0079    48.9281    54.6301   187.1914     3.2027     0.0000    -0.0433   145.7665   318.5917     1.9539     2.4633  -999.2500     0.0000   571.9167
     12.5000   704.8712    82.5412   -23.7903  -254.2628     0.0086    43.8066    54.6351   173.9751     3.2020     0.0000    -0.0470   127.7548   313.7950     1.8764     2.4633  -999.2500     0.0000   581.9167
     13.0000   702.3969    82.5412   -23.7903  -254.7616     0.0092    42.8003    54.6401   159.5047     3.2043     0.0000    -0.0508   108.0692   308.5788     1.8425     2.4632  -999.2500     0.0000   626.2083
     13.5000   700.0388    82.5412   -23.7903  -255.2383     0.0100    43.2859    54.6451   142.6267     3.2028     0.0000    -0.0548    86.6335   304.0205     1.8626     2.4633  -999.2500     0.0000   562.7500
     14.0000   697.9650    82.5412   -23.7903  -256.2548     0.0107    45.6274    54.6501   129.4752     3.2032     0.0000    -0.0589    71.1536   301.6926     1.9243     2.4633  -999.2500     0.0000   545.4167
     14.5000   695.8415    82.5412   -23.7903  -255.9293     0.0115    46.0874    54.6551   118.1645     3.2039     0.0000    -0.0632    59.2712   301.1225     2.0094     2.4634  -999.2500     0.0000   576.4400
     15.0000   693.3530    82.5412   -23.7903  -255.3751     0.0123    46.4410    54.6601   108.7979     3.2041     0.0000    -0.0677    50.5266   301.7457     2.0999     2.4634  -999.2500     0.0000   561.2084
     15.5000   691.7586    82.5412   -23.7903  -254.8179     0.0132    45.2015    54.6651   100.0944     3.2041     0.0000    -0.0723    42.9218   302.8463     2.1952     2.4635  -999.2500     0.0000   596.2500
     16.0000   690.4106    82.5412   -23.7903  -254.5128     0.0140    42.7386    54.6701    94.2104     3.2042     0.0000    -0.0770    37.9210   303.7313     2.2610     2.4635  -999.2500     0.0000   629.8333
     16.5000   687.8356    82.5412   -23.7903  -254.7971     0.0149    42.4049    54.6751    89.5152     3.2045     0.0000    -0.0819    34.0129   304.5192     2.3102     2.4636  -999.2500     0.0000   589.5417
     17.0000   686.5002    82.5412   -23.7903  -254.9543     0.0158    43.1271    54.6801    85.2747     3.2048     0.0000    -0.0869    30.7167   305.4649     2.3488     2.4636  -999.2500     0.0000   650.0416
     17.5000   683.8541    82.5412   -23.7903  -254.1238     0.0168    44.8020    54.6851    82.5441     3.2053     0.0000    -0.0920    28.6125   306.0918     2.3689     2.4636  -999.2500     0.0000   579.8334
     18.0000   682.7674    82.5412   -23.7903  -254.3929     0.0178    46.3531    54.6901    80.5553     3.2054     0.0000    -0.0970    27.0907   306.5593     2.3806     2.4636  -999.2500     0.0000   645.5417
     18.5000   679.9348    82.5412   -23.7903  -254.4597     0.0189    46.8649    54.6951    79.8246     3.2051     0.0000    -0.1018    25.8172   306.0161     2.3824     2.4636  -999.2500     0.0000   641.4800
     19.0000   677.4053    82.5412   -23.7903  -254.8257     0.0200    47.5100    54.7001    78.9711     3.2047     0.0000    -0.1066    24.8323   305.8850     2.3859     2.4636  -999.2500     0.0000   648.9615
     19.5000   675.6277    82.5412   -23.7903  -254.8316     0.0212    45.9750    54.7051    78.9091     3.2036     0.0000    -0.1114    24.5497   305.6642     2.3840     2.4635  -999.2500     0.0000   677.7600
     20.0000   675.0234    82.5412   -23.7903  -254.7999     0.0225    46.8577    54.7101    79.9956     3.2026     0.0000    -0.1160    25.1529   305.1806     2.3768     2.4635  -999.2500     0.0000   586.1539
     20.5000   672.1320    82.5412   -23.7903  -254.6686     0.0238    47.4433    54.7151    77.0054     3.2007     0.0000    -0.1206    26.6576   309.6763     2.3858     2.4634  -999.2500     0.0000   572.1539
     21.0000   669.5904    82.5412   -23.7903  -254.5741     0.0252    48.4826    54.7201    79.2554     3.1991     0.0000    -0.1251    29.1690   309.9380     2.3897     2.4632  -999.2500     0.0000   532.4828
     21.5000   666.5292    82.5412   -23.7903  -254.4517     0.0266    47.1506    54.7251    82.7235     3.1963     0.0000    -0.1295    32.6487   309.9500     2.3872     2.4632  -999.2500     0.0000   538.6774
     22.0000   663.0703    82.5412   -23.7903  -254.4219     0.0281    47.1759    54.7301    87.1407     3.1945     0.0000    -0.1337    37.0110   309.8943     2.3796     2.4631  -999.2500     0.0000   476.6970
     22.5000   661.8548    82.5412   -23.7903  -254.2528     0.0297    46.9982    54.7351    91.9586     3.1924     0.0000    -0.1379    41.9817   310.0474     2.3869     2.4630  -999.2500     0.0000   568.3030
     23.0000   659.8657    82.5412   -23.7903  -253.9721     0.0314    49.1134    54.7401    96.5638     3.1914     0.0000    -0.1421    46.6250   310.0860     2.3876     2.4629  -999.2500     0.0000   455.4054
     23.5000   656.1962    82.5412   -23.7903  -253.8995     0.0330    48.8184    54.7451   102.2587     3.1915     0.0000    -0.1460    52.5020   310.2675     2.3809     2.4628  -999.2500     0.0000   575.4490
     24.0000   633.7301    82.5412   -23.7903  -254.0691     0.0343    47.6591    54.7501   106.8096     3.1913     0.0000    -0.1489    57.1651   310.3799     2.3894     2.4627  -999.2500     0.0000   628.9930
     24.5000   650.8632    82.5412   -23.7903  -254.0797     0.0365    46.0925    54.7551   109.0408     3.1923     0.0000    -0.1538    59.2134   310.1974     2.4001     2.4626  -999.2500     0.0000   529.7742
     25.0000   650.0490    82.5412   -23.7903  -254.0323     0.0384    46.9503    54.7601   111.6333     3.1942     0.0000    -0.1576    61.9361   310.3274     2.3808     2.4626  -999.2500     0.0000   459.1936
     25.5000   648.1876    82.5412   -23.7903  -254.1266     0.0403    48.4482    54.7651   113.3787     3.1953     0.0000    -0.1613    63.6608   310.3061     2.3640     2.4626  -999.2500     0.0000   497.9032
     26.0000   644.6706    82.5412   -23.7903  -254.1126     0.0423    50.1606    54.7701   113.9887     3.1969     0.0000    -0.1648    64.5221   310.5580     2.3744     2.4626  -999.2500     0.0000   486.1936
     26.5000   643.9216    82.5412   -23.7903  -253.9110     0.0443    50.5944    54.7751   113.9962     3.1973     0.0000    -0.1684    64.7402   310.7684     2.3824     2.4626  -999.2500     0.0000   480.0645
     27.0000   644.3724    82.5412   -23.7903  -253.9901     0.0465    48.6883    54.7801   113.7374     3.1976     0.0000    -0.1718    64.5923   310.8794     2.3781     2.4627  -999.2500     0.0000   500.0000
     27.5000   644.0660    82.5412   -23.7903  -254.0525     0.0486    46.1569    54.7851   112.8718     3.1973     0.0000    -0.1751    63.8256   310.9783     2.3788     2.4627  -999.2500     0.0000   508.3871
     28.0000   643.2256    82.5412   -23.7903  -254.0548     0.0508    43.2684    54.7901   111.2307     3.1971     0.0000    -0.1784    62.4863   311.2802     2.3782     2.4628  -999.2500     0.0000   503.7742
     28.5000   643.7883    82.5412   -23.7903  -254.0093     0.0531    43.8521    54.7951   108.7028     3.1964     0.0000    -0.1815    60.8847   312.2063     2.3806     2.4628  -999.2500     0.0000   529.9355
     29.0000   643.4092    78.1612   -23.7903  -254.1727     0.0555    41.4574    54.8001   107.2142     3.1957     0.0000    -0.1846    59.5441   312.3545     2.3816     2.4629  -999.2500     0.0000   547.3549
     29.5000   644.9803    76.6118   -23.7903  -254.2109     0.0578    44.0057    54.8051   105.5099     3.1945     0.0000    -0.1876    57.7207   312.2353     2.3831     2.4631  -999.2500     0.0000   537.4516
