~VERSION INFORMATION
VERS.           1.2   :CWLS Log ASCII Standard - VERSION 1.2
WRAP.           NO    :One Line per depth step
PROD.  Schlumberger   :LAS Producer
PROG.  DLIS to ASCII 2.3                               :LAS Program name and version
CREA.        2015/05/30 05:44                          :LAS Creation date {YYYY/MM/DD hh:mm}
DLIS_CREA.  2015-May-29 22:59                          :DLIS Creation date and time {YYYY-MMM-DD hh:mm}
SOURCE.     3feb4549-4107-45e4-8f62-928498d876c9       :DLIS File Name
#--------------------------------------------------
~WELL INFORMATION
#MNEM.UNIT      DATA             DESCRIPTION
#---- ------ --------------   -----------------------------
STRT .F      5218.5000       :START DEPTH     
STOP .F      7211.0000       :STOP DEPTH     
STEP .F       0.5000         :STEP       
NULL .          -999.25      :NULL VALUE
COMP .                 COMPANY:  ADM COMPANY                        
WELL .                    WELL:  CCS#2                              
FLD  .                   FIELD:  WILDCAT                            
LOC  .                LOCATION:  LAT 39.885961                      
CNTY .                  COUNTY:  MACON                              
STAT .                   STATE:  ILLINOIS                           
CTRY .                 COUNTRY:  USA                                
SRVC .         SERVICE COMPANY:  Schlumberger                       
LATI .DEG             LATITUDE:  39.885961 degrees                  
LONG .DEG            LONGITUDE:  -88.888044 degrees                 
API  .              API NUMBER:  12-115-23713-00                    
DATE .                LOG DATE:  29-May-2015
UWI  .          UNIQUE WELL ID:  12-115-23713-00                    
#-----------------------------------------------------------------------------
~PARAMETER INFORMATION
#MNEM.UNIT    VALUE                      DESCRIPTION
#---- -----   --------------------       ------------------------
CN   .        ADM COMPANY                :Company Name
WN   .        CCS#2                      :Well Name
FN   .        WILDCAT                    :Field Name
FL   .        LAT 39.885961              :Field Location
FL1  .        LONG 39.885961             :Field Location, Line 1
COUN .        MACON                      :County or Parish
STAT .        ILLINOIS                   :State or Province
NATI .        USA                        :Nation
DATE .        29-May-2015                :Tools Above Rotary Table Date
APIN .        12-115-23713-00            :API Well Number
SECT .        32                         :Section
TOWN .        17N                        :Township
RANG .        3E                         :Range
DMF  .        KB                         :Drilling Measured From (Name of Drilling Elevation Reference)
LMF  .        KB                         :Logging Measured From (Name of Logging Elevation Reference)
PDAT .        GL                         :Permanent Datum
ENGI .        H. DIMITROV / M. MOHAMMED  :Engineer s Name
WITN .        NICK MALKEWICZ             :Witness s Name
LATI .        39.885961 degrees          :Latitude
LONG .        -88.888044 degrees         :Longitude
LUL  .        BRADFORD                   :Logging Unit Location
LUN  .        3003                       :Logging Unit Number
RUN  .        Run 3C                     :Run Number
SON  .                                   :Service Order Number
BHT  .DEGF     127.00000                 :Bottom Hole Temperature
BS   .IN        12.25000                 :Bit Size
DFD  .LB/G       9.20000                 :Drilling Fluid Density
DFV  .S         66.00000                 :Drilling Fluid Viscosity
DFL  .C3         7.60000                 :Drilling Fluid Loss
RMFS .OHMM       0.17000                 :Resistivity of Mud Filtrate Sample
EKB  .F        691.19995                 :Elevation of Kelly Bushing
EGL  .F        675.69995                 :Elevation of Ground Level
BLI  .F       7192.00000                 :Bottom Log Interval
BSAL .PPM     15100.00000                :Borehole Salinity
FLEV .F          8.00000                 :Depth of Drilling Fluid Level to LMF (Log Measured From)
MCST .DEGF      72.50000                 :Mudcake Sample Temperature
MFST .DEGF      72.50000                 :Mud Filtrate Sample Temperature
MRT  .DEGF     127.00000                 :Maximum Recorded Temperature
MST  .DEGF      72.50000                 :Mud Sample Temperature
RMCS .OHMM       0.14000                 :Resistivity of Mud Cake Sample
RMS  .OHMM       0.20000                 :Resistivity of Mud Sample
RW   .OHMM       1.00000                 :Connate Water Resistivity
TDD  .F       7193.00049                 :Driller Total Depth
TDL  .F       7193.00049                 :Logger Total Depth
TLI  .F       5240.00000                 :Top Log Interval
HIDE .        WILDCAT                    :Header Identifier
MATR .        SAND                       :Rock Matrix for Neutron Porosity Corrections
FNUM .           1.00000                 :F-Numerator for Formation Factor Formula
FEXP .           2.00000                 :Exponent "m" for Formation Factor Formula
DFT  .        Fresh Water                :Drilling Fluid Type
DFPH .          11.50000                 :Drilling Fluid pH
MCSS .        Calculated                 :Mudcake Sample Source
MFSS .        Calculated                 :Mud Filtrate Sample Source
FD   .LB/G       8.34540                 :Fluid Density
MSS  .        Active Tank                :Mud Sample Source
OS1  .                                   :Other Services Line 1
OS2  .                                   :Other Services Line 2
OS3  .                                   :Other Services Line 3
OS4  .                                   :Other Services Line 4
OS5  .                                   :Other Services Line 5
R1   .        THANKS FOR CHOOSING SCHLUMBERGER!!! :Remarks Line 1
R2   .        All WELL PROPERTIES PROVIDED BY CLIENT :Remarks Line 2
R3   .        ALL SCALES ON PRESENTATIONS AS PER

CLIENT REQUEST :Remarks Line 3
R4   .        MATRIX  SANDSTONE          :Remarks Line 4
R5   .        MATRIX DENSITY  2.65 G/CC  :Remarks Line 5
R6   .        ALL LOGGING INTERVALS AS PER CLIENT REQUEST :Remarks Line 6
R7   .        MRT = 127 DEGF FROM THE THERMOMETER :Remarks Line 7
R8   .                                   :Remarks Line 8
TCS  .        20 00 00                   :Time Circulation Stopped
TLAB .        14 31 00                   :Time Logger At Bottom
EPD  .C3         675.699951              :Elevation of Permanent Datum above Mean Sea Level
APD  .F          15.500000               :Elevation of Depth Reference (LMF) above Permanent Datum
#-----------------------------------------------------------------------------
~CURVE INFORMATION
#MNEM.UNIT   API CODE                                  DESCRIPTION
#---- -----  --------                                  -----------------------
DEPT .F                                                :DEPTH (BOREHOLE) {F12.4}
BFV  .CFCF                                             :Bound Fluid Volume {F11.4}
CBP1 .CFCF                                             :CMR Bin Porosity 1 {F11.4}
CBP2 .CFCF                                             :CMR Bin Porosity 2 {F11.4}
CBP3 .CFCF                                             :CMR Bin Porosity 3 {F11.4}
CBP4 .CFCF                                             :CMR Bin Porosity 4 {F11.4}
CBP5 .CFCF                                             :CMR Bin Porosity 5 {F11.4}
CBP6 .CFCF                                             :CMR Bin Porosity 6 {F11.4}
CBP7 .CFCF                                             :CMR Bin Porosity 7 {F11.4}
CBP8 .CFCF                                             :CMR Bin Porosity 8 {F11.4}
CDF  .LBF                                              :Calibrated Downhole Force {F11.4}
CMFF .CFCF                                             :CMR Free Fluid {F11.4}
CMFF_SIG.CFCF                                          :Standard Deviation of CMR Free Fluid {F11.4}
CMR_PHI_CONV.                                          :CMR Porosity Conversion factor {F11.4}
CMRP_3MS.CFCF                                          :CMR Porosity with T2 values greater than 3 ms {F11.4}
CTEM .DEGF                                             :Cartridge Temperature {F11.4}
DCAL .IN                                               :Differential Caliper {F11.4}
ED   .F                                                :East Departure {F11.4}
GR_EDTC.GAPI                                           :Gamma Ray {F11.4}
GTEM .DEGF                                             :Generalized Borehole Temperature {F11.4}
HCGR .GAPI                                             :HNGS Computed Gamma Ray {F11.4}
HFK  .%                                                :HNGS Formation Potassium Concentration {F11.4}
HSGR .GAPI                                             :HNGS Standard Gamma-Ray {F11.4}
HTHO .PPM                                              :HNGS Formation Thorium Concentration {F11.4}
HURA .PPM                                              :HNGS Formation Uranium Concentration {F11.4}
KSDR .MD                                               :SDR Permeability {F11.4}
KTIM .MD                                               :Timur/Coates Permeability {F11.4}
ND   .F                                                :North Departure {F11.4}
STIT .F                                                :Stuck Tool Indicator, Total {F11.4}
T2LM .MS                                               :T2 Logarithmic Mean {F11.4}
T2LM_SIG.MS                                            :Standard Deviation of T2 Logarithmic Mean {F11.4}
TCMR .CFCF                                             :Total CMR Porosity {F11.4}
TENS .LBF                                              :Cable Tension {F11.4}
#-----------------------------------------------------------------------------
# 
#      DEPT        BFV        CBP1       CBP2       CBP3       CBP4       CBP5       CBP6       CBP7       CBP8       CDF        CMFF     CMFF_SIG  CMR_PHI_CO  CMRP_3MS     CTEM       DCAL        ED      GR_EDTC      GTEM       HCGR       HFK        HSGR       HTHO       HURA       KSDR       KTIM        ND        STIT       T2LM     T2LM_SIG     TCMR       TENS
#                                                                                                                                                   NV
~A  
# ...
   6934.5000     0.0757     0.0013     0.0088     0.0236     0.0420     0.0485     0.0436     0.0106     0.0018  1195.1910     0.1045     0.0041     0.0006     0.1701   128.0000     0.0000    12.3367    71.8348   124.8906    75.9682     3.3945    83.3944     4.4806     1.0554     7.0768    20.5321    35.3866     0.0000    40.6315  -999.2500     0.1802  3020.9089
   6935.0000     0.0793     0.0012     0.0101     0.0229     0.0452     0.0462     0.0410     0.0042     0.0021  1198.6082     0.0935     0.0041     0.0006     0.1615   128.0000     0.0000    12.3581    76.2690   124.8947    80.8240     3.6383    89.0824     4.6102     1.1655     4.4433    12.3691    35.3923     0.0000    35.3290  -999.2500     0.1727  3017.0002
   6935.5000     0.0792     0.0052     0.0088     0.0193     0.0458     0.0508     0.0386     0.0021     0.0018  1196.4539     0.0933     0.0040     0.0006     0.1584   128.0000     0.0000    12.3796    77.0922   124.8988    82.2896     3.6887    92.1496     4.7847     1.4206     3.7005    12.2823    35.3981     0.0000    32.2973  -999.2500     0.1725  3039.0908
   6936.0000     0.0813     0.0114     0.0082     0.0161     0.0456     0.0579     0.0386     0.0019     0.0013  1194.5703     0.0996     0.0040     0.0006     0.1613   128.0000     0.0000    12.4010    77.6748   124.9029    80.9302     3.5993    90.4191     4.8721     1.4035     3.7031    16.3547    35.4038     0.0000    29.4802  -999.2500     0.1809  3036.3000
   6936.5000     0.0839     0.0161     0.0086     0.0147     0.0444     0.0642     0.0405     0.0024     0.0009  1195.1910     0.1079     0.0041     0.0006     0.1671   128.0000     0.0000    12.4223    75.6252   124.9070    76.9433     3.4005    85.8965     4.7580     1.3308     4.2255    22.7598    35.4096     0.0000    27.8764  -999.2500     0.1918  3003.9092
   6937.0000     0.0864     0.0172     0.0098     0.0159     0.0435     0.0674     0.0437     0.0029     0.0006  1193.8805     0.1146     0.0042     0.0006     0.1740   128.0000     0.0000    12.4438    75.5195   124.9111    75.0209     3.2925    83.1230     4.7740     1.2681     5.0424    28.7539    35.4154     0.0000    27.7452  -999.2500     0.2010  3036.3000
   6937.5000     0.0896     0.0137     0.0114     0.0199     0.0446     0.0663     0.0474     0.0030     0.0000  1190.7097     0.1167     0.0043     0.0006     0.1812   128.0000     0.0000    12.4653    72.5005   124.9152    71.2161     3.1295    79.6579     4.5086     1.3269     5.9286    30.6768    35.4213     0.0000    28.6063  -999.2500     0.2063  3007.0000
   6938.0000     0.0946     0.0113     0.0121     0.0249     0.0463     0.0587     0.0427     0.0044     0.0000  1191.6199     0.1058     0.0043     0.0006     0.1771   128.0000     0.0000    12.4869    73.0387   124.9193    68.9005     3.0094    77.1673     4.4693     1.3038     4.7495    20.6557    35.4272     0.0000    27.0386  -999.2500     0.2005  2993.0908
   6938.5000     0.1034     0.0122     0.0145     0.0279     0.0488     0.0514     0.0386     0.0036     0.0002  1190.4696     0.0939     0.0044     0.0006     0.1706   128.0000     0.0000    12.5084    78.0687   124.9234    69.9639     3.0155    79.4744     4.7745     1.4510     3.3636    13.0770    35.4331     0.0000    23.3231  -999.2500     0.1973  3037.5000
   6939.0000     0.1163     0.0171     0.0182     0.0293     0.0517     0.0459     0.0335     0.0018     0.0005  1187.4193     0.0817     0.0044     0.0006     0.1627   128.0000     0.0000    12.5300    88.5387   124.9275    80.7112     3.4521    91.4035     5.6641     1.6086     2.1060     7.9035    35.4390     0.0000    18.3450  -999.2500     0.1980  2976.2000
   6939.5000     0.1310     0.0244     0.0224     0.0302     0.0539     0.0416     0.0269     0.0004     0.0006  1189.0143     0.0696     0.0043     0.0006     0.1537   128.0000     0.0000    12.5515    97.2454   124.9316    94.6945     4.0484   106.9626     6.6558     1.7828     1.1752     4.6908    35.4450     0.0000    13.3546  -999.2500     0.2006  3001.1819
   6940.0000     0.1424     0.0303     0.0264     0.0324     0.0532     0.0367     0.0196     0.0011     0.0000  1189.9264     0.0574     0.0043     0.0006     0.1430   128.0000     0.0000    12.5730   105.8936   124.9357   106.3611     4.5577   120.4409     7.4143     2.0003     0.6326     2.5876    35.4509     0.0000     9.9669  -999.2500     0.1998  3000.6001
   6940.5000     0.1449     0.0289     0.0327     0.0374     0.0458     0.0304     0.0162     0.0002     0.0000  1191.2916     0.0468     0.0043     0.0006     0.1300   128.0000     0.0000    12.5948   113.8731   124.9398   115.5291     4.9523   129.9446     8.0428     2.0556     0.3715     1.4682    35.4569     0.0000     8.1488  -999.2500     0.1917  2968.0000
   6941.0000     0.1470     0.0250     0.0425     0.0410     0.0386     0.0287     0.0182     0.0000     0.0000  1192.8804     0.0470     0.0043     0.0006     0.1265   128.0000     0.0000    12.6165   119.7370   124.9439   117.0578     5.0588   130.7296     7.9097     1.8922     0.3416     1.4569    35.4630     0.0000     7.7594  -999.2500     0.1939  3031.7002
   6941.5000     0.1455     0.0191     0.0447     0.0424     0.0393     0.0307     0.0196     0.0010     0.0004  1195.8801     0.0517     0.0042     0.0006     0.1333   128.0000     0.0000    12.6382   109.6386   124.9480   107.8582     4.7029   119.7830     7.0438     1.6255     0.5137     1.9339    35.4690     0.0000     9.0725  -999.2500     0.1972  2996.1001
   6942.0000     0.1400     0.0137     0.0375     0.0420     0.0468     0.0355     0.0183     0.0023     0.0012  1200.0903     0.0573     0.0041     0.0006     0.1461   128.0000     0.0000    12.6600   100.4243   124.9521    92.7154     4.0760   104.2038     5.8600     1.5506     0.8052     2.5617    35.4751     0.0000    11.4944  -999.2500     0.1973  3029.2729
   6942.5000     0.1329     0.0128     0.0275     0.0415     0.0511     0.0423     0.0166     0.0014     0.0025  1194.0214     0.0629     0.0036     0.0006     0.1555   128.0000     0.0000    12.6818    89.6239   124.9562    83.7737     3.6874    93.2198     5.2684     1.2282     1.0805     3.2852    35.4812     0.0000    13.5639  -999.2500     0.1957  3039.1001
   6943.0000     0.1261     0.0158     0.0214     0.0387     0.0501     0.0463     0.0164     0.0003     0.0036  1190.2585     0.0665     0.0039     0.0006     0.1553   128.0000     0.0000    12.7035    89.5087   124.9603    83.3660     3.6821    92.1316     5.1688     1.1168     1.1359     3.8429    35.4873     0.0000    14.3665  -999.2500     0.1926  2989.3999
   6943.5000     0.1195     0.0191     0.0176     0.0347     0.0481     0.0534     0.0229     0.0001     0.0021  1192.5304     0.0786     0.0043     0.0006     0.1614   128.0000     0.0000    12.7253    88.2637   124.9644    85.6009     3.7985    94.5538     5.2030     1.0943     1.5669     7.0769    35.4935     0.0000    15.7950  -999.2500     0.1980  3040.7002
   6944.0000     0.1098     0.0180     0.0155     0.0311     0.0452     0.0555     0.0275     0.0001     0.0006  1191.8900     0.0837     0.0042     0.0006     0.1600   128.0000     0.0000    12.7475    86.6806   124.9685    86.9385     3.9257    95.5654     4.8869     1.0370     1.6845     8.2056    35.4997     0.0000    17.3493  -999.2500     0.1935  3014.5000
   6944.5000     0.0980     0.0129     0.0157     0.0283     0.0411     0.0506     0.0268     0.0000     0.0000  1194.5309     0.0774     0.0037     0.0006     0.1468   128.0000     0.0000    12.7692    84.4633   124.9726    85.9299     3.9174    94.8504     4.6117     1.0987     1.2915     6.0721    35.5059     0.0000    18.1989  -999.2500     0.1754  2995.5002
   6945.0000     0.0892     0.0088     0.0196     0.0256     0.0352     0.0433     0.0225     0.0000     0.0000  1193.2415     0.0658     0.0037     0.0006     0.1266   128.0000     0.0000    12.7912    83.4062   124.9767    83.6935     3.8325    92.3995     4.3921     1.0884     0.6825     3.1438    35.5121     0.0000    17.1825  -999.2500     0.1550  3054.7000
