~VERSION INFORMATION
VERS.           1.2   :CWLS Log ASCII Standard - VERSION 1.2
WRAP.           NO    :One Line per depth step
PROD.  Schlumberger   :LAS Producer
PROG.  DLIS to ASCII 2.3                               :LAS Program name and version
CREA.        2015/05/30 05:44                          :LAS Creation date {YYYY/MM/DD hh:mm}
DLIS_CREA.  2015-May-29 22:59                          :DLIS Creation date and time {YYYY-MMM-DD hh:mm}
SOURCE.     3feb4549-4107-45e4-8f62-928498d876c9       :DLIS File Name
#--------------------------------------------------
~WELL INFORMATION
#MNEM.UNIT      DATA             DESCRIPTION
#---- ------ --------------   -----------------------------
STRT .F      5218.5000       :START DEPTH     
STOP .F      7211.0000       :STOP DEPTH     
STEP .F       0.5000         :STEP       
NULL .          -999.25      :NULL VALUE
COMP .                 COMPANY:  ADM COMPANY                        
WELL .                    WELL:  CCS#2                              
FLD  .                   FIELD:  WILDCAT                            
LOC  .                LOCATION:  LAT 39.885961                      
CNTY .                  COUNTY:  MACON                              
STAT .                   STATE:  ILLINOIS                           
CTRY .                 COUNTRY:  USA                                
SRVC .         SERVICE COMPANY:  Schlumberger                       
LATI .DEG             LATITUDE:  39.885961 degrees                  
LONG .DEG            LONGITUDE:  -88.888044 degrees                 
API  .              API NUMBER:  12-115-23713-00                    
DATE .                LOG DATE:  29-May-2015
UWI  .          UNIQUE WELL ID:  12-115-23713-00                    
#-----------------------------------------------------------------------------
~PARAMETER INFORMATION
#MNEM.UNIT    VALUE                      DESCRIPTION
#---- -----   --------------------       ------------------------
CN   .        ADM COMPANY                :Company Name
WN   .        CCS#2                      :Well Name
FN   .        WILDCAT                    :Field Name
FL   .        LAT 39.885961              :Field Location
FL1  .        LONG 39.885961             :Field Location, Line 1
COUN .        MACON                      :County or Parish
STAT .        ILLINOIS                   :State or Province
NATI .        USA                        :Nation
DATE .        29-May-2015                :Tools Above Rotary Table Date
APIN .        12-115-23713-00            :API Well Number
SECT .        32                         :Section
TOWN .        17N                        :Township
RANG .        3E                         :Range
DMF  .        KB                         :Drilling Measured From (Name of Drilling Elevation Reference)
LMF  .        KB                         :Logging Measured From (Name of Logging Elevation Reference)
PDAT .        GL                         :Permanent Datum
ENGI .        H. DIMITROV / M. MOHAMMED  :Engineer s Name
WITN .        NICK MALKEWICZ             :Witness s Name
LATI .        39.885961 degrees          :Latitude
LONG .        -88.888044 degrees         :Longitude
LUL  .        BRADFORD                   :Logging Unit Location
LUN  .        3003                       :Logging Unit Number
RUN  .        Run 3C                     :Run Number
SON  .                                   :Service Order Number
BHT  .DEGF     127.00000                 :Bottom Hole Temperature
BS   .IN        12.25000                 :Bit Size
DFD  .LB/G       9.20000                 :Drilling Fluid Density
DFV  .S         66.00000                 :Drilling Fluid Viscosity
DFL  .C3         7.60000                 :Drilling Fluid Loss
RMFS .OHMM       0.17000                 :Resistivity of Mud Filtrate Sample
EKB  .F        691.19995                 :Elevation of Kelly Bushing
EGL  .F        675.69995                 :Elevation of Ground Level
BLI  .F       7192.00000                 :Bottom Log Interval
BSAL .PPM     15100.00000                :Borehole Salinity
FLEV .F          8.00000                 :Depth of Drilling Fluid Level to LMF (Log Measured From)
MCST .DEGF      72.50000                 :Mudcake Sample Temperature
MFST .DEGF      72.50000                 :Mud Filtrate Sample Temperature
MRT  .DEGF     127.00000                 :Maximum Recorded Temperature
MST  .DEGF      72.50000                 :Mud Sample Temperature
RMCS .OHMM       0.14000                 :Resistivity of Mud Cake Sample
RMS  .OHMM       0.20000                 :Resistivity of Mud Sample
RW   .OHMM       1.00000                 :Connate Water Resistivity
TDD  .F       7193.00049                 :Driller Total Depth
TDL  .F       7193.00049                 :Logger Total Depth
TLI  .F       5240.00000                 :Top Log Interval
HIDE .        WILDCAT                    :Header Identifier
MATR .        SAND                       :Rock Matrix for Neutron Porosity Corrections
FNUM .           1.00000                 :F-Numerator for Formation Factor Formula
FEXP .           2.00000                 :Exponent "m" for Formation Factor Formula
DFT  .        Fresh Water                :Drilling Fluid Type
DFPH .          11.50000                 :Drilling Fluid pH
MCSS .        Calculated                 :Mudcake Sample Source
MFSS .        Calculated                 :Mud Filtrate Sample Source
FD   .LB/G       8.34540                 :Fluid Density
MSS  .        Active Tank                :Mud Sample Source
OS1  .                                   :Other Services Line 1
OS2  .                                   :Other Services Line 2
OS3  .                                   :Other Services Line 3
OS4  .                                   :Other Services Line 4
OS5  .                                   :Other Services Line 5
R1   .        THANKS FOR CHOOSING SCHLUMBERGER!!! :Remarks Line 1
R2   .        All WELL PROPERTIES PROVIDED BY CLIENT :Remarks Line 2
R3   .        ALL SCALES ON PRESENTATIONS AS PER

CLIENT REQUEST :Remarks Line 3
R4   .        MATRIX  SANDSTONE          :Remarks Line 4
R5   .        MATRIX DENSITY  2.65 G/CC  :Remarks Line 5
R6   .        ALL LOGGING INTERVALS AS PER CLIENT REQUEST :Remarks Line 6
R7   .        MRT = 127 DEGF FROM THE THERMOMETER :Remarks Line 7
R8   .                                   :Remarks Line 8
TCS  .        20 00 00                   :Time Circulation Stopped
TLAB .        14 31 00                   :Time Logger At Bottom
EPD  .C3         675.699951              :Elevation of Permanent Datum above Mean Sea Level
APD  .F          15.500000               :Elevation of Depth Reference (LMF) above Permanent Datum
#-----------------------------------------------------------------------------
~CURVE INFORMATION
#MNEM.UNIT   API CODE                                  DESCRIPTION
#---- -----  --------                                  -----------------------
DEPT .F                                                :DEPTH (BOREHOLE) {F12.4}
BFV  .CFCF                                             :Bound Fluid Volume {F11.4}
CBP1 .CFCF                                             :CMR Bin Porosity 1 {F11.4}
CBP2 .CFCF                                             :CMR Bin Porosity 2 {F11.4}
CBP3 .CFCF                                             :CMR Bin Porosity 3 {F11.4}
CBP4 .CFCF                                             :CMR Bin Porosity 4 {F11.4}
CBP5 .CFCF                                             :CMR Bin Porosity 5 {F11.4}
CBP6 .CFCF                                             :CMR Bin Porosity 6 {F11.4}
CBP7 .CFCF                                             :CMR Bin Porosity 7 {F11.4}
CBP8 .CFCF                                             :CMR Bin Porosity 8 {F11.4}
CDF  .LBF                                              :Calibrated Downhole Force {F11.4}
CMFF .CFCF                                             :CMR Free Fluid {F11.4}
CMFF_SIG.CFCF                                          :Standard Deviation of CMR Free Fluid {F11.4}
CMR_PHI_CONV.                                          :CMR Porosity Conversion factor {F11.4}
CMRP_3MS.CFCF                                          :CMR Porosity with T2 values greater than 3 ms {F11.4}
CTEM .DEGF                                             :Cartridge Temperature {F11.4}
DCAL .IN                                               :Differential Caliper {F11.4}
ED   .F                                                :East Departure {F11.4}
GR_EDTC.GAPI                                           :Gamma Ray {F11.4}
GTEM .DEGF                                             :Generalized Borehole Temperature {F11.4}
HCGR .GAPI                                             :HNGS Computed Gamma Ray {F11.4}
HFK  .%                                                :HNGS Formation Potassium Concentration {F11.4}
HSGR .GAPI                                             :HNGS Standard Gamma-Ray {F11.4}
HTHO .PPM                                              :HNGS Formation Thorium Concentration {F11.4}
HURA .PPM                                              :HNGS Formation Uranium Concentration {F11.4}
KSDR .MD                                               :SDR Permeability {F11.4}
KTIM .MD                                               :Timur/Coates Permeability {F11.4}
ND   .F                                                :North Departure {F11.4}
STIT .F                                                :Stuck Tool Indicator, Total {F11.4}
T2LM .MS                                               :T2 Logarithmic Mean {F11.4}
T2LM_SIG.MS                                            :Standard Deviation of T2 Logarithmic Mean {F11.4}
TCMR .CFCF                                             :Total CMR Porosity {F11.4}
TENS .LBF                                              :Cable Tension {F11.4}
#-----------------------------------------------------------------------------
# 
#      DEPT        BFV        CBP1       CBP2       CBP3       CBP4       CBP5       CBP6       CBP7       CBP8       CDF        CMFF     CMFF_SIG  CMR_PHI_CO  CMRP_3MS     CTEM       DCAL        ED      GR_EDTC      GTEM       HCGR       HFK        HSGR       HTHO       HURA       KSDR       KTIM        ND        STIT       T2LM     T2LM_SIG     TCMR       TENS
#                                                                                                                                                   NV
~A  
# ...
   5350.5000     0.0749     0.0148     0.0211     0.0183     0.0206     0.0137     0.0050     0.0022     0.0009  1212.7686     0.0218     0.0035     0.0006     0.0607   122.0706     0.0000    -0.5909   142.4995   111.8962   140.5603     6.1290   152.5739     9.1658     1.6037     0.0195     0.0736    35.1805     0.0000     7.4888  -999.2500     0.0966  2528.5000
   5351.0000     0.0692     0.0154     0.0170     0.0174     0.0194     0.0134     0.0091     0.0010     0.0002  1215.2101     0.0237     0.0034     0.0006     0.0605   122.0706     0.0000    -0.5927   131.8451   111.9004   133.4194     5.7265   144.3935     9.2333     1.4661     0.0194     0.0879    35.1910     0.0000     8.0942  -999.2500     0.0929  2503.3999
   5351.5000     0.0627     0.0147     0.0123     0.0176     0.0181     0.0134     0.0106     0.0000     0.0000  1220.6093     0.0240     0.0033     0.0006     0.0598   122.0706     0.0000    -0.5945   133.7019   111.9045   141.4290     6.0540   153.8139     9.8829     1.6065     0.0174     0.0844    35.2014     0.0000     8.7389  -999.2500     0.0868  2494.8999
   5352.0000     0.0596     0.0139     0.0096     0.0180     0.0181     0.0133     0.0075     0.0000     0.0001  1222.0924     0.0210     0.0032     0.0006     0.0570   122.0706     0.0000    -0.5963   143.0801   111.9086   151.1984     6.3893   165.4333    11.0508     1.9908     0.0127     0.0558    35.2118     0.0000     8.4854  -999.2500     0.0806  2534.2002
   5352.5000     0.0611     0.0149     0.0117     0.0146     0.0198     0.0127     0.0012     0.0000     0.0007  1218.8048     0.0146     0.0032     0.0006     0.0491   122.0706     0.0000    -0.5981   145.1817   111.9127   151.8633     6.3718   167.9179    11.3665     2.3051     0.0056     0.0189    35.2222     0.0000     6.5022  -999.2500     0.0757  2607.3635
   5353.0000     0.0484     0.0124     0.0106     0.0103     0.0151     0.0114     0.0006     0.0000     0.0005  1220.6740     0.0124     0.0031     0.0006     0.0379   122.0706     0.0000    -0.5999   134.3709   111.9168   137.2627     5.7510   153.1362    10.3216     2.1737     0.0024     0.0096    35.2327     0.0000     6.2405  -999.2500     0.0608  2568.7002
   5353.5000     0.0385     0.0098     0.0100     0.0084     0.0103     0.0089     0.0008     0.0000     0.0002  1215.3560     0.0099     0.0029     0.0006     0.0286   122.0706     0.0000    -0.6016   119.2096   111.9209   124.1767     5.1772   136.9149     9.4872     1.8374     0.0009     0.0042    35.2431     0.0000     5.7213  -999.2500     0.0484  2499.1001
   5354.0000     0.0360     0.0090     0.0106     0.0089     0.0074     0.0064     0.0008     0.0000     0.0002  1218.1100     0.0074     0.0027     0.0006     0.0238   122.0706     0.0000    -0.6034   105.6059   111.9249   107.3044     4.4949   118.2874     8.0742     1.6171     0.0003     0.0016    35.2534     0.0000     4.8767  -999.2500     0.0434  2545.8000
   5354.5000     0.0404     0.0106     0.0125     0.0108     0.0064     0.0049     0.0005     0.0000     0.0004  1221.7512     0.0058     0.0027     0.0006     0.0230   122.0706     0.0000    -0.6051    97.3387   111.9291    99.0404     4.1346   108.9008     7.5350     1.4794     0.0003     0.0009    35.2638     0.0000     3.8861  -999.2500     0.0461  2501.9089
   5355.0000     0.0461     0.0140     0.0160     0.0114     0.0047     0.0049     0.0009     0.0000     0.0004  1218.1606     0.0063     0.0027     0.0006     0.0224   122.0706     0.0000    -0.6068   100.8167   111.9332   101.6040     4.1894   111.9312     8.0358     1.5255     0.0003     0.0014    35.2741     0.0000     3.1765  -999.2500     0.0523  2467.0000
   5355.5000     0.0479     0.0163     0.0166     0.0088     0.0061     0.0065     0.0026     0.0000     0.0006  1220.0707     0.0098     0.0030     0.0006     0.0247   122.0706     0.0000    -0.6085   111.7604   111.9373   112.2429     4.5478   123.9023     9.3472     1.7381     0.0006     0.0050    35.2844     0.0000     3.6980  -999.2500     0.0576  2510.3000
   5356.0000     0.0448     0.0173     0.0163     0.0051     0.0060     0.0088     0.0039     0.0000     0.0006  1226.7456     0.0134     0.0031     0.0006     0.0245   122.0706     0.0000    -0.6102   129.0183   111.9414   128.3960     5.2030   141.6793    10.6885     1.9571     0.0008     0.0109    35.2946     0.0000     4.2917  -999.2500     0.0582  2513.9092
   5356.5000     0.0399     0.0171     0.0154     0.0026     0.0048     0.0104     0.0038     0.0000     0.0008  1221.1941     0.0151     0.0031     0.0006     0.0225   122.0706     0.0000    -0.6118   132.5913   111.9455   129.3530     5.3752   141.9654     9.9867     1.9351     0.0008     0.0131    35.3050     0.0000     4.5764  -999.2500     0.0550  2540.8184
   5357.0000     0.0356     0.0154     0.0142     0.0027     0.0032     0.0107     0.0032     0.0002     0.0008  1216.6378     0.0149     0.0031     0.0006     0.0208   122.0706     0.0000    -0.6135   121.7772   111.9496   116.4739     4.8912   127.6693     8.6928     1.6796     0.0006     0.0113    35.3153     0.0000     4.8022  -999.2500     0.0504  2564.1819
   5357.5000     0.0331     0.0117     0.0129     0.0061     0.0025     0.0094     0.0044     0.0010     0.0002  1214.5992     0.0150     0.0031     0.0006     0.0236   122.0706     0.0000    -0.6151   102.7222   111.9537   101.7406     4.3662   111.1301     7.0449     1.3683     0.0007     0.0111    35.3255     0.0000     5.8510  -999.2500     0.0482  2492.9092
   5358.0000     0.0333     0.0065     0.0116     0.0108     0.0044     0.0123     0.0107     0.0002     0.0000  1219.7668     0.0233     0.0032     0.0006     0.0385   122.0706     0.0000    -0.6167    96.0305   111.9578    96.4208     4.1997   104.8343     6.3144     1.2116     0.0071     0.0572    35.3358     0.0000    11.9559  -999.2500     0.0566  2556.4546
   5358.5000     0.0419     0.0044     0.0082     0.0174     0.0119     0.0202     0.0289     0.0001     0.0000  1220.2563     0.0492     0.0035     0.0006     0.0785   122.0706     0.0000    -0.6183   102.8531   111.9619   105.2704     4.6517   113.8051     6.5047     1.2678     0.3974     1.8298    35.3460     0.0000    24.5409  -999.2500     0.0911  2556.8181
   5359.0000     0.0507     0.0044     0.0064     0.0213     0.0186     0.0265     0.0412     0.0003     0.0000  1216.0233     0.0680     0.0039     0.0006     0.1079   122.0706     0.0000    -0.6199   116.0633   111.9660   116.0661     5.1331   125.8710     7.1464     1.3761     0.8206     3.6187    35.3561     0.0000    31.8186  -999.2500     0.1187  2514.4546
   5359.5000     0.0541     0.0057     0.0074     0.0199     0.0211     0.0293     0.0404     0.0004     0.0000  1216.4259     0.0702     0.0042     0.0006     0.1112   122.0706     0.0000    -0.6215   122.9710   111.9701   126.4968     5.5893   137.3676     7.8185     1.5146     0.9338     4.1026    35.3664     0.0000    30.5338  -999.2500     0.1242  2534.5835
   5360.0000     0.0490     0.0082     0.0092     0.0123     0.0193     0.0309     0.0303     0.0003     0.0000  1213.9501     0.0615     0.0036     0.0006     0.0931   122.0706     0.0000    -0.6231   132.4219   111.9742   136.5455     6.0467   150.1919     8.3609     1.8918     0.4019     2.3496    35.3766     0.0000    25.9633  -999.2500     0.1105  2553.0000
   5360.5000     0.0453     0.0144     0.0105     0.0041     0.0163     0.0296     0.0189     0.0004     0.0006  1211.9396     0.0496     0.0036     0.0006     0.0700   122.0706     0.0000    -0.6246   147.1437   111.9783   149.1547     6.6216   165.1702     9.0363     2.1678     0.1390     1.0756    35.3867     0.0000    18.2593  -999.2500     0.0949  2508.7273
   5361.0000     0.0432     0.0204     0.0104     0.0010     0.0114     0.0246     0.0116     0.0002     0.0011  1214.3881     0.0375     0.0035     0.0006     0.0498   122.0706     0.0000    -0.6261   155.2696   111.9824   159.4562     7.1273   177.2505     9.3775     2.3670     0.0343     0.4008    35.3968     0.0000    11.5442  -999.2500     0.0807  2549.8181
