~VERSION INFORMATION
VERS.           1.2   :CWLS Log ASCII Standard - VERSION 1.2
WRAP.           NO    :One Line per depth step
PROD.  Schlumberger   :LAS Producer
PROG.  DLIS to ASCII 2.3                               :LAS Program name and version
CREA.        2015/05/30 23:46                          :LAS Creation date {YYYY/MM/DD hh:mm}
DLIS_CREA.  2015-May-30 15:01                          :DLIS Creation date and time {YYYY-MMM-DD hh:mm}
SOURCE.     b43ac578-4029-44ab-a201-dacd5736d378       :DLIS File Name
#--------------------------------------------------
~WELL INFORMATION
#MNEM.UNIT      DATA             DESCRIPTION
#---- ------ --------------   -----------------------------
STRT .F      5200.5000       :START DEPTH     
STOP .F      7212.5000       :STOP DEPTH     
STEP .F       0.5000         :STEP       
NULL .          -999.25      :NULL VALUE
COMP .                 COMPANY:  ADM COMPANY                        
WELL .                    WELL:  CCS#2                              
FLD  .                   FIELD:  WILDCAT                            
LOC  .                LOCATION:  LAT 39.885961                      
CNTY .                  COUNTY:  MACON                              
STAT .                   STATE:  ILLINOIS                           
CTRY .                 COUNTRY:  USA                                
SRVC .         SERVICE COMPANY:  Schlumberger                       
LATI .DEG             LATITUDE:  39.885961 degrees                  
LONG .DEG            LONGITUDE:  -88.888044 degrees                 
API  .              API NUMBER:  12-115-23713-00                    
DATE .                LOG DATE:  29-May-2015
UWI  .          UNIQUE WELL ID:  12-115-23713-00                    
#-----------------------------------------------------------------------------
~PARAMETER INFORMATION
#MNEM.UNIT    VALUE                      DESCRIPTION
#---- -----   --------------------       ------------------------
CN   .        ADM COMPANY                :Company Name
WN   .        CCS#2                      :Well Name
FN   .        WILDCAT                    :Field Name
FL   .        LAT 39.885961              :Field Location
FL1  .        LONG 39.885961             :Field Location, Line 1
COUN .        MACON                      :County or Parish
STAT .        ILLINOIS                   :State or Province
NATI .        USA                        :Nation
DATE .        29-May-2015                :Tools Above Rotary Table Date
APIN .        12-115-23713-00            :API Well Number
SECT .        32                         :Section
TOWN .        17N                        :Township
RANG .        3E                         :Range
DMF  .        KB                         :Drilling Measured From (Name of Drilling Elevation Reference)
LMF  .        KB                         :Logging Measured From (Name of Logging Elevation Reference)
PDAT .        GL                         :Permanent Datum
ENGI .        H. DIMITROV / M. MOHAMMED  :Engineer s Name
WITN .        NICK MALKEWICZ             :Witness s Name
LATI .        39.885961 degrees          :Latitude
LONG .        -88.888044 degrees         :Longitude
LUL  .        BRADFORD                   :Logging Unit Location
LUN  .        3003                       :Logging Unit Number
RUN  .        RUN 3B                     :Run Number
SON  .                                   :Service Order Number
BHT  .DEGF     127.00000                 :Bottom Hole Temperature
BS   .IN        12.25000                 :Bit Size
MDEN .LB/G      22.11532                 :Matrix Density for Density Porosity
DFD  .LB/G       9.20000                 :Drilling Fluid Density
DFV  .S         66.00000                 :Drilling Fluid Viscosity
DFL  .C3         7.60000                 :Drilling Fluid Loss
RMFS .OHMM       0.17000                 :Resistivity of Mud Filtrate Sample
EKB  .F        691.19995                 :Elevation of Kelly Bushing
EGL  .F        675.69995                 :Elevation of Ground Level
BLI  .F       7192.00000                 :Bottom Log Interval
BSAL .PPM     15100.00000                :Borehole Salinity
FLEV .F          8.00000                 :Depth of Drilling Fluid Level to LMF (Log Measured From)
MCST .DEGF      72.50000                 :Mudcake Sample Temperature
MFST .DEGF      72.50000                 :Mud Filtrate Sample Temperature
MRT  .DEGF     127.00000                 :Maximum Recorded Temperature
MST  .DEGF      72.50000                 :Mud Sample Temperature
RMCS .OHMM       0.14000                 :Resistivity of Mud Cake Sample
RMS  .OHMM       0.20000                 :Resistivity of Mud Sample
RW   .OHMM       1.00000                 :Connate Water Resistivity
TDD  .F       7193.00049                 :Driller Total Depth
TDL  .F       7192.00000                 :Logger Total Depth
TLI  .F       5231.00000                 :Top Log Interval
HIDE .        WILDCAT                    :Header Identifier
MATR .        SAND                       :Rock Matrix for Neutron Porosity Corrections
FNUM .           1.00000                 :F-Numerator for Formation Factor Formula
FEXP .           2.00000                 :Exponent "m" for Formation Factor Formula
DFT  .        Fresh Water                :Drilling Fluid Type
DFPH .          11.50000                 :Drilling Fluid pH
MCSS .        Calculated                 :Mudcake Sample Source
MFSS .        Calculated                 :Mud Filtrate Sample Source
FD   .LB/G       8.34540                 :Fluid Density
MSS  .        Active Tank                :Mud Sample Source
OS1  .                                   :Other Services Line 1
OS2  .                                   :Other Services Line 2
OS3  .                                   :Other Services Line 3
OS4  .                                   :Other Services Line 4
OS5  .                                   :Other Services Line 5
R1   .        THANKS FOR CHOOSING SCHLUMBERGER!!! :Remarks Line 1
R2   .        All WELL PROPERTIES PROVIDED BY CLIENT :Remarks Line 2
R3   .        ALL SCALES ON PRESENTATIONS AS PER

CLIENT REQUEST :Remarks Line 3
R4   .        MATRIX  SANDSTONE          :Remarks Line 4
R5   .        MATRIX DENSITY  2.65 G/CC  :Remarks Line 5
R6   .        ALL LOGGING INTERVALS AS PER CLIENT REQUEST :Remarks Line 6
R7   .        MRT = 127 DEGF FROM THE THERMOMETER :Remarks Line 7
R8   .                                   :Remarks Line 8
TCS  .        20 00 00                   :Time Circulation Stopped
TLAB .        11 17 00                   :Time Logger At Bottom
EPD  .C3         675.699951              :Elevation of Permanent Datum above Mean Sea Level
APD  .F          15.500000               :Elevation of Depth Reference (LMF) above Permanent Datum
#-----------------------------------------------------------------------------
~CURVE INFORMATION
#MNEM.UNIT   API CODE                                  DESCRIPTION
#---- -----  --------                                  -----------------------
DEPT .F                                                :DEPTH (BOREHOLE) {F12.4}
C1   .IN                                               :Caliper 1 {F11.4}
C2   .IN                                               :Caliper 2 {F11.4}
CDF  .LBF                                              :Calibrated Downhole Force {F11.4}
CTEM .DEGF                                             :Cartridge Temperature {F11.4}
DCAL .IN                                               :Differential Caliper {F11.4}
DEVI .DEG                                              :Hole Deviation {F11.4}
DEVIM.DEG                                              :Memorized Deviation {F11.4}
DTCO .US/F                                             :Delta-T Compressional {F11.4}
DTSM .US/F                                             :Delta-T Shear {F11.4}
ED   .F                                                :East Departure {F11.4}
GR_EDTC.GAPI                                           :Gamma Ray {F11.4}
GTEM .DEGF                                             :Generalized Borehole Temperature {F11.4}
HAZI .DEG                                              :Hole Azimuth Relative to True North {F11.4}
HAZIM.DEG                                              :Hole Azimuth Relative to True North {F11.4}
ITT  .S                                                :Integrated Transit Time {F11.4}
ND   .F                                                :North Departure {F11.4}
P1AZ .DEG                                              :Pad 1 Azimuth in Horizontal Plane (0 = True North) {F11.4}
PR   .                                                 :Poisson s Ratio {F11.4}
RB   .DEG                                              :Relative Bearing {F11.4}
SDEV .DEG                                              :Sonde Deviation {F11.4}
SDEVM.DEG                                              :Sonde Deviation {F11.4}
SPHI .CFCF                                             :Sonic Porosity {F11.4}
STIT .F                                                :Stuck Tool Indicator, Total {F11.4}
TENS .LBF                                              :Cable Tension {F11.4}
#-----------------------------------------------------------------------------
# 
#      DEPT         C1         C2        CDF        CTEM       DCAL       DEVI      DEVIM       DTCO       DTSM        ED      GR_EDTC      GTEM       HAZI      HAZIM       ITT         ND        P1AZ        PR         RB        SDEV      SDEVM       SPHI       STIT       TENS
#
~A  
# ...
   6404.0000    12.3080    13.3054  1618.0676   126.0235     0.0681     0.5698     0.4680    63.9394   102.3246   -57.2717    50.3787   120.5352   154.8081   144.0175     0.0563   102.2125    67.2197     0.1797   272.4121     0.5698     0.4680     0.0776     0.0000  3517.3335
   6404.5000    12.4983    12.5789  1595.7211   126.0235     0.2264     0.5629     0.4653    65.9189   107.4971   -57.2689    60.7950   120.5393   154.6362   143.6570     0.0563   102.2085    66.7024     0.1987   272.0658     0.5629     0.4653     0.0940     0.0000  3413.3333
   6405.0000    12.5645    12.5230  1568.3164   126.0235     0.2379     0.5564     0.4651    68.3227   108.0636   -57.2660    69.6763   120.5434   154.3612   143.1736     0.0562   102.2046    65.3121     0.1670   270.9503     0.5564     0.4651     0.1127     0.0000  3302.2502
   6405.5000    12.5893    12.5190  1563.3311   126.0235     0.2479     0.5506     0.4627    69.3341   110.4738   -57.2631    74.8488   120.5475   153.9144   142.6289     0.0562   102.2006    64.1297     0.1751   270.2150     0.5506     0.4627     0.1202     0.0000  3395.6667
   6406.0000    12.6389    12.5150  1587.9000   126.0235     0.3848     0.5421     0.4632    70.6760   116.3229   -57.2602    71.1949   120.5516   153.4849   141.8654     0.0562   102.1968    64.2310     0.2074   270.7461     0.5421     0.4632     0.1298     0.0000  3394.3333
   6406.5000    12.6224    12.3953  1594.2595   126.0235     0.3737     0.5339     0.4635    71.1059   117.4584   -57.2573    67.0991   120.5557   152.8914   141.2578     0.0561   102.1928    64.1192     0.2108   271.2278     0.5339     0.4635     0.1328     0.0000  3422.6667
   6407.0000    12.6099    12.3953  1590.6256   126.0235     0.3960     0.5265     0.4653    71.4108   118.4536   -57.2542    63.8045   120.5598   152.3736   140.2268     0.0561   102.1889    64.0902     0.2145   271.7165     0.5265     0.4653     0.1349     0.0000  3451.0000
   6407.5000    12.5479    12.3953  1581.9158   126.0235     0.3511     0.5184     0.4669    70.8767   118.5243   -57.2512    68.2849   120.5639   151.6465   139.5708     0.0560   102.1850    64.2209     0.2217   272.5737     0.5184     0.4669     0.1312     0.0000  3386.6667
   6408.0000    12.5562    12.4033  1577.4283   126.0235     0.3170     0.5109     0.4696    70.4340   118.6982   -57.2481    72.0135   120.5680   150.9563   138.5614     0.0560   102.1812    64.2246     0.2283   273.2680     0.5109     0.4696     0.1281     0.0000  3472.6667
   6408.5000    12.5975    12.4512  1568.8029   126.0235     0.3511     0.5070     0.4717    69.7596   118.5233   -57.2450    74.2239   120.5721   150.2712   137.8622     0.0560   102.1773    64.5230     0.2350   274.2521     0.5070     0.4717     0.1233     0.0000  3459.0000
   6409.0000    12.6058    12.4512  1542.5935   126.0235     0.2382     0.5020     0.4738    69.5590   118.1391   -57.2419    75.2701   120.5762   149.5775   137.1819     0.0559   102.1736    64.5709     0.2347   274.9942     0.5020     0.4738     0.1218     0.0000  3314.6667
   6409.5000    12.5479    12.4592  1502.6196   126.0235     0.2609     0.4976     0.4742    68.7051   116.8270   -57.2388    75.6618   120.5803   148.8494   136.6978     0.0559   102.1698    64.6371     0.2356   275.7883     0.4976     0.4742     0.1156     0.0000  3279.0000
   6410.0000    12.5231    12.4671  1483.4423   126.0235     0.2494     0.4936     0.4743    68.5987   115.1210   -57.2356    83.1854   120.5844   148.1920   136.1337     0.0559   102.1660    65.2391     0.2247   277.0475     0.4936     0.4743     0.1148     0.0000  3293.3333
   6410.5000    12.5231    12.4911  1494.7196   126.0235     0.2379     0.4910     0.4761    68.7096   112.6135   -57.2324    74.4614   120.5885   147.5947   135.7107     0.0558   102.1624    65.2607     0.2035   277.6661     0.4910     0.4761     0.1156     0.0000  3324.6667
   6411.0000    12.4817    12.4592  1496.6156   126.0235     0.2382     0.4869     0.4774    68.7068   112.7147   -57.2292    74.6388   120.5926   146.9660   135.2447     0.0558   102.1587    64.5657     0.2044   277.5992     0.4869     0.4774     0.1156     0.0000  3308.0000
   6411.5000    12.4983    12.4671  1500.1509   126.0235     0.1925     0.4843     0.4792    68.7009   112.9219   -57.2258    69.6677   120.5967   146.4122   134.7606     0.0558   102.1550    64.7032     0.2062   278.2914     0.4843     0.4792     0.1155     0.0000  3282.0000
   6412.0000    12.4156    12.4592  1501.7703   126.0235     0.1911     0.4792     0.4811    68.6087   112.9592   -57.2226    69.0440   120.6009   145.8458   134.5177     0.0557   102.1514    66.1751     0.2077   280.3303     0.4792     0.4811     0.1149     0.0000  3314.3335
   6412.5000    12.4238    12.4631  1514.1931   126.0235     0.2037     0.4769     0.4833    68.9529   112.7342   -57.2192    64.6557   120.6050   145.2664   134.1480     0.0557   102.1478    65.8180     0.2011   280.5512     0.4769     0.4833     0.1174     0.0000  3372.0000
   6413.0000    12.3659    12.4751  1519.5848   126.0235     0.1587     0.4728     0.4875    68.8311   112.5728   -57.2159    59.5415   120.6091   144.8897   133.6339     0.0557   102.1443    66.4997     0.2015   281.6099     0.4728     0.4875     0.1165     0.0000  3279.0000
   6413.5000    12.4321    12.4592  1514.7659   126.0235     0.2156     0.4705     0.4886    68.8391   111.6474   -57.2125    58.1563   120.6132   144.4195   133.4705     0.0556   102.1407    65.8754     0.1933   281.4567     0.4705     0.4886     0.1166     0.0000  3369.5000
   6414.0000    12.4238    12.5071  1553.7035   126.0235     0.1929     0.4680     0.4936    69.1818   111.8220   -57.2090    55.3043   120.6173   144.0175   132.9848     0.0556   102.1371    66.1734     0.1899   282.1558     0.4680     0.4936     0.1191     0.0000  3409.6667
   6414.5000    12.3618    12.5071  1571.7445   126.0235     0.2156     0.4653     0.4956    69.0617   112.0653   -57.2055    51.7714   120.6214   143.6570   132.7119     0.0556   102.1336    69.2772     0.1938   285.6208     0.4653     0.4956     0.1182     0.0000  3391.5002
   6415.0000    12.3122    12.5230  1575.7734   126.0235     0.1587     0.4637     0.5012    69.1145   112.1940   -57.2020    49.7515   120.6255   143.1966   132.2569     0.0555   102.1301    70.3087     0.1942   287.1111     0.4637     0.5012     0.1186     0.0000  3426.6667
   6415.5000    12.3080    12.5789  1565.7800   126.0235     0.1129     0.4627     0.5057    69.1051   112.1468   -57.1985    47.8614   120.6296   142.6289   131.8768     0.0555   102.1267    70.5599     0.1939   287.9312     0.4627     0.5057     0.1185     0.0000  3358.0002
   6416.0000    12.3080    12.5310  1559.3020   126.0235     0.1356     0.4632     0.5106    69.2823   112.1490   -57.1949    51.2838   120.6337   141.8654   131.5743     0.0555   102.1232    71.2845     0.1914   289.4198     0.4632     0.5106     0.1198     0.0000  3386.3333
   6416.5000    12.2915    12.8104  1555.5100   126.0235     0.1356     0.4646     0.5164    69.3105   112.2057   -57.1913    51.9285   120.6378   140.8367   131.2417     0.0554   102.1198    69.6373     0.1915   288.8009     0.4646     0.5164     0.1200     0.0000  3393.3333
   6417.0000    12.2915    12.7066  1582.4490   126.0235     0.1360     0.4653     0.5225    69.5344   112.6744   -57.1877    56.6240   120.6419   140.2268   130.8348     0.0554   102.1165    67.8958     0.1924   287.6689     0.4653     0.5225     0.1217     0.0000  3464.3333
   6417.5000    12.3659    12.4432  1631.6516   126.0235     0.0793     0.4684     0.5276    69.5234   112.7715   -57.1841    58.2376   120.6460   139.2935   130.8159     0.0554   102.1132    69.3015     0.1935   290.0091     0.4684     0.5276     0.1216     0.0000  3501.3335
   6418.0000    12.4321    12.4033  1607.3735   126.0235     0.1695     0.4690     0.5348    69.3939   114.8877   -57.1804    60.0055   120.6501   138.4736   130.3926     0.0553   102.1098    71.7749     0.2128   293.3033     0.4690     0.5348     0.1206     0.0000  3402.0002
