~VERSION INFORMATION
VERS.           1.2   :CWLS Log ASCII Standard - VERSION 1.2
WRAP.           NO    :One Line per depth step
PROD.  Schlumberger   :LAS Producer
PROG.  DLIS to ASCII 2.3                               :LAS Program name and version
CREA.        2015/05/30 23:46                          :LAS Creation date {YYYY/MM/DD hh:mm}
DLIS_CREA.  2015-May-30 15:01                          :DLIS Creation date and time {YYYY-MMM-DD hh:mm}
SOURCE.     b43ac578-4029-44ab-a201-dacd5736d378       :DLIS File Name
#--------------------------------------------------
~WELL INFORMATION
#MNEM.UNIT      DATA             DESCRIPTION
#---- ------ --------------   -----------------------------
STRT .F      5200.5000       :START DEPTH     
STOP .F      7212.5000       :STOP DEPTH     
STEP .F       0.5000         :STEP       
NULL .          -999.25      :NULL VALUE
COMP .                 COMPANY:  ADM COMPANY                        
WELL .                    WELL:  CCS#2                              
FLD  .                   FIELD:  WILDCAT                            
LOC  .                LOCATION:  LAT 39.885961                      
CNTY .                  COUNTY:  MACON                              
STAT .                   STATE:  ILLINOIS                           
CTRY .                 COUNTRY:  USA                                
SRVC .         SERVICE COMPANY:  Schlumberger                       
LATI .DEG             LATITUDE:  39.885961 degrees                  
LONG .DEG            LONGITUDE:  -88.888044 degrees                 
API  .              API NUMBER:  12-115-23713-00                    
DATE .                LOG DATE:  29-May-2015
UWI  .          UNIQUE WELL ID:  12-115-23713-00                    
#-----------------------------------------------------------------------------
~PARAMETER INFORMATION
#MNEM.UNIT    VALUE                      DESCRIPTION
#---- -----   --------------------       ------------------------
CN   .        ADM COMPANY                :Company Name
WN   .        CCS#2                      :Well Name
FN   .        WILDCAT                    :Field Name
FL   .        LAT 39.885961              :Field Location
FL1  .        LONG 39.885961             :Field Location, Line 1
COUN .        MACON                      :County or Parish
STAT .        ILLINOIS                   :State or Province
NATI .        USA                        :Nation
DATE .        29-May-2015                :Tools Above Rotary Table Date
APIN .        12-115-23713-00            :API Well Number
SECT .        32                         :Section
TOWN .        17N                        :Township
RANG .        3E                         :Range
DMF  .        KB                         :Drilling Measured From (Name of Drilling Elevation Reference)
LMF  .        KB                         :Logging Measured From (Name of Logging Elevation Reference)
PDAT .        GL                         :Permanent Datum
ENGI .        H. DIMITROV / M. MOHAMMED  :Engineer s Name
WITN .        NICK MALKEWICZ             :Witness s Name
LATI .        39.885961 degrees          :Latitude
LONG .        -88.888044 degrees         :Longitude
LUL  .        BRADFORD                   :Logging Unit Location
LUN  .        3003                       :Logging Unit Number
RUN  .        RUN 3B                     :Run Number
SON  .                                   :Service Order Number
BHT  .DEGF     127.00000                 :Bottom Hole Temperature
BS   .IN        12.25000                 :Bit Size
MDEN .LB/G      22.11532                 :Matrix Density for Density Porosity
DFD  .LB/G       9.20000                 :Drilling Fluid Density
DFV  .S         66.00000                 :Drilling Fluid Viscosity
DFL  .C3         7.60000                 :Drilling Fluid Loss
RMFS .OHMM       0.17000                 :Resistivity of Mud Filtrate Sample
EKB  .F        691.19995                 :Elevation of Kelly Bushing
EGL  .F        675.69995                 :Elevation of Ground Level
BLI  .F       7192.00000                 :Bottom Log Interval
BSAL .PPM     15100.00000                :Borehole Salinity
FLEV .F          8.00000                 :Depth of Drilling Fluid Level to LMF (Log Measured From)
MCST .DEGF      72.50000                 :Mudcake Sample Temperature
MFST .DEGF      72.50000                 :Mud Filtrate Sample Temperature
MRT  .DEGF     127.00000                 :Maximum Recorded Temperature
MST  .DEGF      72.50000                 :Mud Sample Temperature
RMCS .OHMM       0.14000                 :Resistivity of Mud Cake Sample
RMS  .OHMM       0.20000                 :Resistivity of Mud Sample
RW   .OHMM       1.00000                 :Connate Water Resistivity
TDD  .F       7193.00049                 :Driller Total Depth
TDL  .F       7192.00000                 :Logger Total Depth
TLI  .F       5231.00000                 :Top Log Interval
HIDE .        WILDCAT                    :Header Identifier
MATR .        SAND                       :Rock Matrix for Neutron Porosity Corrections
FNUM .           1.00000                 :F-Numerator for Formation Factor Formula
FEXP .           2.00000                 :Exponent "m" for Formation Factor Formula
DFT  .        Fresh Water                :Drilling Fluid Type
DFPH .          11.50000                 :Drilling Fluid pH
MCSS .        Calculated                 :Mudcake Sample Source
MFSS .        Calculated                 :Mud Filtrate Sample Source
FD   .LB/G       8.34540                 :Fluid Density
MSS  .        Active Tank                :Mud Sample Source
OS1  .                                   :Other Services Line 1
OS2  .                                   :Other Services Line 2
OS3  .                                   :Other Services Line 3
OS4  .                                   :Other Services Line 4
OS5  .                                   :Other Services Line 5
R1   .        THANKS FOR CHOOSING SCHLUMBERGER!!! :Remarks Line 1
R2   .        All WELL PROPERTIES PROVIDED BY CLIENT :Remarks Line 2
R3   .        ALL SCALES ON PRESENTATIONS AS PER

CLIENT REQUEST :Remarks Line 3
R4   .        MATRIX  SANDSTONE          :Remarks Line 4
R5   .        MATRIX DENSITY  2.65 G/CC  :Remarks Line 5
R6   .        ALL LOGGING INTERVALS AS PER CLIENT REQUEST :Remarks Line 6
R7   .        MRT = 127 DEGF FROM THE THERMOMETER :Remarks Line 7
R8   .                                   :Remarks Line 8
TCS  .        20 00 00                   :Time Circulation Stopped
TLAB .        11 17 00                   :Time Logger At Bottom
EPD  .C3         675.699951              :Elevation of Permanent Datum above Mean Sea Level
APD  .F          15.500000               :Elevation of Depth Reference (LMF) above Permanent Datum
#-----------------------------------------------------------------------------
~CURVE INFORMATION
#MNEM.UNIT   API CODE                                  DESCRIPTION
#---- -----  --------                                  -----------------------
DEPT .F                                                :DEPTH (BOREHOLE) {F12.4}
C1   .IN                                               :Caliper 1 {F11.4}
C2   .IN                                               :Caliper 2 {F11.4}
CDF  .LBF                                              :Calibrated Downhole Force {F11.4}
CTEM .DEGF                                             :Cartridge Temperature {F11.4}
DCAL .IN                                               :Differential Caliper {F11.4}
DEVI .DEG                                              :Hole Deviation {F11.4}
DEVIM.DEG                                              :Memorized Deviation {F11.4}
DTCO .US/F                                             :Delta-T Compressional {F11.4}
DTSM .US/F                                             :Delta-T Shear {F11.4}
ED   .F                                                :East Departure {F11.4}
GR_EDTC.GAPI                                           :Gamma Ray {F11.4}
GTEM .DEGF                                             :Generalized Borehole Temperature {F11.4}
HAZI .DEG                                              :Hole Azimuth Relative to True North {F11.4}
HAZIM.DEG                                              :Hole Azimuth Relative to True North {F11.4}
ITT  .S                                                :Integrated Transit Time {F11.4}
ND   .F                                                :North Departure {F11.4}
P1AZ .DEG                                              :Pad 1 Azimuth in Horizontal Plane (0 = True North) {F11.4}
PR   .                                                 :Poisson s Ratio {F11.4}
RB   .DEG                                              :Relative Bearing {F11.4}
SDEV .DEG                                              :Sonde Deviation {F11.4}
SDEVM.DEG                                              :Sonde Deviation {F11.4}
SPHI .CFCF                                             :Sonic Porosity {F11.4}
STIT .F                                                :Stuck Tool Indicator, Total {F11.4}
TENS .LBF                                              :Cable Tension {F11.4}
#-----------------------------------------------------------------------------
# 
#      DEPT         C1         C2        CDF        CTEM       DCAL       DEVI      DEVIM       DTCO       DTSM        ED      GR_EDTC      GTEM       HAZI      HAZIM       ITT         ND        P1AZ        PR         RB        SDEV      SDEVM       SPHI       STIT       TENS
#
~A  
# ...
   6128.5000    12.2501    12.2755  1535.2268   126.0235    -0.0120     0.5358     0.5078    61.2030    96.2144   -57.6980    50.2931   118.2732   187.1403   194.6531     0.0739   104.3200   279.1112     0.1602    91.9708     0.5358     0.5078     0.0531     0.0000  3324.0000
   6129.0000    12.2336    12.2276  1527.3029   126.0235     0.0111     0.5348     0.5070    61.1660    96.0876   -57.6985    52.8574   118.2773   187.7626   194.8389     0.0739   104.3158   278.0981     0.1594    90.3357     0.5348     0.5070     0.0528     0.0000  3376.0000
   6129.5000    12.2377    12.2675  1533.9036   126.0235     0.0111     0.5341     0.5071    60.9668    95.6903   -57.6989    61.7421   118.2814   188.2695   194.9921     0.0739   104.3117   277.1586     0.1583    88.8889     0.5341     0.5071     0.0509     0.0000  3330.3335
   6130.0000    12.2419    12.2995  1541.4481   126.0235     0.0223     0.5341     0.5057    61.0285    96.8927   -57.6993    71.8188   118.2855   188.6447   195.0281     0.0738   104.3075   276.0180     0.1712    87.3732     0.5341     0.5057     0.0515     0.0000  3371.6667
   6130.5000    12.2419    12.2835  1537.1030   126.0235    -0.0004     0.5340     0.5039    61.0867    97.1446   -57.6998    74.4676   118.2896   189.0685   195.0571     0.0738   104.3033   275.0536     0.1730    85.9850     0.5340     0.5039     0.0520     0.0000  3316.0002
   6131.0000    12.2460    12.2276  1548.4000   126.0235    -0.0335     0.5354     0.5024    61.3011    96.4496   -57.7002    62.7618   118.2937   189.4921   195.0246     0.0738   104.2990   274.0043     0.1611    84.5119     0.5354     0.5024     0.0540     0.0000  3362.6667
   6131.5000    12.2129    12.2196  1561.5806   126.0235    -0.0688     0.5348     0.4992    61.2496    96.0590   -57.7007    50.5888   118.2978   189.8572   195.0316     0.0737   104.2948   273.0268     0.1574    83.1697     0.5348     0.4992     0.0536     0.0000  3363.6667
   6132.0000    12.2336    12.2755  1555.4706   126.0235     0.0227     0.5355     0.4968    61.0536    95.2727   -57.7011    43.3564   118.3019   190.2788   195.0133     0.0737   104.2905   272.0975     0.1516    81.8180     0.5355     0.4968     0.0517     0.0000  3316.3335
   6132.5000    12.2419    12.2995  1559.5193   126.0235    -0.0004     0.5359     0.4951    61.0987    95.3386   -57.7015    45.2947   118.3060   190.8198   194.9871     0.0737   104.2863   271.0919     0.1515    80.2712     0.5359     0.4951     0.0522     0.0000  3399.6667
   6133.0000    12.2584    12.2835  1583.5155   126.0235    -0.0116     0.5336     0.4928    60.9494    95.4792   -57.7019    41.5933   118.3101   191.0192   194.9954     0.0737   104.2821   269.8431     0.1561    78.8234     0.5336     0.4928     0.0508     0.0000  3453.3335
   6133.5000    12.1922    12.2196  1600.0463   126.0235    -0.0120     0.5324     0.4927    61.2434    95.3799   -57.7024    41.3004   118.3143   191.5774   194.9673     0.0736   104.2778   268.5377     0.1492    76.9595     0.5324     0.4927     0.0535     0.0000  3439.6665
   6134.0000    12.1757    12.2196  1592.2659   126.0235    -0.0344     0.5274     0.4929    61.4559    95.9980   -57.7028    42.3404   118.3184   191.8450   194.9843     0.0736   104.2736   267.7927     0.1528    75.9471     0.5274     0.4929     0.0555     0.0000  3441.0000
   6134.5000    12.1922    12.2196  1586.2411   126.0235    -0.0129     0.5256     0.4941    61.5294    96.1245   -57.7032    46.6243   118.3225   192.2086   194.8749     0.0736   104.2693   267.3637     0.1529    75.1543     0.5256     0.4941     0.0562     0.0000  3451.0002
   6135.0000    12.2419    12.2276  1598.7231   126.0235     0.0099     0.5200     0.4948    61.9796    96.0778   -57.7036    47.3809   118.3266   192.4141   194.7727     0.0735   104.2649   266.1189     0.1436    73.7041     0.5200     0.4948     0.0603     0.0000  3443.0000
   6135.5000    12.2708    12.2636  1597.0443   126.0235     0.0223     0.5176     0.4964    62.7983    96.1164   -57.7040    42.8334   118.3307   192.7008   194.4837     0.0735   104.2606   265.2042     0.1276    72.5028     0.5176     0.4964     0.0677     0.0000  3454.3335
   6136.0000    12.2460    12.2835  1580.2371   126.0235    -0.0004     0.5134     0.4984    62.7722    96.6061   -57.7044    38.0641   118.3348   192.9910   194.3363     0.0735   104.2563   264.4304     0.1346    71.4383     0.5134     0.4984     0.0674     0.0000  3471.6667
   6136.5000    12.2046    12.2117  1581.7506   126.0235    -0.0116     0.5107     0.5010    62.8399    96.5906   -57.7049    37.1066   118.3389   193.4397   193.9974     0.0734   104.2520   263.1818     0.1331    69.7414     0.5107     0.5010     0.0680     0.0000  3456.6667
   6137.0000    12.1964    12.2196  1574.9441   126.0235    -0.0244     0.5082     0.5033    62.8110    96.5594   -57.7053    37.6687   118.3430   193.9269   193.6851     0.0734   104.2476   262.3368     0.1332    68.4092     0.5082     0.5033     0.0678     0.0000  3488.3333
   6137.5000    12.2088    12.2196  1568.1896   126.0235    -0.0232     0.5083     0.5064    62.6085    96.8413   -57.7057    39.5695   118.3471   194.0958   193.2883     0.0734   104.2432   261.6180     0.1409    67.5214     0.5083     0.5064     0.0660     0.0000  3438.0000
   6138.0000    12.1840    12.2276  1571.7445   126.0235    -0.0232     0.5072     0.5090    62.3665    96.7502   -57.7061    40.7716   118.3512   194.5340   192.7204     0.0733   104.2389   260.5776     0.1445    66.0436     0.5072     0.5090     0.0638     0.0000  3451.6670
   6138.5000    12.2419    12.2755  1571.1914   126.0235    -0.0120     0.5075     0.5126    62.1166    96.4981   -57.7065    44.0812   118.3553   194.6748   192.3038     0.0733   104.2345   259.4216     0.1462    64.7462     0.5075     0.5126     0.0615     0.0000  3441.6667
   6139.0000    12.2501    12.2835  1568.2603   126.0235     0.0223     0.5070     0.5146    61.6677    96.2178   -57.7069    47.0751   118.3594   194.8389   191.5025     0.0733   104.2300   258.7166     0.1514    63.8767     0.5070     0.5146     0.0574     0.0000  3395.0000
   6139.5000    12.2419    12.2556  1590.2502   126.0235    -0.0004     0.5069     0.5173    61.1667    96.2020   -57.7073    50.5338   118.3635   194.9806   190.9899     0.0733   104.2256   257.5486     0.1607    62.5669     0.5069     0.5173     0.0528     0.0000  3502.0000
   6140.0000    12.2501    12.3354  1600.7791   126.0235     0.0215     0.5062     0.5188    60.9762    95.5398   -57.7077    52.9485   118.3676   195.0007   190.0661     0.0732   104.2212   256.4864     0.1564    61.4849     0.5062     0.5188     0.0510     0.0000  3476.3333
   6140.5000    12.2419    12.2795  1587.6039   126.0235     0.0223     0.5039     0.5198    60.6760    95.0944   -57.7081    57.8187   118.3717   195.0571   189.5196     0.0732   104.2169   255.9156     0.1567    60.8572     0.5039     0.5198     0.0482     0.0000  3396.0000
   6141.0000    12.2377    12.3394  1563.0941   126.0235     0.0339     0.5022     0.5209    60.4925    94.7743   -57.7085    60.1081   118.3758   195.0226   188.5392     0.0732   104.2125   255.4765     0.1563    60.4525     0.5022     0.5209     0.0464     0.0000  3443.0000
   6141.5000    12.2419    12.2196  1566.5701   126.0235    -0.0004     0.4989     0.5222    60.3561    94.4263   -57.7089    54.5891   118.3799   195.0089   187.7462     0.0731   104.2079   254.9055     0.1546    59.8962     0.4989     0.5222     0.0451     0.0000  3422.6667
   6142.0000    12.2088    12.2196  1583.3783   126.0235    -0.0004     0.4968     0.5226    60.9971    94.4784   -57.7093    46.1633   118.3840   195.0133   187.1362     0.0731   104.2034   254.2565     0.1426    59.2420     0.4968     0.5226     0.0512     0.0000  3459.6667
   6142.5000    12.2419    12.3394  1582.7650   126.0235    -0.0120     0.4947     0.5228    61.0481    94.1126   -57.7096    38.7863   118.3881   194.9801   186.7203     0.0731   104.1989   253.4816     0.1368    58.5006     0.4947     0.5228     0.0517     0.0000  3454.3335
