~VERSION INFORMATION
VERS.           1.2   :CWLS Log ASCII Standard - VERSION 1.2
WRAP.           NO    :One Line per depth step
PROD.  Schlumberger   :LAS Producer
PROG.  DLIS to ASCII 2.3                               :LAS Program name and version
CREA.        2015/05/06 16:26                          :LAS Creation date {YYYY/MM/DD hh:mm}
DLIS_CREA.  2015-May-04 11:59                          :DLIS Creation date and time {YYYY-MMM-DD hh:mm}
SOURCE.     301ad50a-0e97-4ef4-9f57-5a70afd84532       :DLIS File Name
#--------------------------------------------------
~WELL INFORMATION
#MNEM.UNIT      DATA             DESCRIPTION
#---- ------ --------------   -----------------------------
STRT .F      23.5000         :START DEPTH     
STOP .F      5264.5000       :STOP DEPTH     
STEP .F       0.5000         :STEP       
NULL .          -999.25      :NULL VALUE
COMP .                 COMPANY:  ADM COMPANY                        
WELL .                    WELL:  CCS#2                              
FLD  .                   FIELD:  WILDCAT                            
LOC  .                LOCATION:  Latitude: 39.885961                
CNTY .                  COUNTY:  MACON                              
STAT .                   STATE:  ILLINOIS                           
CTRY .                 COUNTRY:  USA                                
SRVC .         SERVICE COMPANY:  Schlumberger                       
LATI .DEG             LATITUDE:  39° 53' 9.46" N                    
LONG .DEG            LONGITUDE:  88° 53' 16.958" W                  
API  .              API NUMBER:  12-115-23713-00                    
DATE .                LOG DATE:  03-May-2015
UWI  .          UNIQUE WELL ID:                                     
#-----------------------------------------------------------------------------
~PARAMETER INFORMATION
#MNEM.UNIT    VALUE                      DESCRIPTION
#---- -----   --------------------       ------------------------
CN   .        ADM COMPANY                :Company Name
WN   .        CCS#2                      :Well Name
FN   .        WILDCAT                    :Field Name
FL   .        Latitude  39.885961        :Field Location
FL1  .        Longitude  -88.888044      :Field Location, Line 1
COUN .        MACON                      :County or Parish
STAT .        ILLINOIS                   :State or Province
NATI .        USA                        :Nation
DATE .        03-May-2015                :Tools Above Rotary Table Date
APIN .        12-115-23713-00            :API Well Number
SECT .        32                         :Section
TOWN .        17N                        :Township
RANG .        3E                         :Range
DMF  .        KB                         :Drilling Measured From (Name of Drilling Elevation Reference)
LMF  .        KB                         :Logging Measured From (Name of Logging Elevation Reference)
PDAT .        GL                         :Permanent Datum
ENGI .        Yazan Alhabahbeh           :Engineer s Name
WITN .        Nick Malkewicz             :Witness s Name
LATI .        39° 53' 9.46  N            :Latitude
LONG .        88° 53' 16.958  W          :Longitude
LUL  .        BRADFORD                   :Logging Unit Location
LUN  .        3019                       :Logging Unit Number
RUN  .        2B                         :Run Number
SON  .        D9QJ-00005                 :Service Order Number
BHT  .DEGF     132.00000                 :Bottom Hole Temperature
BS   .IN        17.50000                 :Bit Size
MDEN .G/C3       2.71000                 :Matrix Density for Density Porosity
DFD  .LB/G       9.15000                 :Drilling Fluid Density
DFV  .S         61.00000                 :Drilling Fluid Viscosity
DFL  .C3      -999.25000                 :Drilling Fluid Loss
RMFS .OHMM       0.16000                 :Resistivity of Mud Filtrate Sample
EKB  .F        691.19995                 :Elevation of Kelly Bushing
EGL  .F        675.69995                 :Elevation of Ground Level
BLI  .F       5252.00000                 :Bottom Log Interval
BSAL .PPM     14700.00000                :Borehole Salinity
FLEV .F          8.00000                 :Depth of Drilling Fluid Level to LMF (Log Measured From)
MCST .DEGF      74.30000                 :Mudcake Sample Temperature
MFST .DEGF      72.50000                 :Mud Filtrate Sample Temperature
MRT  .DEGF     135.00000                 :Maximum Recorded Temperature
MST  .DEGF      73.50000                 :Mud Sample Temperature
RMCS .OHMM       0.26600                 :Resistivity of Mud Cake Sample
RMS  .OHMM       0.19000                 :Resistivity of Mud Sample
RW   .OHMM       1.00000                 :Connate Water Resistivity
TDD  .F       5252.00000                 :Driller Total Depth
TDL  .F       5252.00000                 :Logger Total Depth
TLI  .F        200.00000                 :Top Log Interval
HIDE .        WILDCAT                    :Header Identifier
MATR .        LIME                       :Rock Matrix for Neutron Porosity Corrections
FNUM .           1.00000                 :F-Numerator for Formation Factor Formula
FEXP .           2.00000                 :Exponent "m" for Formation Factor Formula
DFT  .        SALT WATER                 :Drilling Fluid Type
DFPH .          11.00000                 :Drilling Fluid pH
MCSS .        Calculated                 :Mudcake Sample Source
MFSS .        Calculated                 :Mud Filtrate Sample Source
FD   .G/C3       1.00000                 :Fluid Density
MSS  .        Active Tank                :Mud Sample Source
OS1  .                                   :Other Services Line 1
OS2  .                                   :Other Services Line 2
OS3  .                                   :Other Services Line 3
OS4  .                                   :Other Services Line 4
OS5  .                                   :Other Services Line 5
R1   .        THANKS FOR CHOOSING

SCHLUMBERGER!!! :Remarks Line 1
R2   .        MATRIX  LIMESTONE          :Remarks Line 2
R3   .        MATRIX DENSITY  2.71 G/CC  :Remarks Line 3
R4   .        All WELL PROPERTIES PROVIDED BY

CLIENT . :Remarks Line 4
R5   .        ALL SCALES ON PRESENTATIONS AS PER

CLIENT REQUEST :Remarks Line 5
R6   .        Temp recorded by sensors inside the tool . :Remarks Line 6
R7   .                                   :Remarks Line 7
R8   .                                   :Remarks Line 8
TCS  .        04 45 00                   :Time Circulation Stopped
TLAB .        22 39 00                   :Time Logger At Bottom
EPD  .C3         675.699951              :Elevation of Permanent Datum above Mean Sea Level
APD  .F          15.500000               :Elevation of Depth Reference (LMF) above Permanent Datum
#-----------------------------------------------------------------------------
~CURVE INFORMATION
#MNEM.UNIT   API CODE                                  DESCRIPTION
#---- -----  --------                                  -----------------------
DEPT .F                                                :DEPTH (BOREHOLE) {F12.4}
C1   .IN                                               :Caliper 1 {F11.4}
C2   .IN                                               :Caliper 2 {F11.4}
CDF  .LBF                                              :Calibrated Downhole Force {F11.4}
CTEM .DEGF                                             :Cartridge Temperature {F11.4}
DCAL .IN                                               :Differential Caliper {F11.4}
DEVI .DEG                                              :Hole Deviation {F11.4}
DEVIM.DEG                                              :Memorized Deviation {F11.4}
DTCO .US/F                                             :Delta-T Compressional {F11.4}
DTSM .US/F                                             :Delta-T Shear {F11.4}
ED   .F                                                :East Departure {F11.4}
GR_EDTC.GAPI                                           :Gamma Ray {F11.4}
GTEM .DEGF                                             :Generalized Borehole Temperature {F11.4}
HAZI .DEG                                              :Hole Azimuth Relative to True North {F11.4}
HAZIM.DEG                                              :Hole Azimuth Relative to True North {F11.4}
ITT  .S                                                :Integrated Transit Time {F11.4}
ND   .F                                                :North Departure {F11.4}
P1AZ .DEG                                              :Pad 1 Azimuth in Horizontal Plane (0 = True North) {F11.4}
PR   .                                                 :Poisson s Ratio {F11.4}
RB   .DEG                                              :Relative Bearing {F11.4}
SDEV .DEG                                              :Sonde Deviation {F11.4}
SDEVM.DEG                                              :Sonde Deviation {F11.4}
SPHI .CFCF                                             :Sonic Porosity {F11.4}
STIT .F                                                :Stuck Tool Indicator, Total {F11.4}
TENS .LBF                                              :Cable Tension {F11.4}
#-----------------------------------------------------------------------------
# 
#      DEPT         C1         C2        CDF        CTEM       DCAL       DEVI      DEVIM       DTCO       DTSM        ED      GR_EDTC      GTEM       HAZI      HAZIM       ITT         ND        P1AZ        PR         RB        SDEV      SDEVM       SPHI       STIT       TENS
#
~A  
# ...
   4199.5000    21.6246    18.7899   245.4728   141.8353     2.3199     0.3149     0.4335    53.7014    83.0810     0.0000    28.1616   119.1744     8.9289     0.4274     0.0526     0.0000   322.1042     0.1412   313.1766     0.3173     0.4382    -0.0173     0.0000  2723.0000
   4200.0000    21.5262    18.9463   239.9302   141.8353     2.4335     0.3202     0.4441    52.8390    82.5628     0.0000    28.6462   119.1805     9.1464   357.8298     0.0526     0.0000   322.9402     0.1531   313.7945     0.3228     0.4491    -0.0238     0.0000  2592.3335
   4200.5000    21.8136    19.0096   236.4693   141.8353     2.3572     0.3239     0.4536    53.5840    82.3811     0.0000    31.2790   119.1866     9.2521   356.0489     0.0526     0.0000   322.2677     0.1333   313.0160     0.3266     0.4588    -0.0182     0.0000  2658.3333
   4201.0000    21.8372    18.7936   242.3702   141.8353     2.3572     0.3295     0.4674    53.7818    81.7936     0.0000    32.1902   119.1927     9.2796   353.4410     0.0525     0.0000   322.0698     0.1192   312.7904     0.3322     0.4729    -0.0167     0.0000  2691.5000
   4201.5000    21.8215    18.7787   237.6679   141.8353     2.3572     0.3368     0.4828    54.0172    81.3406     0.0000    32.8718   119.1988     9.1833   351.1566     0.0525     0.0000   321.4702     0.1055   312.2867     0.3396     0.4886    -0.0149     0.0000  2655.2500
   4202.0000    21.6955    18.7824   243.2589   141.8353     2.3971     0.3459     0.4985    53.8564    81.7178     0.0000    32.5521   119.2049     9.4353   348.8922     0.0525     0.0000   320.8993     0.1161   311.4637     0.3489     0.5047    -0.0161     0.0000  2727.6665
   4202.5000    21.8845    18.9240   237.0700   141.8353     2.3656     0.3521     0.5229    54.3523    81.6462     0.0000    29.1869   119.2110     9.7071   346.2481     0.0525     0.0000   320.1491     0.1021   310.4430     0.3553     0.5298    -0.0124     0.0000  2664.7500
   4203.0000    21.7703    18.7303   237.9103   141.8353     2.3235     0.3638     0.5544    53.6599    82.0449     0.0000    28.4089   119.2171    10.1240   342.7783     0.0524     0.0000   319.3519     0.1262   309.2283     0.3671     0.5620    -0.0176     0.0000  2732.6667
   4203.5000    21.8057    18.7713   242.3540   141.8353     2.3656     0.3704     0.5860    53.8379    81.9565     0.0000    29.8572   119.2232    10.4672   340.2193     0.0524     0.0000   319.1713     0.1205   308.7046     0.3739     0.5946    -0.0163     0.0000  2748.3335
   4204.0000    22.0616    18.7787   241.0128   141.8353     2.4741     0.3809     0.6329    53.1027    81.6497     0.0000    38.8241   119.2292    11.0371   336.5162     0.0524     0.0000   319.1265     0.1335   308.0901     0.3845     0.6430    -0.0218     0.0000  2738.2500
   4204.5000    22.1995    18.7787   242.5803   141.8353     2.6025     0.3865     0.6832    52.6059    81.1743     0.0000    43.8703   119.2353    11.6369   332.6278     0.0523     0.0000   318.8780     0.1380   307.2422     0.3903     0.6950    -0.0255     0.0000  2765.7500
   4205.0000    22.2940    18.7861   242.3702   141.8353     2.6197     0.3951     0.7338    55.1237    80.5756     0.0000    45.4079   119.2414    11.9518   329.7056     0.0523     0.0000   319.0209     0.0601   307.0701     0.3990     0.7475    -0.0066     0.0000  2718.6667
   4205.5000    22.4042    18.7973   238.7990   141.8353     2.6456     0.4006     0.7894    55.1141    80.4766     0.0000    40.4160   119.2475    12.1209   325.2508     0.0523     0.0000   319.4772     0.0584   307.3571     0.4046     0.8054    -0.0067     0.0000  2654.0000
   4206.0000    22.5341    18.7899   238.5714   141.8353     2.7524     0.4053     0.8451    55.3715    80.4348     0.0000    35.4100   119.2536    11.7085   320.6806     0.0523     0.0000   319.4197     0.0496   307.7121     0.4095     0.8636    -0.0047     0.0000  2710.5002
   4206.5000    22.5499    18.8383   240.3665   141.8353     2.7498     0.4085     0.8806    55.4785    79.4096     0.0000    31.3615   119.2597    10.8054   316.2288     0.0522     0.0000   318.8680     0.0233   308.0640     0.4127     0.9009    -0.0039     0.0000  2745.7502
   4207.0000    22.8531    18.8457   239.5101   141.8353     2.8042     0.4121     0.9152    55.8261    79.3766     0.0000    28.1051   119.2658    10.0108   309.9188     0.0522     0.0000   318.0314     0.0106   308.0218     0.4165     0.9375    -0.0013     0.0000  2659.7500
   4207.5000    22.9082    18.8308   241.9178   141.8353     2.7444     0.4134     0.9337    55.6907    79.4520     0.0000    28.4759   119.2719     8.4154   301.9410     0.0522     0.0000   318.1985     0.0171   309.7838     0.4178     0.9572    -0.0023     0.0000  2700.6667
   4208.0000    23.1838    18.6260   243.2589   141.8353     2.7444     0.4176     0.9387    56.1485    80.1599     0.0000    29.9941   119.2780     6.7293   293.5508     0.0522     0.0000   317.9054     0.0184   311.1766     0.4221     0.9626     0.0011     0.0000  2705.6667
   4208.5000    23.2586    18.5590   243.0229   141.8353     2.7116     0.4200     0.9469    56.0936    80.3011     0.0000    33.8356   119.2841     4.7047   281.1499     0.0521     0.0000   317.9348     0.0235   313.2310     0.4246     0.9716     0.0007     0.0000  2646.0002
   4209.0000    23.4397    18.6260   238.5728   141.8353     2.7116     0.4276     0.9710    55.9038    78.8033     0.0000    36.8669   119.2902     2.4326   266.3523     0.0521     0.0000   317.7782    -0.0066   315.3463     0.4325     0.9974    -0.0007     0.0000  2678.7500
   4209.5000    23.6130    18.6148   245.4889   141.8353     2.7251     0.4366     1.0215    55.3878    78.6199     0.0000    37.8613   119.2963   359.8178   253.6069     0.0521     0.0000   317.7457     0.0073   317.9287     0.4417     1.0514    -0.0046     0.0000  2730.7500
   4210.0000    23.7665    18.5143   241.0290   141.8353     2.7116     0.4438     1.1242    55.6252    80.2611     0.0000    37.1992   119.3024   357.8298   238.8990     0.0520     0.0000   317.4268     0.0379   319.5979     0.4491     1.1612    -0.0028     0.0000  2701.2500
   4210.5000    23.8413    18.4807   243.0327   141.8353     2.6155     0.4557     1.2673    49.5689    79.6689     0.0000    31.3754   119.3085   355.5264   226.6289     0.0520     0.0000   317.3458     0.1842   321.8203     0.4614     1.3155    -0.0484     0.0000  2740.3335
   4211.0000    23.8925    18.5403   243.4852   141.8353     1.9590     0.4678     1.4026    47.9617    84.4809     0.0000    29.8674   119.3145   352.9847   218.5531     0.0520     0.0000   317.5146     0.2622   324.5308     0.4740     1.4632    -0.0604     0.0000  2763.0000
   4211.5000    24.0106    18.7340   242.1728   141.8353     1.8455     0.4819     1.5714    47.1954    84.4398     0.0000    27.9778   119.3206   351.1566   211.2618     0.0520     0.0000   317.7172     0.2728   326.5618     0.4886     1.6503    -0.0662     0.0000  2712.0000
   4212.0000    24.0303    18.7266   238.5728   141.8353     1.7313     0.5006     1.7326    46.2681    88.1639     0.0000    30.6219   119.3267   348.2050   206.2098     0.0519     0.0000   317.3956     0.3100   329.1919     0.5079     1.8307    -0.0732     0.0000  2681.0000
   4212.5000    22.9987    18.1306   232.5132   141.8353     1.4312     0.5277     1.8602    46.6534    89.2097     0.0000    32.4969   119.3328   345.5439   203.4680     0.0519     0.0000   317.6013     0.3118   332.0587     0.5355     1.9694    -0.0703     0.0000  2667.5000
   4213.0000    22.6326    18.1753   233.5312   141.8353     1.3725     0.5534     1.9973    46.6420    87.6025     0.0000    31.1376   119.3389   342.7783   201.5548     0.0519     0.0000   317.6220     0.3022   334.8446     0.5620     2.1234    -0.0704     0.0000  2633.0000
   4213.5000    22.1995    18.1195   226.4697   141.8353     1.4028     0.5921     2.1232    46.9549    88.0791     0.0000    29.5512   119.3450   339.4527   200.9014     0.0519     0.0000   317.8911     0.3015   338.4394     0.6020     2.2645    -0.0680     0.0000  2573.3333
