~VERSION INFORMATION
VERS.           1.2   :CWLS Log ASCII Standard - VERSION 1.2
WRAP.           NO    :One Line per depth step
PROD.  Schlumberger   :LAS Producer
PROG.  DLIS to ASCII 2.3                               :LAS Program name and version
CREA.        2015/05/30 23:46                          :LAS Creation date {YYYY/MM/DD hh:mm}
DLIS_CREA.  2015-May-30 15:01                          :DLIS Creation date and time {YYYY-MMM-DD hh:mm}
SOURCE.     b43ac578-4029-44ab-a201-dacd5736d378       :DLIS File Name
#--------------------------------------------------
~WELL INFORMATION
#MNEM.UNIT      DATA             DESCRIPTION
#---- ------ --------------   -----------------------------
STRT .F      5200.5000       :START DEPTH     
STOP .F      7212.5000       :STOP DEPTH     
STEP .F       0.5000         :STEP       
NULL .          -999.25      :NULL VALUE
COMP .                 COMPANY:  ADM COMPANY                        
WELL .                    WELL:  CCS#2                              
FLD  .                   FIELD:  WILDCAT                            
LOC  .                LOCATION:  LAT 39.885961                      
CNTY .                  COUNTY:  MACON                              
STAT .                   STATE:  ILLINOIS                           
CTRY .                 COUNTRY:  USA                                
SRVC .         SERVICE COMPANY:  Schlumberger                       
LATI .DEG             LATITUDE:  39.885961 degrees                  
LONG .DEG            LONGITUDE:  -88.888044 degrees                 
API  .              API NUMBER:  12-115-23713-00                    
DATE .                LOG DATE:  29-May-2015
UWI  .          UNIQUE WELL ID:  12-115-23713-00                    
#-----------------------------------------------------------------------------
~PARAMETER INFORMATION
#MNEM.UNIT    VALUE                      DESCRIPTION
#---- -----   --------------------       ------------------------
CN   .        ADM COMPANY                :Company Name
WN   .        CCS#2                      :Well Name
FN   .        WILDCAT                    :Field Name
FL   .        LAT 39.885961              :Field Location
FL1  .        LONG 39.885961             :Field Location, Line 1
COUN .        MACON                      :County or Parish
STAT .        ILLINOIS                   :State or Province
NATI .        USA                        :Nation
DATE .        29-May-2015                :Tools Above Rotary Table Date
APIN .        12-115-23713-00            :API Well Number
SECT .        32                         :Section
TOWN .        17N                        :Township
RANG .        3E                         :Range
DMF  .        KB                         :Drilling Measured From (Name of Drilling Elevation Reference)
LMF  .        KB                         :Logging Measured From (Name of Logging Elevation Reference)
PDAT .        GL                         :Permanent Datum
ENGI .        H. DIMITROV / M. MOHAMMED  :Engineer s Name
WITN .        NICK MALKEWICZ             :Witness s Name
LATI .        39.885961 degrees          :Latitude
LONG .        -88.888044 degrees         :Longitude
LUL  .        BRADFORD                   :Logging Unit Location
LUN  .        3003                       :Logging Unit Number
RUN  .        RUN 3B                     :Run Number
SON  .                                   :Service Order Number
BHT  .DEGF     127.00000                 :Bottom Hole Temperature
BS   .IN        12.25000                 :Bit Size
MDEN .LB/G      22.11532                 :Matrix Density for Density Porosity
DFD  .LB/G       9.20000                 :Drilling Fluid Density
DFV  .S         66.00000                 :Drilling Fluid Viscosity
DFL  .C3         7.60000                 :Drilling Fluid Loss
RMFS .OHMM       0.17000                 :Resistivity of Mud Filtrate Sample
EKB  .F        691.19995                 :Elevation of Kelly Bushing
EGL  .F        675.69995                 :Elevation of Ground Level
BLI  .F       7192.00000                 :Bottom Log Interval
BSAL .PPM     15100.00000                :Borehole Salinity
FLEV .F          8.00000                 :Depth of Drilling Fluid Level to LMF (Log Measured From)
MCST .DEGF      72.50000                 :Mudcake Sample Temperature
MFST .DEGF      72.50000                 :Mud Filtrate Sample Temperature
MRT  .DEGF     127.00000                 :Maximum Recorded Temperature
MST  .DEGF      72.50000                 :Mud Sample Temperature
RMCS .OHMM       0.14000                 :Resistivity of Mud Cake Sample
RMS  .OHMM       0.20000                 :Resistivity of Mud Sample
RW   .OHMM       1.00000                 :Connate Water Resistivity
TDD  .F       7193.00049                 :Driller Total Depth
TDL  .F       7192.00000                 :Logger Total Depth
TLI  .F       5231.00000                 :Top Log Interval
HIDE .        WILDCAT                    :Header Identifier
MATR .        SAND                       :Rock Matrix for Neutron Porosity Corrections
FNUM .           1.00000                 :F-Numerator for Formation Factor Formula
FEXP .           2.00000                 :Exponent "m" for Formation Factor Formula
DFT  .        Fresh Water                :Drilling Fluid Type
DFPH .          11.50000                 :Drilling Fluid pH
MCSS .        Calculated                 :Mudcake Sample Source
MFSS .        Calculated                 :Mud Filtrate Sample Source
FD   .LB/G       8.34540                 :Fluid Density
MSS  .        Active Tank                :Mud Sample Source
OS1  .                                   :Other Services Line 1
OS2  .                                   :Other Services Line 2
OS3  .                                   :Other Services Line 3
OS4  .                                   :Other Services Line 4
OS5  .                                   :Other Services Line 5
R1   .        THANKS FOR CHOOSING SCHLUMBERGER!!! :Remarks Line 1
R2   .        All WELL PROPERTIES PROVIDED BY CLIENT :Remarks Line 2
R3   .        ALL SCALES ON PRESENTATIONS AS PER

CLIENT REQUEST :Remarks Line 3
R4   .        MATRIX  SANDSTONE          :Remarks Line 4
R5   .        MATRIX DENSITY  2.65 G/CC  :Remarks Line 5
R6   .        ALL LOGGING INTERVALS AS PER CLIENT REQUEST :Remarks Line 6
R7   .        MRT = 127 DEGF FROM THE THERMOMETER :Remarks Line 7
R8   .                                   :Remarks Line 8
TCS  .        20 00 00                   :Time Circulation Stopped
TLAB .        11 17 00                   :Time Logger At Bottom
EPD  .C3         675.699951              :Elevation of Permanent Datum above Mean Sea Level
APD  .F          15.500000               :Elevation of Depth Reference (LMF) above Permanent Datum
#-----------------------------------------------------------------------------
~CURVE INFORMATION
#MNEM.UNIT   API CODE                                  DESCRIPTION
#---- -----  --------                                  -----------------------
DEPT .F                                                :DEPTH (BOREHOLE) {F12.4}
C1   .IN                                               :Caliper 1 {F11.4}
C2   .IN                                               :Caliper 2 {F11.4}
CDF  .LBF                                              :Calibrated Downhole Force {F11.4}
CTEM .DEGF                                             :Cartridge Temperature {F11.4}
DCAL .IN                                               :Differential Caliper {F11.4}
DEVI .DEG                                              :Hole Deviation {F11.4}
DEVIM.DEG                                              :Memorized Deviation {F11.4}
DTCO .US/F                                             :Delta-T Compressional {F11.4}
DTSM .US/F                                             :Delta-T Shear {F11.4}
ED   .F                                                :East Departure {F11.4}
GR_EDTC.GAPI                                           :Gamma Ray {F11.4}
GTEM .DEGF                                             :Generalized Borehole Temperature {F11.4}
HAZI .DEG                                              :Hole Azimuth Relative to True North {F11.4}
HAZIM.DEG                                              :Hole Azimuth Relative to True North {F11.4}
ITT  .S                                                :Integrated Transit Time {F11.4}
ND   .F                                                :North Departure {F11.4}
P1AZ .DEG                                              :Pad 1 Azimuth in Horizontal Plane (0 = True North) {F11.4}
PR   .                                                 :Poisson s Ratio {F11.4}
RB   .DEG                                              :Relative Bearing {F11.4}
SDEV .DEG                                              :Sonde Deviation {F11.4}
SDEVM.DEG                                              :Sonde Deviation {F11.4}
SPHI .CFCF                                             :Sonic Porosity {F11.4}
STIT .F                                                :Stuck Tool Indicator, Total {F11.4}
TENS .LBF                                              :Cable Tension {F11.4}
#-----------------------------------------------------------------------------
# 
#      DEPT         C1         C2        CDF        CTEM       DCAL       DEVI      DEVIM       DTCO       DTSM        ED      GR_EDTC      GTEM       HAZI      HAZIM       ITT         ND        P1AZ        PR         RB        SDEV      SDEVM       SPHI       STIT       TENS
#
~A  
# ...
   6940.5000    12.6554    12.7386  1511.5442   126.0235     0.5774     2.5613     2.5491    72.4578   138.9307   -43.3844   112.3204   124.9383    75.3795    71.7846     0.0160   101.7220   287.1291     0.3132   211.7241     2.5613     2.5491     0.1420     0.0000  3449.6670
   6941.0000    12.6720    12.7545  1488.5576   126.0235     0.5889     2.5470     2.5583    73.4779   140.7863   -43.3628   100.6436   124.9424    75.3139    71.5330     0.0159   101.7280   287.0070     0.3128   211.6679     2.5470     2.5583     0.1487     0.0000  3450.0002
   6941.5000    12.5396    12.4592  1541.1519   126.0235     0.3188     2.5287     2.5663    81.0241   143.2358   -43.3410    88.0146   124.9465    75.3095    71.3164     0.0159   101.7341   286.1141     0.2647   210.7798     2.5287     2.5663     0.1930     0.0000  3578.6667
   6942.0000    12.5727    12.3953  1548.4988   126.0235     0.3179     2.5202     2.5796    80.8675   146.6030   -43.3195    86.2498   124.9506    75.2060    71.0598     0.0159   101.7401   285.8919     0.2813   210.6613     2.5202     2.5796     0.1922     0.0000  3521.6667
   6942.5000    12.5851    12.4033  1532.9579   126.0235     0.3183     2.5107     2.5916    80.6582   147.1697   -43.2978    89.4085   124.9547    75.1865    70.8870     0.0158   101.7462   285.8161     0.2853   210.6057     2.5107     2.5916     0.1911     0.0000  3508.0000
   6943.0000    12.5810    12.4592  1541.6455   126.0235     0.3291     2.5035     2.6085    76.3853   147.7533   -43.2759    91.3249   124.9588    75.1216    70.6965     0.0158   101.7523   286.0991     0.3176   210.9533     2.5035     2.6085     0.1668     0.0000  3598.3335
   6943.5000    12.5769    12.5629  1541.4481   126.0235     0.3632     2.5053     2.6284    73.5781   148.6968   -43.2540    91.8339   124.9629    74.9449    70.5960     0.0157   101.7585   285.9072     0.3379   210.9381     2.5053     2.6284     0.1493     0.0000  3528.0000
   6944.0000    12.5107    12.7865  1523.9102   126.0235     0.4210     2.5064     2.6432    76.8187   148.8782   -43.2323    88.2348   124.9670    74.7800    70.5302     0.0157   101.7646   286.0791     0.3186   211.2747     2.5064     2.6432     0.1694     0.0000  3480.0000
   6944.5000    12.5562    12.7905  1509.8085   126.0235     0.5900     2.5102     2.6656    78.8629   148.3133   -43.2102    87.9748   124.9711    74.5638    70.5412     0.0157   101.7709   286.6892     0.3029   212.1007     2.5102     2.6656     0.1812     0.0000  3530.0000
   6945.0000    12.5727    12.8224  1520.0984   126.0235     0.7817     2.5132     2.6815    78.9435   145.8536   -43.1883    85.1753   124.9753    74.3921    70.6092     0.0156   101.7771   286.8485     0.2928   212.4310     2.5132     2.6815     0.1816     0.0000  3473.0000
   6945.5000    12.6141    12.8903  1521.7178   126.0235     0.7460     2.5171     2.7023    79.6175   145.7329   -43.1664    88.5466   124.9793    74.1076    70.7103     0.0156   101.7833   286.9405     0.2873   212.8078     2.5171     2.7023     0.1854     0.0000  3545.6667
   6946.0000    12.5314    12.8583  1533.3506   126.0235     0.6117     2.5201     2.7236    79.9348   145.5988   -43.1445    88.3060   124.9834    73.8306    70.9202     0.0155   101.7896   286.8273     0.2843   212.9714     2.5201     2.7236     0.1871     0.0000  3520.6667
   6946.5000    12.5148    12.8144  1527.2280   126.0235     0.6459     2.5239     2.7362    80.2568   147.3612   -43.1224    91.2353   124.9876    73.6261    71.1108     0.0155   101.7959   286.8406     0.2891   213.1888     2.5239     2.7362     0.1889     0.0000  3484.6667
   6947.0000    12.4817    12.8783  1535.0095   126.0235     0.4310     2.5253     2.7529    80.3040   150.0455   -43.1003    89.9686   124.9916    73.3451    71.3951     0.0155   101.8023   286.3725     0.2993   213.0020     2.5253     2.7529     0.1892     0.0000  3538.6667
   6947.5000    12.4735    12.8264  1555.2335   126.0235     0.6122     2.5280     2.7631    79.9213   149.7141   -43.0783    91.8170   124.9957    73.1447    71.6533     0.0154   101.8086   285.8326     0.3007   212.6622     2.5280     2.7631     0.1871     0.0000  3557.0000
   6948.0000    12.4652    12.7306  1563.6075   126.0235     0.3403     2.5292     2.7734    80.5339   150.4087   -43.0559    90.3169   124.9998    72.8817    72.0131     0.0154   101.8151   285.4211     0.2990   212.5141     2.5292     2.7734     0.1904     0.0000  3530.0000
   6948.5000    12.4900    12.7346  1533.0741   126.0235     0.3403     2.5321     2.7809    82.5218   153.6308   -43.0333    89.9263   125.0040    72.6947    72.3257     0.0153   101.8216   285.0829     0.2972   212.3625     2.5321     2.7809     0.2009     0.0000  3507.3335
   6949.0000    12.4983    12.6987  1512.0404   126.0235     0.4198     2.5346     2.7851    82.8825   155.6328   -43.0112    93.8647   125.0081    72.4481    72.7066     0.0153   101.8280   284.7963     0.3021   212.3230     2.5346     2.7851     0.2027     0.0000  3454.6667
   6949.5000    12.4652    12.6987  1515.2247   126.0235     0.2826     2.5380     2.7890    83.8932   160.8726   -42.9892    94.5616   125.0121    72.1872    73.1444     0.0153   101.8345   284.1216     0.3132   211.9094     2.5380     2.7890     0.2078     0.0000  3493.3335
   6950.0000    12.4900    12.6108  1506.3721   126.0235     0.6786     2.5439     2.7875    84.3687   159.3906   -42.9670    91.5799   125.0163    72.0027    73.4597     0.0152   101.8409   283.8482     0.3054   211.8205     2.5439     2.7875     0.2102     0.0000  3469.0000
   6950.5000    12.4321    12.6188  1501.2765   126.0235     0.8933     2.5503     2.7875    84.1764   160.7204   -42.9448    83.6285   125.0203    71.7329    73.8796     0.0152   101.8474   283.4704     0.3110   211.7120     2.5503     2.7875     0.2092     0.0000  3441.6667
   6951.0000    12.3577    12.5869  1502.6566   126.0235     0.8822     2.5583     2.7835    84.5985   160.8784   -42.9223    77.8030   125.0245    71.5330    74.1688     0.0151   101.8540   283.3447     0.3089   211.7860     2.5583     2.7835     0.2113     0.0000  3478.0000
   6951.5000    12.3246    12.5150  1527.9390   126.0235     0.1925     2.5692     2.7794    84.5002   162.6657   -42.8999    74.2603   125.0286    71.2765    74.5461     0.0151   101.8606   283.2992     0.3152   211.9967     2.5692     2.7794     0.2108     0.0000  3555.3333
   6952.0000    12.3577    12.5230  1580.0989   126.0235     0.1366     2.5796     2.7737    84.4721   161.2122   -42.8778    74.5350   125.0327    71.0598    74.7826     0.0150   101.8671   283.0756     0.3108   211.9898     2.5796     2.7737     0.2107     0.0000  3620.6665
   6952.5000    12.3742    12.4592  1602.5753   126.0235     0.1932     2.5958     2.7676    84.3165   160.0919   -42.8552    75.6250   125.0368    70.8682    75.0797     0.0150   101.8738   282.4236     0.3081   211.5293     2.5958     2.7676     0.2099     0.0000  3650.0000
   6953.0000    12.3411    12.2196  1587.9001   126.0235     0.1688     2.6123     2.7622    84.1387   158.9848   -42.8326    75.3027   125.0409    70.6345    75.2714     0.0150   101.8805   282.4153     0.3055   211.7542     2.6123     2.7622     0.2090     0.0000  3537.0000
   6953.5000    12.3080    12.2835  1549.2690   126.0235     0.1702     2.6284     2.7554    83.6459   155.7516   -42.8105    73.1826   125.0450    70.5960    75.4199     0.0149   101.8871   282.3359     0.2973   211.7131     2.6284     2.7554     0.2066     0.0000  3438.3333
   6954.0000    12.3659    12.3953  1516.3853   126.0235     0.1360     2.6482     2.7503    83.4225   152.7914   -42.7881    75.2776   125.0490    70.4955    75.4763     0.0149   101.8938   282.2824     0.2876   211.7594     2.6482     2.7503     0.2054     0.0000  3499.6667
   6954.5000    12.4321    12.3234  1545.2401   126.0235     0.1929     2.6656     2.7426    83.4378   151.0349   -42.7659    79.5077   125.0532    70.5412    75.5261     0.0148   101.9004   281.6165     0.2804   211.0480     2.6656     2.7426     0.2055     0.0000  3499.0002
