~VERSION INFORMATION
VERS.           1.2   :CWLS Log ASCII Standard - VERSION 1.2
WRAP.           NO    :One Line per depth step
PROD.  Schlumberger   :LAS Producer
PROG.  DLIS to ASCII 2.3                               :LAS Program name and version
CREA.        2015/05/30 05:44                          :LAS Creation date {YYYY/MM/DD hh:mm}
DLIS_CREA.  2015-May-29 22:59                          :DLIS Creation date and time {YYYY-MMM-DD hh:mm}
SOURCE.     3feb4549-4107-45e4-8f62-928498d876c9       :DLIS File Name
#--------------------------------------------------
~WELL INFORMATION
#MNEM.UNIT      DATA             DESCRIPTION
#---- ------ --------------   -----------------------------
STRT .F      5218.5000       :START DEPTH     
STOP .F      7211.0000       :STOP DEPTH     
STEP .F       0.5000         :STEP       
NULL .          -999.25      :NULL VALUE
COMP .                 COMPANY:  ADM COMPANY                        
WELL .                    WELL:  CCS#2                              
FLD  .                   FIELD:  WILDCAT                            
LOC  .                LOCATION:  LAT 39.885961                      
CNTY .                  COUNTY:  MACON                              
STAT .                   STATE:  ILLINOIS                           
CTRY .                 COUNTRY:  USA                                
SRVC .         SERVICE COMPANY:  Schlumberger                       
LATI .DEG             LATITUDE:  39.885961 degrees                  
LONG .DEG            LONGITUDE:  -88.888044 degrees                 
API  .              API NUMBER:  12-115-23713-00                    
DATE .                LOG DATE:  29-May-2015
UWI  .          UNIQUE WELL ID:  12-115-23713-00                    
#-----------------------------------------------------------------------------
~PARAMETER INFORMATION
#MNEM.UNIT    VALUE                      DESCRIPTION
#---- -----   --------------------       ------------------------
CN   .        ADM COMPANY                :Company Name
WN   .        CCS#2                      :Well Name
FN   .        WILDCAT                    :Field Name
FL   .        LAT 39.885961              :Field Location
FL1  .        LONG 39.885961             :Field Location, Line 1
COUN .        MACON                      :County or Parish
STAT .        ILLINOIS                   :State or Province
NATI .        USA                        :Nation
DATE .        29-May-2015                :Tools Above Rotary Table Date
APIN .        12-115-23713-00            :API Well Number
SECT .        32                         :Section
TOWN .        17N                        :Township
RANG .        3E                         :Range
DMF  .        KB                         :Drilling Measured From (Name of Drilling Elevation Reference)
LMF  .        KB                         :Logging Measured From (Name of Logging Elevation Reference)
PDAT .        GL                         :Permanent Datum
ENGI .        H. DIMITROV / M. MOHAMMED  :Engineer s Name
WITN .        NICK MALKEWICZ             :Witness s Name
LATI .        39.885961 degrees          :Latitude
LONG .        -88.888044 degrees         :Longitude
LUL  .        BRADFORD                   :Logging Unit Location
LUN  .        3003                       :Logging Unit Number
RUN  .        Run 3C                     :Run Number
SON  .                                   :Service Order Number
BHT  .DEGF     127.00000                 :Bottom Hole Temperature
BS   .IN        12.25000                 :Bit Size
DFD  .LB/G       9.20000                 :Drilling Fluid Density
DFV  .S         66.00000                 :Drilling Fluid Viscosity
DFL  .C3         7.60000                 :Drilling Fluid Loss
RMFS .OHMM       0.17000                 :Resistivity of Mud Filtrate Sample
EKB  .F        691.19995                 :Elevation of Kelly Bushing
EGL  .F        675.69995                 :Elevation of Ground Level
BLI  .F       7192.00000                 :Bottom Log Interval
BSAL .PPM     15100.00000                :Borehole Salinity
FLEV .F          8.00000                 :Depth of Drilling Fluid Level to LMF (Log Measured From)
MCST .DEGF      72.50000                 :Mudcake Sample Temperature
MFST .DEGF      72.50000                 :Mud Filtrate Sample Temperature
MRT  .DEGF     127.00000                 :Maximum Recorded Temperature
MST  .DEGF      72.50000                 :Mud Sample Temperature
RMCS .OHMM       0.14000                 :Resistivity of Mud Cake Sample
RMS  .OHMM       0.20000                 :Resistivity of Mud Sample
RW   .OHMM       1.00000                 :Connate Water Resistivity
TDD  .F       7193.00049                 :Driller Total Depth
TDL  .F       7193.00049                 :Logger Total Depth
TLI  .F       5240.00000                 :Top Log Interval
HIDE .        WILDCAT                    :Header Identifier
MATR .        SAND                       :Rock Matrix for Neutron Porosity Corrections
FNUM .           1.00000                 :F-Numerator for Formation Factor Formula
FEXP .           2.00000                 :Exponent "m" for Formation Factor Formula
DFT  .        Fresh Water                :Drilling Fluid Type
DFPH .          11.50000                 :Drilling Fluid pH
MCSS .        Calculated                 :Mudcake Sample Source
MFSS .        Calculated                 :Mud Filtrate Sample Source
FD   .LB/G       8.34540                 :Fluid Density
MSS  .        Active Tank                :Mud Sample Source
OS1  .                                   :Other Services Line 1
OS2  .                                   :Other Services Line 2
OS3  .                                   :Other Services Line 3
OS4  .                                   :Other Services Line 4
OS5  .                                   :Other Services Line 5
R1   .        THANKS FOR CHOOSING SCHLUMBERGER!!! :Remarks Line 1
R2   .        All WELL PROPERTIES PROVIDED BY CLIENT :Remarks Line 2
R3   .        ALL SCALES ON PRESENTATIONS AS PER

CLIENT REQUEST :Remarks Line 3
R4   .        MATRIX  SANDSTONE          :Remarks Line 4
R5   .        MATRIX DENSITY  2.65 G/CC  :Remarks Line 5
R6   .        ALL LOGGING INTERVALS AS PER CLIENT REQUEST :Remarks Line 6
R7   .        MRT = 127 DEGF FROM THE THERMOMETER :Remarks Line 7
R8   .                                   :Remarks Line 8
TCS  .        20 00 00                   :Time Circulation Stopped
TLAB .        14 31 00                   :Time Logger At Bottom
EPD  .C3         675.699951              :Elevation of Permanent Datum above Mean Sea Level
APD  .F          15.500000               :Elevation of Depth Reference (LMF) above Permanent Datum
#-----------------------------------------------------------------------------
~CURVE INFORMATION
#MNEM.UNIT   API CODE                                  DESCRIPTION
#---- -----  --------                                  -----------------------
DEPT .F                                                :DEPTH (BOREHOLE) {F12.4}
BFV  .CFCF                                             :Bound Fluid Volume {F11.4}
CBP1 .CFCF                                             :CMR Bin Porosity 1 {F11.4}
CBP2 .CFCF                                             :CMR Bin Porosity 2 {F11.4}
CBP3 .CFCF                                             :CMR Bin Porosity 3 {F11.4}
CBP4 .CFCF                                             :CMR Bin Porosity 4 {F11.4}
CBP5 .CFCF                                             :CMR Bin Porosity 5 {F11.4}
CBP6 .CFCF                                             :CMR Bin Porosity 6 {F11.4}
CBP7 .CFCF                                             :CMR Bin Porosity 7 {F11.4}
CBP8 .CFCF                                             :CMR Bin Porosity 8 {F11.4}
CDF  .LBF                                              :Calibrated Downhole Force {F11.4}
CMFF .CFCF                                             :CMR Free Fluid {F11.4}
CMFF_SIG.CFCF                                          :Standard Deviation of CMR Free Fluid {F11.4}
CMR_PHI_CONV.                                          :CMR Porosity Conversion factor {F11.4}
CMRP_3MS.CFCF                                          :CMR Porosity with T2 values greater than 3 ms {F11.4}
CTEM .DEGF                                             :Cartridge Temperature {F11.4}
DCAL .IN                                               :Differential Caliper {F11.4}
ED   .F                                                :East Departure {F11.4}
GR_EDTC.GAPI                                           :Gamma Ray {F11.4}
GTEM .DEGF                                             :Generalized Borehole Temperature {F11.4}
HCGR .GAPI                                             :HNGS Computed Gamma Ray {F11.4}
HFK  .%                                                :HNGS Formation Potassium Concentration {F11.4}
HSGR .GAPI                                             :HNGS Standard Gamma-Ray {F11.4}
HTHO .PPM                                              :HNGS Formation Thorium Concentration {F11.4}
HURA .PPM                                              :HNGS Formation Uranium Concentration {F11.4}
KSDR .MD                                               :SDR Permeability {F11.4}
KTIM .MD                                               :Timur/Coates Permeability {F11.4}
ND   .F                                                :North Departure {F11.4}
STIT .F                                                :Stuck Tool Indicator, Total {F11.4}
T2LM .MS                                               :T2 Logarithmic Mean {F11.4}
T2LM_SIG.MS                                            :Standard Deviation of T2 Logarithmic Mean {F11.4}
TCMR .CFCF                                             :Total CMR Porosity {F11.4}
TENS .LBF                                              :Cable Tension {F11.4}
#-----------------------------------------------------------------------------
# 
#      DEPT        BFV        CBP1       CBP2       CBP3       CBP4       CBP5       CBP6       CBP7       CBP8       CDF        CMFF     CMFF_SIG  CMR_PHI_CO  CMRP_3MS     CTEM       DCAL        ED      GR_EDTC      GTEM       HCGR       HFK        HSGR       HTHO       HURA       KSDR       KTIM        ND        STIT       T2LM     T2LM_SIG     TCMR       TENS
#                                                                                                                                                   NV
~A  
# ...
   7066.5000     0.0771     0.0063     0.0175     0.0226     0.0307     0.0040     0.0000     0.0000     0.0006  1173.0415     0.0045     0.0033     0.0006     0.0578   127.0261     0.0000    19.0987    74.1152   125.9721    62.6761     1.6497    76.4568    10.4153     1.8086     0.0077     0.0015    37.3724     0.0000     6.6176  -999.2500     0.0816  3041.2222
   7067.0000     0.0727     0.0041     0.0163     0.0225     0.0299     0.0042     0.0000     0.0000     0.0006  1179.4601     0.0048     0.0034     0.0006     0.0572   127.0261     0.0000    19.1268    73.3692   125.9762    61.4368     1.6205    76.4424    10.1895     2.0002     0.0075     0.0016    37.3802     0.0000     7.2423  -999.2500     0.0775  3048.0000
   7067.5000     0.0690     0.0028     0.0138     0.0232     0.0291     0.0041     0.0000     0.0000     0.0007  1176.9183     0.0048     0.0035     0.0006     0.0571   127.0400     0.0000    19.1545    73.5617   125.9803    62.3561     1.6787    77.7394    10.1433     2.0284     0.0073     0.0014    37.3878     0.0000     7.8525  -999.2500     0.0737  3075.5000
   7068.0000     0.0753     0.0055     0.0140     0.0292     0.0266     0.0066     0.0000     0.0000     0.0009  1177.8473     0.0074     0.0036     0.0006     0.0632   127.0118     0.0000    19.1826    76.4581   125.9844    67.5531     1.8661    83.4982    10.7111     2.1046     0.0099     0.0049    37.3955     0.0000     7.2347  -999.2500     0.0828  3052.4001
   7068.5000     0.0953     0.0123     0.0177     0.0370     0.0284     0.0096     0.0001     0.0000     0.0009  1174.3351     0.0105     0.0038     0.0006     0.0758   127.0261     0.0000    19.2105    75.2827   125.9885    69.5019     1.9362    84.6563    10.9250     1.9942     0.0202     0.0178    37.4032     0.0000     6.2582  -999.2500     0.1058  3055.6665
   7069.0000     0.1176     0.0171     0.0233     0.0452     0.0320     0.0120     0.0002     0.0000     0.0007  1182.8943     0.0129     0.0040     0.0006     0.0901   127.0261     0.0000    19.2382    70.8486   125.9926    67.4980     1.8696    80.5540    10.6726     1.6816     0.0388     0.0367    37.4107     0.0000     5.6364  -999.2500     0.1305  3072.8000
   7069.5000     0.1315     0.0179     0.0284     0.0508     0.0343     0.0132     0.0004     0.0000     0.0005  1168.0040     0.0141     0.0041     0.0006     0.0993   127.0261     0.0000    19.2660    62.9608   125.9967    57.2631     1.5842    68.6522     9.0657     1.4314     0.0549     0.0519    37.4184     0.0000     5.5197  -999.2500     0.1456  3010.2002
   7070.0000     0.1261     0.0161     0.0296     0.0488     0.0316     0.0132     0.0006     0.0000     0.0003  1171.0171     0.0141     0.0041     0.0006     0.0945   127.0535     0.0000    19.2941    56.4233   126.0008    51.5091     1.4403    61.5169     8.0649     1.2730     0.0466     0.0483    37.4260     0.0000     5.4953  -999.2500     0.1402  3060.7778
   7070.5000     0.1123     0.0131     0.0276     0.0434     0.0282     0.0122     0.0005     0.0000     0.0001  1169.0103     0.0128     0.0039     0.0006     0.0844   127.0261     0.0000    19.3217    57.4882   126.0048    51.4988     1.4578    61.1434     7.9597     1.2425     0.0308     0.0323    37.4335     0.0000     5.5485  -999.2500     0.1251  3075.5557
   7071.0000     0.1003     0.0110     0.0256     0.0379     0.0258     0.0105     0.0003     0.0000     0.0001  1171.1803     0.0109     0.0037     0.0006     0.0746   126.9835     0.0000    19.3495    61.0711   126.0089    55.2217     1.5727    65.9880     8.4790     1.3621     0.0195     0.0190    37.4411     0.0000     5.5433  -999.2500     0.1112  3009.1001
   7071.5000     0.0918     0.0089     0.0236     0.0347     0.0247     0.0084     0.0002     0.0000     0.0001  1174.3237     0.0087     0.0036     0.0006     0.0681   127.0118     0.0000    19.3773    69.5551   126.0130    62.0029     1.8133    73.2417     9.2423     1.4058     0.0129     0.0097    37.4487     0.0000     5.6040  -999.2500     0.1005  3057.4001
   7072.0000     0.0866     0.0064     0.0214     0.0340     0.0248     0.0063     0.0003     0.0000     0.0000  1173.1388     0.0065     0.0035     0.0006     0.0654   127.0261     0.0000    19.4051    70.0428   126.0171    65.6546     1.9500    76.7210     9.6122     1.3719     0.0102     0.0045    37.4562     0.0000     5.8287  -999.2500     0.0931  3017.3000
   7072.5000     0.0823     0.0037     0.0187     0.0339     0.0260     0.0043     0.0004     0.0000     0.0000  1175.7073     0.0047     0.0034     0.0006     0.0646   127.0261     0.0000    19.4327    67.7053   126.0212    63.5700     1.9016    74.3104     9.2274     1.2872     0.0090     0.0018    37.4637     0.0000     6.2885  -999.2500     0.0869  3072.1001
   7073.0000     0.0756     0.0034     0.0164     0.0301     0.0258     0.0042     0.0001     0.0000     0.0000  1174.4720     0.0042     0.0032     0.0006     0.0601   127.0408     0.0000    19.4603    61.7104   126.0253    59.3858     1.7874    69.2451     8.5563     1.1640     0.0069     0.0013    37.4711     0.0000     6.5144  -999.2500     0.0799  3027.4001
   7073.5000     0.0671     0.0028     0.0151     0.0245     0.0247     0.0055     0.0000     0.0000     0.0000  1156.5995     0.0055     0.0031     0.0006     0.0547   127.0408     0.0000    19.4882    60.8811   126.0294    56.3501     1.6802    66.1547     8.2112     1.2236     0.0056     0.0019    37.4787     0.0000     7.0867  -999.2500     0.0726  2979.0911
   7074.0000     0.0622     0.0025     0.0143     0.0197     0.0257     0.0082     0.0000     0.0001     0.0000  1156.5193     0.0083     0.0033     0.0006     0.0538   127.0118     0.0000    19.5159    59.4137   126.0335    55.4812     1.6504    65.8344     8.1077     1.3197     0.0069     0.0052    37.4861     0.0000     8.1820  -999.2500     0.0706  3020.4001
   7074.5000     0.0615     0.0024     0.0137     0.0172     0.0282     0.0112     0.0002     0.0002     0.0000  1160.6965     0.0116     0.0035     0.0006     0.0570   126.9970     0.0000    19.5435    60.5024   126.0376    53.8881     1.6450    64.7352     7.6290     1.4437     0.0103     0.0103    37.4936     0.0000     9.4872  -999.2500     0.0731  3000.5454
   7075.0000     0.0604     0.0019     0.0131     0.0171     0.0283     0.0121     0.0008     0.0000     0.0000  1152.9532     0.0129     0.0033     0.0006     0.0582   126.9970     0.0000    19.5711    57.3251   126.0417    49.4508     1.5498    60.0488     6.7650     1.3760     0.0120     0.0130    37.5010     0.0000    10.1986  -999.2500     0.0732  2958.0000
   7075.5000     0.0610     0.0037     0.0138     0.0172     0.0264     0.0105     0.0004     0.0000     0.0000  1151.1869     0.0109     0.0031     0.0006     0.0544   126.9970     0.0000    19.5988    53.9751   126.0458    45.6293     1.4072    54.3948     6.3761     1.1514     0.0083     0.0086    37.5084     0.0000     8.7191  -999.2500     0.0719  2991.7000
   7076.0000     0.0618     0.0078     0.0146     0.0165     0.0228     0.0078     0.0002     0.0000     0.0000  1150.7537     0.0080     0.0029     0.0006     0.0473   126.9818     0.0000    19.6264    50.3893   126.0499    43.9358     1.3285    52.9016     6.2944     1.1725     0.0044     0.0044    37.5158     0.0000     6.5551  -999.2500     0.0698  2970.5000
   7076.5000     0.0655     0.0112     0.0159     0.0175     0.0208     0.0049     0.0005     0.0000     0.0000  1151.7756     0.0054     0.0029     0.0006     0.0437   127.0118     0.0000    19.6541    50.5980   126.0540    45.9119     1.3831    54.3598     6.6077     1.1196     0.0025     0.0018    37.5232     0.0000     5.0091  -999.2500     0.0708  2966.8999
   7077.0000     0.0712     0.0124     0.0171     0.0207     0.0210     0.0025     0.0008     0.0003     0.0000  1151.4646     0.0036     0.0031     0.0006     0.0453   127.0270     0.0000    19.6815    52.8671   126.0581    50.4495     1.5286    59.0213     7.2089     1.1266     0.0026     0.0008    37.5306     0.0000     4.5378  -999.2500     0.0748  3016.8999
