~VERSION INFORMATION
VERS.           1.2   :CWLS Log ASCII Standard - VERSION 1.2
WRAP.           NO    :One Line per depth step
PROD.  Schlumberger   :LAS Producer
PROG.  DLIS to ASCII 2.3                               :LAS Program name and version
CREA.        2015/05/30 23:46                          :LAS Creation date {YYYY/MM/DD hh:mm}
DLIS_CREA.  2015-May-30 15:01                          :DLIS Creation date and time {YYYY-MMM-DD hh:mm}
SOURCE.     b43ac578-4029-44ab-a201-dacd5736d378       :DLIS File Name
#--------------------------------------------------
~WELL INFORMATION
#MNEM.UNIT      DATA             DESCRIPTION
#---- ------ --------------   -----------------------------
STRT .F      5200.5000       :START DEPTH     
STOP .F      7212.5000       :STOP DEPTH     
STEP .F       0.5000         :STEP       
NULL .          -999.25      :NULL VALUE
COMP .                 COMPANY:  ADM COMPANY                        
WELL .                    WELL:  CCS#2                              
FLD  .                   FIELD:  WILDCAT                            
LOC  .                LOCATION:  LAT 39.885961                      
CNTY .                  COUNTY:  MACON                              
STAT .                   STATE:  ILLINOIS                           
CTRY .                 COUNTRY:  USA                                
SRVC .         SERVICE COMPANY:  Schlumberger                       
LATI .DEG             LATITUDE:  39.885961 degrees                  
LONG .DEG            LONGITUDE:  -88.888044 degrees                 
API  .              API NUMBER:  12-115-23713-00                    
DATE .                LOG DATE:  29-May-2015
UWI  .          UNIQUE WELL ID:  12-115-23713-00                    
#-----------------------------------------------------------------------------
~PARAMETER INFORMATION
#MNEM.UNIT    VALUE                      DESCRIPTION
#---- -----   --------------------       ------------------------
CN   .        ADM COMPANY                :Company Name
WN   .        CCS#2                      :Well Name
FN   .        WILDCAT                    :Field Name
FL   .        LAT 39.885961              :Field Location
FL1  .        LONG 39.885961             :Field Location, Line 1
COUN .        MACON                      :County or Parish
STAT .        ILLINOIS                   :State or Province
NATI .        USA                        :Nation
DATE .        29-May-2015                :Tools Above Rotary Table Date
APIN .        12-115-23713-00            :API Well Number
SECT .        32                         :Section
TOWN .        17N                        :Township
RANG .        3E                         :Range
DMF  .        KB                         :Drilling Measured From (Name of Drilling Elevation Reference)
LMF  .        KB                         :Logging Measured From (Name of Logging Elevation Reference)
PDAT .        GL                         :Permanent Datum
ENGI .        H. DIMITROV / M. MOHAMMED  :Engineer s Name
WITN .        NICK MALKEWICZ             :Witness s Name
LATI .        39.885961 degrees          :Latitude
LONG .        -88.888044 degrees         :Longitude
LUL  .        BRADFORD                   :Logging Unit Location
LUN  .        3003                       :Logging Unit Number
RUN  .        RUN 3B                     :Run Number
SON  .                                   :Service Order Number
BHT  .DEGF     127.00000                 :Bottom Hole Temperature
BS   .IN        12.25000                 :Bit Size
MDEN .LB/G      22.11532                 :Matrix Density for Density Porosity
DFD  .LB/G       9.20000                 :Drilling Fluid Density
DFV  .S         66.00000                 :Drilling Fluid Viscosity
DFL  .C3         7.60000                 :Drilling Fluid Loss
RMFS .OHMM       0.17000                 :Resistivity of Mud Filtrate Sample
EKB  .F        691.19995                 :Elevation of Kelly Bushing
EGL  .F        675.69995                 :Elevation of Ground Level
BLI  .F       7192.00000                 :Bottom Log Interval
BSAL .PPM     15100.00000                :Borehole Salinity
FLEV .F          8.00000                 :Depth of Drilling Fluid Level to LMF (Log Measured From)
MCST .DEGF      72.50000                 :Mudcake Sample Temperature
MFST .DEGF      72.50000                 :Mud Filtrate Sample Temperature
MRT  .DEGF     127.00000                 :Maximum Recorded Temperature
MST  .DEGF      72.50000                 :Mud Sample Temperature
RMCS .OHMM       0.14000                 :Resistivity of Mud Cake Sample
RMS  .OHMM       0.20000                 :Resistivity of Mud Sample
RW   .OHMM       1.00000                 :Connate Water Resistivity
TDD  .F       7193.00049                 :Driller Total Depth
TDL  .F       7192.00000                 :Logger Total Depth
TLI  .F       5231.00000                 :Top Log Interval
HIDE .        WILDCAT                    :Header Identifier
MATR .        SAND                       :Rock Matrix for Neutron Porosity Corrections
FNUM .           1.00000                 :F-Numerator for Formation Factor Formula
FEXP .           2.00000                 :Exponent "m" for Formation Factor Formula
DFT  .        Fresh Water                :Drilling Fluid Type
DFPH .          11.50000                 :Drilling Fluid pH
MCSS .        Calculated                 :Mudcake Sample Source
MFSS .        Calculated                 :Mud Filtrate Sample Source
FD   .LB/G       8.34540                 :Fluid Density
MSS  .        Active Tank                :Mud Sample Source
OS1  .                                   :Other Services Line 1
OS2  .                                   :Other Services Line 2
OS3  .                                   :Other Services Line 3
OS4  .                                   :Other Services Line 4
OS5  .                                   :Other Services Line 5
R1   .        THANKS FOR CHOOSING SCHLUMBERGER!!! :Remarks Line 1
R2   .        All WELL PROPERTIES PROVIDED BY CLIENT :Remarks Line 2
R3   .        ALL SCALES ON PRESENTATIONS AS PER

CLIENT REQUEST :Remarks Line 3
R4   .        MATRIX  SANDSTONE          :Remarks Line 4
R5   .        MATRIX DENSITY  2.65 G/CC  :Remarks Line 5
R6   .        ALL LOGGING INTERVALS AS PER CLIENT REQUEST :Remarks Line 6
R7   .        MRT = 127 DEGF FROM THE THERMOMETER :Remarks Line 7
R8   .                                   :Remarks Line 8
TCS  .        20 00 00                   :Time Circulation Stopped
TLAB .        11 17 00                   :Time Logger At Bottom
EPD  .C3         675.699951              :Elevation of Permanent Datum above Mean Sea Level
APD  .F          15.500000               :Elevation of Depth Reference (LMF) above Permanent Datum
#-----------------------------------------------------------------------------
~CURVE INFORMATION
#MNEM.UNIT   API CODE                                  DESCRIPTION
#---- -----  --------                                  -----------------------
DEPT .F                                                :DEPTH (BOREHOLE) {F12.4}
C1   .IN                                               :Caliper 1 {F11.4}
C2   .IN                                               :Caliper 2 {F11.4}
CDF  .LBF                                              :Calibrated Downhole Force {F11.4}
CTEM .DEGF                                             :Cartridge Temperature {F11.4}
DCAL .IN                                               :Differential Caliper {F11.4}
DEVI .DEG                                              :Hole Deviation {F11.4}
DEVIM.DEG                                              :Memorized Deviation {F11.4}
DTCO .US/F                                             :Delta-T Compressional {F11.4}
DTSM .US/F                                             :Delta-T Shear {F11.4}
ED   .F                                                :East Departure {F11.4}
GR_EDTC.GAPI                                           :Gamma Ray {F11.4}
GTEM .DEGF                                             :Generalized Borehole Temperature {F11.4}
HAZI .DEG                                              :Hole Azimuth Relative to True North {F11.4}
HAZIM.DEG                                              :Hole Azimuth Relative to True North {F11.4}
ITT  .S                                                :Integrated Transit Time {F11.4}
ND   .F                                                :North Departure {F11.4}
P1AZ .DEG                                              :Pad 1 Azimuth in Horizontal Plane (0 = True North) {F11.4}
PR   .                                                 :Poisson s Ratio {F11.4}
RB   .DEG                                              :Relative Bearing {F11.4}
SDEV .DEG                                              :Sonde Deviation {F11.4}
SDEVM.DEG                                              :Sonde Deviation {F11.4}
SPHI .CFCF                                             :Sonic Porosity {F11.4}
STIT .F                                                :Stuck Tool Indicator, Total {F11.4}
TENS .LBF                                              :Cable Tension {F11.4}
#-----------------------------------------------------------------------------
# 
#      DEPT         C1         C2        CDF        CTEM       DCAL       DEVI      DEVIM       DTCO       DTSM        ED      GR_EDTC      GTEM       HAZI      HAZIM       ITT         ND        P1AZ        PR         RB        SDEV      SDEVM       SPHI       STIT       TENS
#
~A  
   5200.5000    12.5272    12.5150  1561.8987   124.0471    -4.9879     1.9306     1.9123    95.5985    91.2991   -53.2387    26.7060   110.6550   353.4759     9.0884     0.1344    92.2709   139.6254     6.1867   146.1646     1.9306     1.9123     0.2589     0.0000  3105.6667
   5201.0000    12.5231    12.5310  1577.9897   124.0471    -4.9994     1.9429     1.9108    95.9372    93.5472   -53.2431    25.2110   110.6591   354.9505     9.4025     0.1343    92.2884   137.9332    10.6616   142.9986     1.9429     1.9108     0.2602     0.0000  3177.3333
   5201.5000    12.5148    12.5230  1577.9149   124.0471    -4.9765     1.9420     1.9078    96.4257    94.4986   -53.2476    28.3151   110.6632   356.4344     9.7264     0.1343    92.3059   131.2621    13.1356   134.8442     1.9420     1.9078     0.2620     0.0000  3096.0000
   5202.0000    12.5231    12.5150  1568.7280   124.0471    -5.0232     1.9353     1.9041    95.5742    93.2566   -53.2519    27.6006   110.6673   358.1042     9.9024     0.1342    92.3229   136.1679    10.9365   138.0799     1.9353     1.9041     0.2588     0.0000  3076.0000
   5202.5000    12.5314    12.5150  1569.7571   124.0471    -4.9894     1.9310     1.9000    93.7162    91.2059   -53.2562    29.4860   110.6714     0.2055     9.5489     0.1342    92.3399   139.4079     9.9600   139.2185     1.9310     1.9000     0.2515     0.0000  3121.6667
   5203.0000    12.5231    12.5230  1588.7483   124.0471    -4.9994     1.9286     1.8942    94.2606    92.6908   -53.2606    29.2330   110.6755     2.0420     8.6288     0.1341    92.3570   148.5406    15.6380   146.5134     1.9286     1.8942     0.2537     0.0000  3153.3333
   5203.5000    12.5190    12.5230  1579.0000   124.0471    -4.9994     1.9271     1.8882    98.5626    93.0626   -53.2649    30.4285   110.6796     4.3201     7.1149     0.1341    92.3742   149.2259     5.1088   144.9210     1.9271     1.8882     0.2699     0.0000  3219.3335
   5204.0000    12.5231    12.5230  1579.5052   124.0471    -4.9779     1.9288     1.8843    97.5617    92.9449   -53.2692    29.3691   110.6837     6.4944     5.1545     0.1340    92.3910   146.0437     5.9111   139.5653     1.9288     1.8843     0.2663     0.0000  3180.5000
   5204.5000    12.5148    12.5150  1593.5007   124.0471    -4.9999     1.9308     1.8841    94.8011    94.5031   -53.2735    31.3478   110.6878     8.3903     3.1028     0.1340    92.4079   144.8202    80.1696   136.4463     1.9308     1.8841     0.2558     0.0000  3173.0000
   5205.0000    12.5231    12.5150  1584.1082   124.0471    -4.9769     1.9320     1.8864    50.3339    96.7620   -53.2779    30.9339   110.6919     9.9033     1.2702     0.1339    92.4250   145.9210     0.3145   136.0339     1.9320     1.8864    -0.0704     0.0000  3171.6667
   5205.5000    12.5314    12.5230  1589.4761   124.0471    -4.9994     1.9317     1.8895    51.1047    96.8635   -53.2822    30.8903   110.6960    10.9576   359.9013     0.1339    92.4421   151.7322     0.3071   140.7907     1.9317     1.8895    -0.0599     0.0000  3148.0000
   5206.0000    12.5231    12.5270  1601.7251   124.0471    -4.9994     1.9310     1.8916    52.4080    99.1042   -53.2865    31.2110   110.7001    11.6195   359.0787     0.1339    92.4590   144.6300     0.3059   133.0267     1.9310     1.8916    -0.0428     0.0000  3250.0000
   5206.5000    12.5231    12.5150  1595.0752   124.0471    -4.9879     1.9289     1.8903    54.4342   103.6318   -53.2909    32.6848   110.7042    11.9180   358.5630     0.1338    92.4760   145.4908     0.3095   133.5889     1.9289     1.8903    -0.0180     0.0000  3196.3333
   5207.0000    12.5314    12.5150  1584.8566   124.0471    -5.0232     1.9260     1.8839    55.6552   100.0816   -53.2953    37.7684   110.7083    11.8765   357.9896     0.1338    92.4932   148.5039     0.2762   136.6435     1.9260     1.8839    -0.0039     0.0000  3138.0000
   5207.5000    12.5231    12.5190  1598.4590   124.0471    -5.0232     1.9235     1.8657    56.9358   103.2595   -53.2995    49.0448   110.7124    11.5529   356.8896     0.1338    92.5099   144.6723     0.2816   133.1355     1.9235     1.8657     0.0103     0.0000  3213.3335
   5208.0000    12.5190    12.5230  1594.1368   124.0471    -4.9994     1.9205     1.8423    57.3601   107.9016   -53.3039    59.4875   110.7165    11.0640   354.9378     0.1338    92.5270   143.8362     0.3030   132.7883     1.9205     1.8423     0.0148     0.0000  3163.6667
   5208.5000    12.5396    12.5150  1570.7488   124.0471    -4.9994     1.9189     1.8110    58.2188   112.4284   -53.3083    67.9025   110.7206    10.3934   352.0373     0.1337    92.5442   144.8268     0.3168   134.4494     1.9189     1.8110     0.0238     0.0000  3034.3335
   5209.0000    12.5231    12.5150  1576.4181   124.0471    -5.0009     1.9169     1.7751    56.6257   113.2182   -53.3125    69.0946   110.7247     9.7354   348.1364     0.1337    92.5609   136.7744     0.3332   127.0544     1.9169     1.7751     0.0069     0.0000  3158.3335
   5209.5000    12.5314    12.5230  1590.4714   124.0471    -4.9994     1.9152     1.7441    56.4883   113.6038   -53.3169    64.1713   110.7288     9.2339   344.4761     0.1337    92.5780   132.9836     0.3358   123.7646     1.9152     1.7441     0.0054     0.0000  3203.3333
   5210.0000    12.5396    12.5150  1573.8776   124.0471    -5.0009     1.9143     1.7252    56.8313   112.6693   -53.3212    53.5285   110.7329     9.0267   340.4347     0.1336    92.5951   133.8443     0.3294   124.8326     1.9143     1.7252     0.0091     0.0000  3198.3333
   5210.5000    12.5231    12.5270  1591.5736   124.0471    -4.9994     1.9118     1.7136    55.2929   112.2599   -53.3256    39.4774   110.7370     9.1425   340.4707     0.1336    92.6119   131.1611     0.3398   122.0330     1.9118     1.7136    -0.0080     0.0000  3211.3335
   5211.0000    12.5190    12.5230  1609.1174   124.0471    -4.9994     1.9102     1.7003    53.6125   112.6650   -53.3299    33.6339   110.7411     9.4845   338.2829     0.1336    92.6288   128.7419     0.3536   119.2710     1.9102     1.7003    -0.0278     0.0000  3186.6667
   5211.5000    12.5231    12.5150  1597.6731   124.0471    -4.9894     1.9072     1.6995    51.9706   109.2438   -53.3342    31.4209   110.7452     9.7788   341.8971     0.1336    92.6457   134.0153     0.3537   124.2512     1.9072     1.6995    -0.0485     0.0000  3218.7500
   5212.0000    12.5314    12.5150  1596.6066   124.0471    -5.0106     1.9033     1.6937    52.2231   109.6308   -53.3385    31.5904   110.7493     9.8762   343.3640     0.1335    92.6626   136.3842     0.3532   126.5231     1.9033     1.6937    -0.0452     0.0000  3187.3333
   5212.5000    12.5231    12.5230  1604.2780   124.0471    -4.9994     1.9000     1.7155    53.4799   109.2205   -53.3428    31.6135   110.7534     9.5489   348.0525     0.1335    92.6796   140.5480     0.3423   131.0148     1.9000     1.7155    -0.0295     0.0000  3140.6665
   5213.0000    12.5231    12.5190  1582.3484   124.0471    -4.9882     1.8942     1.7418    54.8340   110.4665   -53.3470    32.9275   110.7575     8.6288   351.9114     0.1335    92.6960   138.7006     0.3365   130.0872     1.8942     1.7418    -0.0133     0.0000  3166.3335
   5213.5000    12.5148    12.5230  1624.0176   124.0471    -4.9770     1.8882     1.7758    58.3739   115.4002   -53.3514    37.7993   110.7616     7.1149   355.6522     0.1335    92.7130   131.6460     0.3281   124.5457     1.8882     1.7758     0.0254     0.0000  3317.0000
   5214.0000    12.5231    12.5310  1639.4950   124.0471    -4.9994     1.8843     1.8102    59.6026   117.7122   -53.3558    45.3001   110.7657     5.1545   358.8347     0.1334    92.7302   122.4113     0.3276   117.2694     1.8843     1.8102     0.0378     0.0000  3228.3333
   5214.5000    12.5314    12.5230  1586.1661   124.0471    -5.0106     1.8841     1.8383    62.2825   121.6693   -53.3600    56.9565   110.7699     3.1028     1.4227     0.1334    92.7466   116.6529     0.3225   113.5615     1.8841     1.8383     0.0630     0.0000  3173.6667
