~VERSION INFORMATION
VERS.           1.2   :CWLS Log ASCII Standard - VERSION 1.2
WRAP.           NO    :One Line per depth step
PROD.  Schlumberger   :LAS Producer
PROG.  DLIS to ASCII 2.3                               :LAS Program name and version
CREA.        2015/05/30 05:44                          :LAS Creation date {YYYY/MM/DD hh:mm}
DLIS_CREA.  2015-May-29 22:59                          :DLIS Creation date and time {YYYY-MMM-DD hh:mm}
SOURCE.     3feb4549-4107-45e4-8f62-928498d876c9       :DLIS File Name
#--------------------------------------------------
~WELL INFORMATION
#MNEM.UNIT      DATA             DESCRIPTION
#---- ------ --------------   -----------------------------
STRT .F      5218.5000       :START DEPTH     
STOP .F      7211.0000       :STOP DEPTH     
STEP .F       0.5000         :STEP       
NULL .          -999.25      :NULL VALUE
COMP .                 COMPANY:  ADM COMPANY                        
WELL .                    WELL:  CCS#2                              
FLD  .                   FIELD:  WILDCAT                            
LOC  .                LOCATION:  LAT 39.885961                      
CNTY .                  COUNTY:  MACON                              
STAT .                   STATE:  ILLINOIS                           
CTRY .                 COUNTRY:  USA                                
SRVC .         SERVICE COMPANY:  Schlumberger                       
LATI .DEG             LATITUDE:  39.885961 degrees                  
LONG .DEG            LONGITUDE:  -88.888044 degrees                 
API  .              API NUMBER:  12-115-23713-00                    
DATE .                LOG DATE:  29-May-2015
UWI  .          UNIQUE WELL ID:  12-115-23713-00                    
#-----------------------------------------------------------------------------
~PARAMETER INFORMATION
#MNEM.UNIT    VALUE                      DESCRIPTION
#---- -----   --------------------       ------------------------
CN   .        ADM COMPANY                :Company Name
WN   .        CCS#2                      :Well Name
FN   .        WILDCAT                    :Field Name
FL   .        LAT 39.885961              :Field Location
FL1  .        LONG 39.885961             :Field Location, Line 1
COUN .        MACON                      :County or Parish
STAT .        ILLINOIS                   :State or Province
NATI .        USA                        :Nation
DATE .        29-May-2015                :Tools Above Rotary Table Date
APIN .        12-115-23713-00            :API Well Number
SECT .        32                         :Section
TOWN .        17N                        :Township
RANG .        3E                         :Range
DMF  .        KB                         :Drilling Measured From (Name of Drilling Elevation Reference)
LMF  .        KB                         :Logging Measured From (Name of Logging Elevation Reference)
PDAT .        GL                         :Permanent Datum
ENGI .        H. DIMITROV / M. MOHAMMED  :Engineer s Name
WITN .        NICK MALKEWICZ             :Witness s Name
LATI .        39.885961 degrees          :Latitude
LONG .        -88.888044 degrees         :Longitude
LUL  .        BRADFORD                   :Logging Unit Location
LUN  .        3003                       :Logging Unit Number
RUN  .        Run 3C                     :Run Number
SON  .                                   :Service Order Number
BHT  .DEGF     127.00000                 :Bottom Hole Temperature
BS   .IN        12.25000                 :Bit Size
DFD  .LB/G       9.20000                 :Drilling Fluid Density
DFV  .S         66.00000                 :Drilling Fluid Viscosity
DFL  .C3         7.60000                 :Drilling Fluid Loss
RMFS .OHMM       0.17000                 :Resistivity of Mud Filtrate Sample
EKB  .F        691.19995                 :Elevation of Kelly Bushing
EGL  .F        675.69995                 :Elevation of Ground Level
BLI  .F       7192.00000                 :Bottom Log Interval
BSAL .PPM     15100.00000                :Borehole Salinity
FLEV .F          8.00000                 :Depth of Drilling Fluid Level to LMF (Log Measured From)
MCST .DEGF      72.50000                 :Mudcake Sample Temperature
MFST .DEGF      72.50000                 :Mud Filtrate Sample Temperature
MRT  .DEGF     127.00000                 :Maximum Recorded Temperature
MST  .DEGF      72.50000                 :Mud Sample Temperature
RMCS .OHMM       0.14000                 :Resistivity of Mud Cake Sample
RMS  .OHMM       0.20000                 :Resistivity of Mud Sample
RW   .OHMM       1.00000                 :Connate Water Resistivity
TDD  .F       7193.00049                 :Driller Total Depth
TDL  .F       7193.00049                 :Logger Total Depth
TLI  .F       5240.00000                 :Top Log Interval
HIDE .        WILDCAT                    :Header Identifier
MATR .        SAND                       :Rock Matrix for Neutron Porosity Corrections
FNUM .           1.00000                 :F-Numerator for Formation Factor Formula
FEXP .           2.00000                 :Exponent "m" for Formation Factor Formula
DFT  .        Fresh Water                :Drilling Fluid Type
DFPH .          11.50000                 :Drilling Fluid pH
MCSS .        Calculated                 :Mudcake Sample Source
MFSS .        Calculated                 :Mud Filtrate Sample Source
FD   .LB/G       8.34540                 :Fluid Density
MSS  .        Active Tank                :Mud Sample Source
OS1  .                                   :Other Services Line 1
OS2  .                                   :Other Services Line 2
OS3  .                                   :Other Services Line 3
OS4  .                                   :Other Services Line 4
OS5  .                                   :Other Services Line 5
R1   .        THANKS FOR CHOOSING SCHLUMBERGER!!! :Remarks Line 1
R2   .        All WELL PROPERTIES PROVIDED BY CLIENT :Remarks Line 2
R3   .        ALL SCALES ON PRESENTATIONS AS PER

CLIENT REQUEST :Remarks Line 3
R4   .        MATRIX  SANDSTONE          :Remarks Line 4
R5   .        MATRIX DENSITY  2.65 G/CC  :Remarks Line 5
R6   .        ALL LOGGING INTERVALS AS PER CLIENT REQUEST :Remarks Line 6
R7   .        MRT = 127 DEGF FROM THE THERMOMETER :Remarks Line 7
R8   .                                   :Remarks Line 8
TCS  .        20 00 00                   :Time Circulation Stopped
TLAB .        14 31 00                   :Time Logger At Bottom
EPD  .C3         675.699951              :Elevation of Permanent Datum above Mean Sea Level
APD  .F          15.500000               :Elevation of Depth Reference (LMF) above Permanent Datum
#-----------------------------------------------------------------------------
~CURVE INFORMATION
#MNEM.UNIT   API CODE                                  DESCRIPTION
#---- -----  --------                                  -----------------------
DEPT .F                                                :DEPTH (BOREHOLE) {F12.4}
BFV  .CFCF                                             :Bound Fluid Volume {F11.4}
CBP1 .CFCF                                             :CMR Bin Porosity 1 {F11.4}
CBP2 .CFCF                                             :CMR Bin Porosity 2 {F11.4}
CBP3 .CFCF                                             :CMR Bin Porosity 3 {F11.4}
CBP4 .CFCF                                             :CMR Bin Porosity 4 {F11.4}
CBP5 .CFCF                                             :CMR Bin Porosity 5 {F11.4}
CBP6 .CFCF                                             :CMR Bin Porosity 6 {F11.4}
CBP7 .CFCF                                             :CMR Bin Porosity 7 {F11.4}
CBP8 .CFCF                                             :CMR Bin Porosity 8 {F11.4}
CDF  .LBF                                              :Calibrated Downhole Force {F11.4}
CMFF .CFCF                                             :CMR Free Fluid {F11.4}
CMFF_SIG.CFCF                                          :Standard Deviation of CMR Free Fluid {F11.4}
CMR_PHI_CONV.                                          :CMR Porosity Conversion factor {F11.4}
CMRP_3MS.CFCF                                          :CMR Porosity with T2 values greater than 3 ms {F11.4}
CTEM .DEGF                                             :Cartridge Temperature {F11.4}
DCAL .IN                                               :Differential Caliper {F11.4}
ED   .F                                                :East Departure {F11.4}
GR_EDTC.GAPI                                           :Gamma Ray {F11.4}
GTEM .DEGF                                             :Generalized Borehole Temperature {F11.4}
HCGR .GAPI                                             :HNGS Computed Gamma Ray {F11.4}
HFK  .%                                                :HNGS Formation Potassium Concentration {F11.4}
HSGR .GAPI                                             :HNGS Standard Gamma-Ray {F11.4}
HTHO .PPM                                              :HNGS Formation Thorium Concentration {F11.4}
HURA .PPM                                              :HNGS Formation Uranium Concentration {F11.4}
KSDR .MD                                               :SDR Permeability {F11.4}
KTIM .MD                                               :Timur/Coates Permeability {F11.4}
ND   .F                                                :North Departure {F11.4}
STIT .F                                                :Stuck Tool Indicator, Total {F11.4}
T2LM .MS                                               :T2 Logarithmic Mean {F11.4}
T2LM_SIG.MS                                            :Standard Deviation of T2 Logarithmic Mean {F11.4}
TCMR .CFCF                                             :Total CMR Porosity {F11.4}
TENS .LBF                                              :Cable Tension {F11.4}
#-----------------------------------------------------------------------------
# 
#      DEPT        BFV        CBP1       CBP2       CBP3       CBP4       CBP5       CBP6       CBP7       CBP8       CDF        CMFF     CMFF_SIG  CMR_PHI_CO  CMRP_3MS     CTEM       DCAL        ED      GR_EDTC      GTEM       HCGR       HFK        HSGR       HTHO       HURA       KSDR       KTIM        ND        STIT       T2LM     T2LM_SIG     TCMR       TENS
#                                                                                                                                                   NV
~A  
# ...
   7198.5000     0.0657     0.0034     0.0162     0.0344     0.0117     0.0022     0.0013     0.0000     0.0004   840.1243     0.0039     0.0033     0.0006     0.0500   126.0235     0.0000    26.5622    47.4567   127.0533  -123.6569    -4.1259   219.5280   -15.4527    55.3694     0.0027     0.0008    39.5173     3.1585     5.3946  -999.2500     0.0696  2655.8000
   7199.0000     0.0675     0.0050     0.0158     0.0348     0.0119     0.0013     0.0012     0.0000     0.0006   797.2588     0.0032     0.0034     0.0006     0.0499   126.0235     0.0000    26.5871    47.4567   127.0574  -123.6569    -4.1259   219.5280   -15.4527    55.3694     0.0026     0.0006    39.5236     2.7736     5.0618  -999.2500     0.0707  2574.6001
   7199.5000     0.0659     0.0051     0.0151     0.0318     0.0139     0.0006     0.0007     0.0000     0.0008   763.8261     0.0020     0.0034     0.0006     0.0477   126.0235     0.0000    26.6111    47.4567   127.0614  -123.6569    -4.1259   219.5280   -15.4527    55.3694     0.0022     0.0002    39.5296     2.2189     5.0848  -999.2500     0.0679  2491.6362
   7200.0000     0.0634     0.0031     0.0161     0.0282     0.0160     0.0005     0.0000     0.0000     0.0009   726.9353     0.0014     0.0035     0.0006     0.0456   126.0235     0.0000    26.6356    47.4567   127.0656  -123.6569    -4.1259   219.5280   -15.4527    55.3694     0.0021     0.0001    39.5357     1.6642     5.4690  -999.2500     0.0648  2471.7144
   7200.5000     0.0613     0.0014     0.0152     0.0288     0.0158     0.0005     0.0000     0.0000     0.0006   675.5057     0.0011     0.0033     0.0006     0.0457   126.0235     0.0000    26.6647    47.4567   127.0696  -123.6569    -4.1259   219.5280   -15.4527    55.3694     0.0020     0.0000    39.5429     1.1095     5.6913  -999.2500     0.0624  2386.7500
   7201.0000     0.0601     0.0007     0.0152     0.0307     0.0135     0.0002     0.0000     0.0002     0.0006   644.1281     0.0010     0.0033     0.0006     0.0453   126.0235     0.0000    26.6865    47.4567   127.0737  -123.6569    -4.1259   219.5280   -15.4527    55.3694     0.0018     0.0000    39.5483     0.5547     5.6026  -999.2500     0.0612  2357.3335
   7201.5000     0.0590     0.0010     0.0166     0.0283     0.0130     0.0002     0.0000     0.0011     0.0004   606.0706     0.0017     0.0034     0.0006     0.0430   126.0235     0.0000    26.7112    47.4567   127.0778  -123.6569    -4.1259   219.5280   -15.4527    55.3694     0.0017     0.0001    39.5544     0.0000     5.5705  -999.2500     0.0607  2298.0000
   7202.0000     0.0578     0.0023     0.0192     0.0219     0.0144     0.0015     0.0000     0.0021     0.0000   568.1947     0.0035     0.0035     0.0006     0.0398   126.0235     0.0000    26.7358    47.4567   127.0819  -123.6569    -4.1259   219.5280   -15.4527    55.3694     0.0018     0.0007    39.5604     0.0000     5.6725  -999.2500     0.0614  2237.3635
   7202.5000     0.0576     0.0038     0.0215     0.0182     0.0141     0.0050     0.0000     0.0016     0.0000   531.0578     0.0067     0.0036     0.0006     0.0391   126.0235     0.0000    26.7605    47.4567   127.0860  -123.6569    -4.1259   219.5280   -15.4527    55.3694     0.0022     0.0023    39.5664     0.0000     5.6964  -999.2500     0.0643  2170.2727
   7203.0000     0.0547     0.0036     0.0199     0.0189     0.0123     0.0053     0.0020     0.0003     0.0000   491.1708     0.0076     0.0034     0.0006     0.0388   126.0235     0.0000    26.7849    47.4567   127.0901  -123.6569    -4.1259   219.5280   -15.4527    55.3694     0.0020     0.0029    39.5723     0.0000     5.8224  -999.2500     0.0623  2187.9092
   7203.5000     0.0526     0.0035     0.0183     0.0194     0.0115     0.0052     0.0011     0.0000     0.0000   452.9959     0.0062     0.0030     0.0006     0.0371   126.0235     0.0000    26.8096    47.4567   127.0942  -123.6569    -4.1259   219.5280   -15.4527    55.3694     0.0015     0.0018    39.5783     0.0000     5.4992  -999.2500     0.0589  2098.8184
   7204.0000     0.0539     0.0034     0.0174     0.0198     0.0133     0.0040     0.0001     0.0000     0.0000   414.3893     0.0041     0.0028     0.0006     0.0372   126.0235     0.0000    26.8340    47.4567   127.0983  -123.6569    -4.1259   219.5280   -15.4527    55.3694     0.0013     0.0007    39.5843     0.0000     5.2591  -999.2500     0.0580  2081.1819
   7204.5000     0.0589     0.0040     0.0173     0.0202     0.0174     0.0023     0.0000     0.0000     0.0000   375.7480     0.0023     0.0029     0.0006     0.0399   126.0235     0.0000    26.8586    47.4567   127.1024  -123.6569    -4.1259   219.5280   -15.4527    55.3694     0.0016     0.0002    39.5902     0.0000     5.2164  -999.2500     0.0612  2018.8181
   7205.0000     0.0662     0.0069     0.0170     0.0207     0.0215     0.0019     0.0000     0.0000     0.0000   341.8674     0.0019     0.0028     0.0006     0.0442   126.0235     0.0000    26.8833    47.4567   127.1065  -123.6569    -4.1259   219.5280   -15.4527    55.3694     0.0022     0.0002    39.5962     0.0000     5.0676  -999.2500     0.0681  1990.0908
   7205.5000     0.0728     0.0107     0.0165     0.0205     0.0252     0.0027     0.0000     0.0000     0.0000   307.3643     0.0027     0.0030     0.0006     0.0484   126.0235     0.0000    26.9078    47.4567   127.1106  -123.6569    -4.1259   219.5280   -15.4527    55.3694     0.0032     0.0005    39.6022     0.0000     4.9653  -999.2500     0.0755  1936.3000
   7206.0000     0.0742     0.0110     0.0165     0.0224     0.0243     0.0027     0.0000     0.0000     0.0000   275.2554     0.0027     0.0032     0.0006     0.0494   126.0235     0.0000    26.9323    47.4567   127.1147  -123.6569    -4.1259   219.5280   -15.4527    55.3694     0.0033     0.0005    39.6081     0.0000     4.8407  -999.2500     0.0769  1864.7002
   7206.5000     0.0749     0.0094     0.0177     0.0278     0.0200     0.0016     0.0002     0.0003     0.0000   241.4653     0.0021     0.0032     0.0006     0.0499   126.0235     0.0000    26.9568    47.4567   127.1188  -123.6569    -4.1259   219.5280   -15.4527    55.3694     0.0030     0.0003    39.6141     0.0000     4.6196  -999.2500     0.0769  1841.6000
   7207.0000     0.0759     0.0066     0.0195     0.0354     0.0143     0.0000     0.0005     0.0007     0.0000   215.3468     0.0013     0.0032     0.0006     0.0510   126.0235     0.0000    26.9815    47.4567   127.1229  -123.6569    -4.1259   219.5280   -15.4527    55.3694     0.0028     0.0001    39.6201     0.0000     4.4164  -999.2500     0.0772  1773.0909
   7207.5000     0.0746     0.0032     0.0208     0.0406     0.0100     0.0000     0.0007     0.0008     0.0000   198.9220     0.0014     0.0031     0.0006     0.0521   126.0235     0.0000    27.0061    47.4567   127.1270  -123.6569    -4.1259   219.5280   -15.4527    55.3694     0.0027     0.0001    39.6260     0.0000     4.5337  -999.2500     0.0760  1704.0000
   7208.0000     0.0796     0.0010     0.0215     0.0492     0.0078     0.0000     0.0001     0.0018     0.0001   188.3150     0.0020     0.0034     0.0006     0.0590   126.0235     0.0000    27.0305    47.4567   127.1311  -123.6569    -4.1259   219.5280   -15.4527    55.3694     0.0043     0.0003    39.6320     0.0000     4.8787  -999.2500     0.0816  1659.8000
   7208.5000     0.0650     0.0011     0.0181     0.0411     0.0047     0.0000     0.0010     0.0021     0.0000   182.7722     0.0031     0.0032     0.0006     0.0488   126.0235     0.0000    27.0551    47.4567   127.1352  -123.6569    -4.1259   219.5280   -15.4527    55.3694     0.0026     0.0005    39.6379     0.0000     5.1185  -999.2500     0.0681  1635.8000
   7209.0000     0.0544     0.0015     0.0157     0.0342     0.0030     0.0000     0.0017     0.0021     0.0000   180.4449     0.0038     0.0031     0.0006     0.0409   126.0235     0.0000    27.0798    47.4567   127.1393  -123.6569    -4.1259   219.5280   -15.4527    55.3694     0.0012     0.0005    39.6439     0.0000     5.2208  -999.2500     0.0582  1639.8889
