~VERSION INFORMATION
VERS.           1.2   :CWLS Log ASCII Standard - VERSION 1.2
WRAP.           NO    :One Line per depth step
PROD.  Schlumberger   :LAS Producer
PROG.  DLIS to ASCII 2.3                               :LAS Program name and version
CREA.        2015/05/06 16:26                          :LAS Creation date {YYYY/MM/DD hh:mm}
DLIS_CREA.  2015-May-04 11:59                          :DLIS Creation date and time {YYYY-MMM-DD hh:mm}
SOURCE.     301ad50a-0e97-4ef4-9f57-5a70afd84532       :DLIS File Name
#--------------------------------------------------
~WELL INFORMATION
#MNEM.UNIT      DATA             DESCRIPTION
#---- ------ --------------   -----------------------------
STRT .F      23.5000         :START DEPTH     
STOP .F      5264.5000       :STOP DEPTH     
STEP .F       0.5000         :STEP       
NULL .          -999.25      :NULL VALUE
COMP .                 COMPANY:  ADM COMPANY                        
WELL .                    WELL:  CCS#2                              
FLD  .                   FIELD:  WILDCAT                            
LOC  .                LOCATION:  Latitude: 39.885961                
CNTY .                  COUNTY:  MACON                              
STAT .                   STATE:  ILLINOIS                           
CTRY .                 COUNTRY:  USA                                
SRVC .         SERVICE COMPANY:  Schlumberger                       
LATI .DEG             LATITUDE:  39° 53' 9.46" N                    
LONG .DEG            LONGITUDE:  88° 53' 16.958" W                  
API  .              API NUMBER:  12-115-23713-00                    
DATE .                LOG DATE:  03-May-2015
UWI  .          UNIQUE WELL ID:                                     
#-----------------------------------------------------------------------------
~PARAMETER INFORMATION
#MNEM.UNIT    VALUE                      DESCRIPTION
#---- -----   --------------------       ------------------------
CN   .        ADM COMPANY                :Company Name
WN   .        CCS#2                      :Well Name
FN   .        WILDCAT                    :Field Name
FL   .        Latitude  39.885961        :Field Location
FL1  .        Longitude  -88.888044      :Field Location, Line 1
COUN .        MACON                      :County or Parish
STAT .        ILLINOIS                   :State or Province
NATI .        USA                        :Nation
DATE .        03-May-2015                :Tools Above Rotary Table Date
APIN .        12-115-23713-00            :API Well Number
SECT .        32                         :Section
TOWN .        17N                        :Township
RANG .        3E                         :Range
DMF  .        KB                         :Drilling Measured From (Name of Drilling Elevation Reference)
LMF  .        KB                         :Logging Measured From (Name of Logging Elevation Reference)
PDAT .        GL                         :Permanent Datum
ENGI .        Yazan Alhabahbeh           :Engineer s Name
WITN .        Nick Malkewicz             :Witness s Name
LATI .        39° 53' 9.46  N            :Latitude
LONG .        88° 53' 16.958  W          :Longitude
LUL  .        BRADFORD                   :Logging Unit Location
LUN  .        3019                       :Logging Unit Number
RUN  .        2B                         :Run Number
SON  .        D9QJ-00005                 :Service Order Number
BHT  .DEGF     132.00000                 :Bottom Hole Temperature
BS   .IN        17.50000                 :Bit Size
MDEN .G/C3       2.71000                 :Matrix Density for Density Porosity
DFD  .LB/G       9.15000                 :Drilling Fluid Density
DFV  .S         61.00000                 :Drilling Fluid Viscosity
DFL  .C3      -999.25000                 :Drilling Fluid Loss
RMFS .OHMM       0.16000                 :Resistivity of Mud Filtrate Sample
EKB  .F        691.19995                 :Elevation of Kelly Bushing
EGL  .F        675.69995                 :Elevation of Ground Level
BLI  .F       5252.00000                 :Bottom Log Interval
BSAL .PPM     14700.00000                :Borehole Salinity
FLEV .F          8.00000                 :Depth of Drilling Fluid Level to LMF (Log Measured From)
MCST .DEGF      74.30000                 :Mudcake Sample Temperature
MFST .DEGF      72.50000                 :Mud Filtrate Sample Temperature
MRT  .DEGF     135.00000                 :Maximum Recorded Temperature
MST  .DEGF      73.50000                 :Mud Sample Temperature
RMCS .OHMM       0.26600                 :Resistivity of Mud Cake Sample
RMS  .OHMM       0.19000                 :Resistivity of Mud Sample
RW   .OHMM       1.00000                 :Connate Water Resistivity
TDD  .F       5252.00000                 :Driller Total Depth
TDL  .F       5252.00000                 :Logger Total Depth
TLI  .F        200.00000                 :Top Log Interval
HIDE .        WILDCAT                    :Header Identifier
MATR .        LIME                       :Rock Matrix for Neutron Porosity Corrections
FNUM .           1.00000                 :F-Numerator for Formation Factor Formula
FEXP .           2.00000                 :Exponent "m" for Formation Factor Formula
DFT  .        SALT WATER                 :Drilling Fluid Type
DFPH .          11.00000                 :Drilling Fluid pH
MCSS .        Calculated                 :Mudcake Sample Source
MFSS .        Calculated                 :Mud Filtrate Sample Source
FD   .G/C3       1.00000                 :Fluid Density
MSS  .        Active Tank                :Mud Sample Source
OS1  .                                   :Other Services Line 1
OS2  .                                   :Other Services Line 2
OS3  .                                   :Other Services Line 3
OS4  .                                   :Other Services Line 4
OS5  .                                   :Other Services Line 5
R1   .        THANKS FOR CHOOSING

SCHLUMBERGER!!! :Remarks Line 1
R2   .        MATRIX  LIMESTONE          :Remarks Line 2
R3   .        MATRIX DENSITY  2.71 G/CC  :Remarks Line 3
R4   .        All WELL PROPERTIES PROVIDED BY

CLIENT . :Remarks Line 4
R5   .        ALL SCALES ON PRESENTATIONS AS PER

CLIENT REQUEST :Remarks Line 5
R6   .        Temp recorded by sensors inside the tool . :Remarks Line 6
R7   .                                   :Remarks Line 7
R8   .                                   :Remarks Line 8
TCS  .        04 45 00                   :Time Circulation Stopped
TLAB .        22 39 00                   :Time Logger At Bottom
EPD  .C3         675.699951              :Elevation of Permanent Datum above Mean Sea Level
APD  .F          15.500000               :Elevation of Depth Reference (LMF) above Permanent Datum
#-----------------------------------------------------------------------------
~CURVE INFORMATION
#MNEM.UNIT   API CODE                                  DESCRIPTION
#---- -----  --------                                  -----------------------
DEPT .F                                                :DEPTH (BOREHOLE) {F12.4}
C1   .IN                                               :Caliper 1 {F11.4}
C2   .IN                                               :Caliper 2 {F11.4}
CDF  .LBF                                              :Calibrated Downhole Force {F11.4}
CTEM .DEGF                                             :Cartridge Temperature {F11.4}
DCAL .IN                                               :Differential Caliper {F11.4}
DEVI .DEG                                              :Hole Deviation {F11.4}
DEVIM.DEG                                              :Memorized Deviation {F11.4}
DTCO .US/F                                             :Delta-T Compressional {F11.4}
DTSM .US/F                                             :Delta-T Shear {F11.4}
ED   .F                                                :East Departure {F11.4}
GR_EDTC.GAPI                                           :Gamma Ray {F11.4}
GTEM .DEGF                                             :Generalized Borehole Temperature {F11.4}
HAZI .DEG                                              :Hole Azimuth Relative to True North {F11.4}
HAZIM.DEG                                              :Hole Azimuth Relative to True North {F11.4}
ITT  .S                                                :Integrated Transit Time {F11.4}
ND   .F                                                :North Departure {F11.4}
P1AZ .DEG                                              :Pad 1 Azimuth in Horizontal Plane (0 = True North) {F11.4}
PR   .                                                 :Poisson s Ratio {F11.4}
RB   .DEG                                              :Relative Bearing {F11.4}
SDEV .DEG                                              :Sonde Deviation {F11.4}
SDEVM.DEG                                              :Sonde Deviation {F11.4}
SPHI .CFCF                                             :Sonic Porosity {F11.4}
STIT .F                                                :Stuck Tool Indicator, Total {F11.4}
TENS .LBF                                              :Cable Tension {F11.4}
#-----------------------------------------------------------------------------
# 
#      DEPT         C1         C2        CDF        CTEM       DCAL       DEVI      DEVIM       DTCO       DTSM        ED      GR_EDTC      GTEM       HAZI      HAZIM       ITT         ND        P1AZ        PR         RB        SDEV      SDEVM       SPHI       STIT       TENS
#
~A  
# ...
   2459.5000    19.2386    18.1157   239.7925   139.8588     0.9302     1.1995     0.8725    48.4663    81.3810     0.0000    20.6425    97.9711   135.0840   136.1137     0.1550     0.0000    31.5651     0.2252   256.4780     1.2324     0.8897    -0.0566     0.0000  2256.7500
   2460.0000    19.2307    18.1157   238.1042   139.8588     0.9598     1.1862     0.8544    48.3524    81.3156     0.0000    21.0513    97.9771   134.9853   136.3540     0.1550     0.0000    31.2523     0.2265   256.2642     1.2183     0.8709    -0.0575     0.0000  2214.6667
   2460.5000    19.2110    18.1232   240.2253   139.8588     0.9423     1.1741     0.8373    48.3453    80.3185     0.0000    20.4948    97.9832   134.9492   136.5276     0.1550     0.0000    30.9174     0.2159   255.9651     1.2056     0.8532    -0.0576     0.0000  2263.3335
   2461.0000    19.1520    18.1195   240.6581   139.8588     0.9272     1.1575     0.8233    48.3297    81.0889     0.0000    20.4032    97.9893   134.8518   136.7210     0.1550     0.0000    30.4608     0.2245   255.6064     1.1881     0.8386    -0.0577     0.0000  2230.0000
   2461.5000    19.1717    18.1232   238.9115   139.8588     0.9302     1.1402     0.8113    48.2194    80.1272     0.0000    19.8313    97.9954   134.7680   136.8194     0.1549     0.0000    29.8471     0.2161   255.0764     1.1699     0.8262    -0.0585     0.0000  2212.0000
   2462.0000    19.1480    18.0710   236.3914   139.8588     0.9423     1.1225     0.8018    48.2338    79.9115     0.0000    20.7051    98.0015   134.6675   136.9072     0.1549     0.0000    29.0333     0.2134   254.3628     1.1512     0.8163    -0.0584     0.0000  2228.5000
   2462.5000    19.1520    18.0561   238.5096   139.8588     0.9589     1.1038     0.7940    48.1328    80.1453     0.0000    19.6430    98.0076   134.5936   136.9295     0.1549     0.0000    28.1539     0.2179   253.5573     1.1315     0.8082    -0.0592     0.0000  2202.2500
   2463.0000    19.1205    18.0599   237.8457   139.8588     0.9589     1.0894     0.7892    48.1231    79.9681     0.0000    20.3879    98.0137   134.5529   136.8397     0.1549     0.0000    27.2688     0.2161   252.7126     1.1163     0.8033    -0.0592     0.0000  2187.3333
   2463.5000    19.1244    18.0561   239.6070   139.8588     0.9453     1.0714     0.7862    48.1060    80.3886     0.0000    20.2389    98.0198   134.5235   136.7879     0.1548     0.0000    25.9787     0.2211   251.4523     1.0975     0.8002    -0.0594     0.0000  2220.6667
   2464.0000    19.1362    18.0412   239.8234   139.8588     0.9453     1.0541     0.7847    48.1368    79.6531     0.0000    20.1023    98.0259   134.5573   136.6686     0.1548     0.0000    24.5212     0.2123   249.9604     1.0794     0.7986    -0.0591     0.0000  2160.3333
   2464.5000    19.1126    18.0487   242.3702   139.8588     0.9121     1.0377     0.7848    48.0829    79.8999     0.0000    19.3412    98.0320   134.5816   136.5016     0.1548     0.0000    22.9125     0.2161   248.3278     1.0622     0.7987    -0.0595     0.0000  2241.7500
   2465.0000    19.1047    18.0561   239.5916   139.8588     0.9453     1.0242     0.7862    47.9916    79.4338     0.0000    17.9450    98.0381   134.6619   136.4410     0.1548     0.0000    21.7705     0.2126   247.1059     1.0480     0.8003    -0.0602     0.0000  2176.5000
   2465.5000    19.0890    18.0561   242.8065   139.8588     0.9302     1.0080     0.7872    48.0350    80.1000     0.0000    18.7156    98.0442   134.7042   136.3641     0.1547     0.0000    19.8493     0.2192   245.1416     1.0311     0.8013    -0.0599     0.0000  2240.6667
   2466.0000    19.0890    18.0561   240.2253   139.8588     0.9302     0.9916     0.7885    48.0147    79.8353     0.0000    18.1756    98.0502   134.8549   136.4215     0.1547     0.0000    17.7917     0.2167   242.9330     1.0141     0.8027    -0.0600     0.0000  2214.5000
   2466.5000    19.0968    18.0636   243.4852   139.8588     0.9157     0.9753     0.7900    48.0033    80.8473     0.0000    19.1993    98.0564   135.0651   136.4658     0.1547     0.0000    15.5329     0.2277   240.4648     0.9971     0.8043    -0.0601     0.0000  2263.0002
   2467.0000    19.0890    18.0412   245.1404   139.8588     0.9127     0.9573     0.7913    48.0413    80.3092     0.0000    19.2656    98.0625   135.2618   136.6528     0.1547     0.0000    13.5100     0.2214   238.2447     0.9783     0.8056    -0.0598     0.0000  2282.0000
   2467.5000    19.0732    18.0040   246.0214   139.8588     0.9272     0.9435     0.7918    48.0453    79.9656     0.0000    21.3480    98.0685   135.3864   136.8776     0.1546     0.0000    12.3530     0.2175   236.9633     0.9639     0.8061    -0.0598     0.0000  2289.3333
   2468.0000    19.0811    18.0152   244.5222   139.8588     0.9423     0.9246     0.7921    48.1783    79.7350     0.0000    21.2245    98.0746   135.6031   137.1224     0.1546     0.0000    11.4199     0.2125   235.8126     0.9441     0.8065    -0.0588     0.0000  2285.3333
   2468.5000    19.0811    18.0338   246.1676   139.8588     0.9448     0.9060     0.7915    48.1854    79.9549     0.0000    21.1397    98.0807   135.7870   137.4903     0.1546     0.0000    10.7008     0.2148   234.9103     0.9248     0.8059    -0.0588     0.0000  2318.7502
   2469.0000    19.0732    18.0561   247.0261   139.8588     0.9136     0.8868     0.7902    48.2534    79.2810     0.0000    20.4125    98.0868   135.9708   137.7782     0.1546     0.0000    10.0359     0.2058   234.0619     0.9049     0.8046    -0.0582     0.0000  2320.6667
   2469.5000    19.0693    18.0412   248.7882   139.8588     0.9272     0.8687     0.7873    48.2887    80.9340     0.0000    21.1320    98.0929   136.1502   138.0798     0.1545     0.0000     9.3707     0.2236   233.2175     0.8860     0.8015    -0.0580     0.0000  2281.2500
   2470.0000    19.0653    18.0412   247.5053   139.8588     0.9439     0.8518     0.7815    48.3200    79.8726     0.0000    20.8912    98.0990   136.3785   138.4734     0.1545     0.0000     8.6221     0.2114   232.2404     0.8684     0.7955    -0.0577     0.0000  2280.6667
   2470.5000    19.0772    18.0412   249.5919   139.8588     0.9598     0.8371     0.7765    48.3979    80.0405     0.0000    19.8692    98.1051   136.5276   138.7375     0.1545     0.0000     8.1166     0.2118   231.5856     0.8532     0.7904    -0.0572     0.0000  2308.5000
   2471.0000    19.0811    18.0450   244.6002   139.8588     0.9302     0.8230     0.7672    48.4294    80.1066     0.0000    18.6781    98.1112   136.7210   139.1597     0.1545     0.0000     7.4892     0.2120   230.7652     0.8386     0.7807    -0.0569     0.0000  2254.0000
   2471.5000    19.0811    18.0487   245.6041   139.8588     0.9423     0.8108     0.7562    48.5600    80.7335     0.0000    17.8939    98.1173   136.8317   139.4823     0.1544     0.0000     6.8713     0.2166   230.0370     0.8259     0.7693    -0.0559     0.0000  2272.0000
   2472.0000    19.0653    18.0263   243.8884   139.8588     0.9272     0.8008     0.7450    48.5235    80.0564     0.0000    18.6953    98.1234   136.8710   139.8832     0.1544     0.0000     6.3627     0.2096   229.4886     0.8156     0.7578    -0.0562     0.0000  2271.0000
   2472.5000    19.0732    18.0263   245.2950   139.8588     0.9598     0.7925     0.7311    48.5507    79.7593     0.0000    18.8612    98.1295   136.8739   140.2755     0.1544     0.0000     5.8934     0.2057   229.0164     0.8069     0.7434    -0.0560     0.0000  2270.6667
   2473.0000    19.0653    18.0114   247.1343   139.8588     0.9448     0.7890     0.7223    48.5913    80.1832     0.0000    19.2169    98.1356   136.8397   140.5394     0.1544     0.0000     5.5496     0.2098   228.7063     0.8033     0.7343    -0.0557     0.0000  2254.3333
   2473.5000    19.0732    18.0338   246.6039   139.8588     0.9448     0.7853     0.7094    48.7151    80.8466     0.0000    17.8594    98.1417   136.7303   140.9286     0.1543     0.0000     5.1277     0.2150   228.3945     0.7995     0.7209    -0.0548     0.0000  2267.2500
