~VERSION INFORMATION
VERS.           1.2   :CWLS Log ASCII Standard - VERSION 1.2
WRAP.           NO    :One Line per depth step
PROD.  Schlumberger   :LAS Producer
PROG.  DLIS to ASCII 2.3                               :LAS Program name and version
CREA.        2015/01/14 20:42                          :LAS Creation date {YYYY/MM/DD hh:mm}
DLIS_CREA.  2015-Jan-14 13:26                          :DLIS Creation date and time {YYYY-MMM-DD hh:mm}
SOURCE.     b1232dd5-b707-4891-82b9-d24dcc6cb5d4       :DLIS File Name
#--------------------------------------------------
~WELL INFORMATION
#MNEM.UNIT      DATA             DESCRIPTION
#---- ------ --------------   -----------------------------
STRT .F      -8.0000         :START DEPTH     
STOP .F      352.5000        :STOP DEPTH     
STEP .F       0.5000         :STEP       
NULL .          -999.25      :NULL VALUE
COMP .                 COMPANY:  ADM Company                        
WELL .                    WELL:  CCS#2                              
FLD  .                   FIELD:  Wildcat                            
LOC  .                LOCATION:  Latitude: 39.885961                
CNTY .                  COUNTY:  Macon                              
STAT .                   STATE:  Illinois                           
CTRY .                 COUNTRY:  USA                                
SRVC .         SERVICE COMPANY:  Schlumberger                       
LATI .DEG             LATITUDE:  39° 53' 9.46" N                    
LONG .DEG            LONGITUDE:  88° 53' 16.959" W                  
API  .              API NUMBER:  12-115-23713-00                    
DATE .                LOG DATE:  13-Jan-2015
UWI  .          UNIQUE WELL ID:                                     
#-----------------------------------------------------------------------------
~PARAMETER INFORMATION
#MNEM.UNIT    VALUE                      DESCRIPTION
#---- -----   --------------------       ------------------------
CN   .        ADM Company                :Company Name
WN   .        CCS#2                      :Well Name
FN   .        Wildcat                    :Field Name
FL   .        Latitude  39.885961        :Field Location
FL1  .        Longitude  -88.888044      :Field Location, Line 1
COUN .        Macon                      :County or Parish
STAT .        Illinois                   :State or Province
NATI .        USA                        :Nation
DATE .        13-Jan-2015                :Tools Above Rotary Table Date
APIN .        12-115-23713-00            :API Well Number
SECT .        32                         :Section
TOWN .        17N                        :Township
RANG .        3E                         :Range
DMF  .        KB                         :Drilling Measured From (Name of Drilling Elevation Reference)
LMF  .        KB                         :Logging Measured From (Name of Logging Elevation Reference)
PDAT .        GL                         :Permanent Datum
ENGI .        Devin Arnold               :Engineer s Name
WITN .        Nick Malkewicz             :Witness s Name
LATI .        39° 53' 9.46  N            :Latitude
LONG .        88° 53' 16.959  W          :Longitude
LUL  .        Bradford                   :Logging Unit Location
LUN  .        3095                       :Logging Unit Number
RUN  .        2                          :Run Number
SON  .        D71E-00006                 :Service Order Number
BHT  .DEGF      58.00000                 :Bottom Hole Temperature
BS   .IN        26.00000                 :Bit Size
MDEN .G/C3       2.71000                 :Matrix Density for Density Porosity
DFD  .LB/G      10.10000                 :Drilling Fluid Density
DFV  .S       -999.25000                 :Drilling Fluid Viscosity
DFL  .C3      -999.25000                 :Drilling Fluid Loss
RMFS .OHMM       1.23200                 :Resistivity of Mud Filtrate Sample
EKB  .F        691.19995                 :Elevation of Kelly Bushing
EGL  .F        675.69995                 :Elevation of Ground Level
BLI  .F        345.00000                 :Bottom Log Interval
BSAL .PPM        0.00000                 :Borehole Salinity
FLEV .F          8.00000                 :Depth of Drilling Fluid Level to LMF (Log Measured From)
MCST .DEGF      42.80000                 :Mudcake Sample Temperature
MFST .DEGF      42.80000                 :Mud Filtrate Sample Temperature
MRT  .DEGF      58.00000                 :Maximum Recorded Temperature
MST  .DEGF      42.80000                 :Mud Sample Temperature
RMCS .OHMM       1.84800                 :Resistivity of Mud Cake Sample
RMS  .OHMM       1.54000                 :Resistivity of Mud Sample
RW   .OHMM       1.00000                 :Connate Water Resistivity
TDD  .F        349.00000                 :Driller Total Depth
TDL  .F        349.00000                 :Logger Total Depth
TLI  .F         50.00000                 :Top Log Interval
HIDE .        Wildcat                    :Header Identifier
MATR .        LIME                       :Rock Matrix for Neutron Porosity Corrections
FNUM .           1.00000                 :F-Numerator for Formation Factor Formula
FEXP .           2.00000                 :Exponent "m" for Formation Factor Formula
DFT  .        Fresh Mud                  :Drilling Fluid Type
DFPH .        -999.25000                 :Drilling Fluid pH
MCSS .        Calculated                 :Mudcake Sample Source
MFSS .        Calculated                 :Mud Filtrate Sample Source
FD   .G/C3       1.00000                 :Fluid Density
MSS  .        Active Tank                :Mud Sample Source
OS1  .                                   :Other Services Line 1
OS2  .                                   :Other Services Line 2
OS3  .                                   :Other Services Line 3
OS4  .                                   :Other Services Line 4
OS5  .                                   :Other Services Line 5
R1   .        Matrix Density  Limestone. :Remarks Line 1
R2   .        Mud Sample taken on location. :Remarks Line 2
R3   .        Presentations as per client request. :Remarks Line 3
R4   .        No Chemical Sources ran due to possible potable water zones. :Remarks Line 4
R5   .        Bottom Hole Temperature taken from GM2 temperature log provided by the client. 58degF :Remarks Line 5
R6   .                                   :Remarks Line 6
R7   .                                   :Remarks Line 7
R8   .                                   :Remarks Line 8
TCS  .        19 45 00                   :Time Circulation Stopped
TLAB .        03 30 00                   :Time Logger At Bottom
EPD  .C3         675.699951              :Elevation of Permanent Datum above Mean Sea Level
APD  .F          15.500000               :Elevation of Depth Reference (LMF) above Permanent Datum
#-----------------------------------------------------------------------------
~CURVE INFORMATION
#MNEM.UNIT   API CODE                                  DESCRIPTION
#---- -----  --------                                  -----------------------
DEPT .F                                                :DEPTH (BOREHOLE) {F12.4}
CDF  .LBF                                              :Calibrated Downhole Force {F11.4}
CTEM .DEGF                                             :Cartridge Temperature {F11.4}
DCAL .IN                                               :Differential Caliper {F11.4}
DT   .US/F                                             :Delta-T (also called Slowness or Interval Transit Time) {F11.4}
ED   .F                                                :East Departure {F11.4}
GR_EDTC.GAPI                                           :Gamma Ray {F11.4}
GTEM .DEGF                                             :Generalized Borehole Temperature {F11.4}
HAZI .DEG                                              :Hole Azimuth Relative to True North {F11.4}
HAZIM.DEG                                              :Memorized Hole Azimuth {F11.4}
ITT  .S                                                :Integrated Transit Time {F11.4}
ND   .F                                                :North Departure {F11.4}
P1AZ .DEG                                              :Pad 1 Azimuth in Horizontal Plane (0 = True North) {F11.4}
RB   .DEG                                              :Relative Bearing {F11.4}
SDEV .DEG                                              :Sonde Deviation {F11.4}
SDEVM.DEG                                              :Memorized Sonde Deviation {F11.4}
SPHI .CFCF                                             :Sonic Porosity {F11.4}
STIT .F                                                :Stuck Tool Indicator, Total {F11.4}
TENS .LBF                                              :Cable Tension {F11.4}
#-----------------------------------------------------------------------------
# 
#      DEPT        CDF        CTEM       DCAL        DT         ED      GR_EDTC      GTEM       HAZI      HAZIM       ITT         ND        P1AZ        RB        SDEV      SDEVM       SPHI       STIT       TENS
#
~A  
# ...
     30.0000   645.1881    76.6118   -23.7903  -254.1587     0.0603    43.0767    54.8101   103.6253     3.1944     0.0000    -0.1905    55.8340   312.2329     2.3847     2.4631  -999.2500     0.0000   581.5807
     30.5000   645.7830    76.6118   -23.7903  -254.1432     0.0628    48.1478    54.8151   101.3130     3.1936     0.0000    -0.1932    53.6160   312.3277     2.3859     2.4632  -999.2500     0.0000   571.6667
     31.0000   646.8323    76.6118   -23.7903  -254.1756     0.0654    49.8533    54.8201    99.3690     3.1915     0.0000    -0.1960    52.0400   312.6958     2.3864     2.4632  -999.2500     0.0000   535.5625
     31.5000   647.1935    76.6118   -23.7903  -254.1599     0.0680    51.1128    54.8251    96.6819     3.1901     0.0000    -0.1986    49.8760   313.2192     2.3867     2.4633  -999.2500     0.0000   550.5667
     32.0000   647.6178    76.6118   -23.7903  -254.1277     0.0707    51.7105    54.8301    95.4124     3.1880     0.0000    -0.2011    47.4676   312.0804     2.4081     2.4633  -999.2500     0.0000   539.2903
     32.5000   648.1765    76.6118   -23.7903  -254.1173     0.0735    52.2787    54.8351    92.2550     3.1862     0.0000    -0.2036    44.2574   312.0280     2.4139     2.4633  -999.2500     0.0000   525.0000
     33.0000   649.6017    76.6118   -23.7903  -254.1455     0.0763    53.7581    54.8401    89.0926     3.1841     0.0000    -0.2059    41.1673   312.1002     2.4177     2.4634  -999.2500     0.0000   589.6774
     33.5000   649.4642    76.6118   -23.7903  -254.1095     0.0792    49.8448    54.8451    85.9014     3.1820     0.0000    -0.2082    38.0093   312.1330     2.4182     2.4634  -999.2500     0.0000   531.4517
     34.0000   652.2164    76.6118   -23.7903  -254.1063     0.0821    46.2895    54.8501    82.5835     3.1776     0.0000    -0.2105    34.7000   312.1418     2.4216     2.4636  -999.2500     0.0000   545.2258
     34.5000   655.4309    76.6118   -23.7903  -254.1375     0.0852    40.2661    54.8551    79.3041     3.1783     0.0000    -0.2126    31.4859   312.2077     2.4252     2.4635  -999.2500     0.0000   555.7097
     35.0000   629.5277    76.6118   -23.7903  -254.1252     0.0888    41.8312    54.8601    76.0874     3.1804     0.0000    -0.2150    28.2713   312.2095     2.4263     2.4634  -999.2500     0.0000   763.3384
     35.5000   655.2111    76.6118   -23.7903  -254.1291     0.0913    41.1358    54.8651    65.7141     3.1823     0.0000    -0.2165    18.1331   312.4445     2.4285     2.4634  -999.2500     0.0000   650.2500
     36.0000   657.6138    76.6118   -23.7903  -254.1299     0.0945    44.3531    54.8701    60.7524     3.1845     0.0000    -0.2184    13.2419   312.5149     2.4291     2.4633  -999.2500     0.0000   628.8621
     36.5000   658.8939    76.6118   -23.7903  -254.1166     0.0977    43.3043    54.8751    50.9317     3.1857     0.0000    -0.2201     3.5985   312.6926     2.4282     2.4632  -999.2500     0.0000   686.4286
     37.0000   659.9604    76.6118   -23.7903  -254.1207     0.1010    41.5535    54.8801    40.5431     3.1874     0.0000    -0.2218   353.2137   312.6962     2.4339     2.4631  -999.2500     0.0000   754.6786
     37.5000   665.6309    76.6118   -23.7903  -254.1392     0.1044    41.2549    54.8851    27.8857     3.1891     0.0000    -0.2234   340.4704   312.6107     2.4426     2.4630  -999.2500     0.0000   733.5000
     38.0000   675.6335    76.6118   -23.7903  -254.1165     0.1078    42.6423    54.8901    15.5218    18.8865     0.0000    -0.2249   328.4648   312.9694     2.4598     2.4685  -999.2500     0.0000   576.3666
     38.5000   642.0330    76.6118   -23.7903  -254.1263     0.1111    43.8033    54.8951     6.3366    19.2747     0.0000    -0.2263   319.3256   313.0150     2.4465     2.4345  -999.2500     0.0000   158.6190
     39.0000   641.3220    76.6118   -23.7903  -254.1478     0.1148    43.0520    54.9001     3.3070    18.7266     0.0000    -0.2276   316.0585   312.7778     2.4607     2.4223  -999.2500     0.0000    65.1500
     39.5000   641.3220    76.6118   -23.7903  -254.1278     0.1185    42.1010    54.9051     3.1805    19.3937     0.0000    -0.2289   316.0616   312.9076     2.4635     2.4990  -999.2500     0.0000    48.4500
     40.0000   641.3220    76.6118   -23.7903  -254.1272     0.1222    44.4669    54.9101     6.5653    18.7751     0.0000    -0.2301   315.7433   309.2032     2.4296     2.4288  -999.2500     0.0000    44.3000
     40.5000   641.3220    76.6118   -23.7903  -254.1380     0.1259    48.9737    54.9151     5.2049    18.3864     0.0000    -0.2311   315.8711   310.6920     2.4448     2.4331  -999.2500     0.0000    42.8421
     41.0000   641.5709    76.6118   -23.7903  -254.1154     0.1296    49.6165    54.9201     4.2983    17.6908     0.0000    -0.2321   315.9623   311.6902     2.4542     2.4305  -999.2500     0.0000    56.1500
     41.5000   641.0732    76.6118   -23.7903  -222.0383     0.1334    44.5603    54.9251     3.4546    16.9652     0.0000    -0.2330   316.0377   312.6095     2.4623     2.4324  -999.2500     0.0000    43.6316
     42.0000   641.3220    76.6118   -23.7903  -254.1326     0.1373    40.4906    54.9301     3.2868    16.4015     0.0000    -0.2338   316.0724   312.8120     2.4633     2.4287  -999.2500     0.0000    40.1000
     42.5000   641.3220    76.6118   -23.7903  -254.1267     0.1413    39.3839    54.9351     3.2120    15.6654     0.0000    -0.2345   316.0957   312.9101     2.4636     2.4275  -999.2500     0.0000    48.0000
     43.0000   641.8459    76.6118   -23.7903  -254.1397     0.1453    45.2405    54.9401     3.1980    14.9470     0.0000    -0.2351   316.0948   312.9231     2.4638     2.4257  -999.2500     0.0000    48.2632
     43.5000   640.8243    76.6118   -23.7903  -254.1510     0.1494    45.7577    54.9451     3.1985    14.4311     0.0000    -0.2357   316.0915   312.9194     2.4637     2.4250  -999.2500     0.0000    45.6316
     44.0000   640.5754    76.6118   -23.7903  -254.1254     0.1535    43.8551    54.9501     3.1996    13.7170     0.0000    -0.2362   316.0779   312.9047     2.4637     2.4242  -999.2500     0.0000    40.9000
     44.5000   641.3220    76.6118   -23.7903  -254.1404     0.1578    41.1002    54.9551     3.2004    13.0099     0.0000    -0.2365   316.0781   312.9041     2.4636     2.4236  -999.2500     0.0000    41.6316
     45.0000   641.3220    76.6118   -23.7903  -254.1507     0.1619    42.1522    54.9601     3.2010    12.4896     0.0000    -0.2368   316.0724   312.8978     2.4635     2.4227  -999.2500     0.0000    39.9474
     45.5000   641.8197    76.6118   -23.7903  -254.1409     0.1663    45.0066    54.9651     3.2015    11.8234     0.0000    -0.2370   316.0797   312.9047     2.4634     2.4221  -999.2500     0.0000    55.0500
     46.0000   640.2742    76.6118   -23.7903  -254.1103     0.1707    49.8481    54.9701     3.2011    11.1925     0.0000    -0.2371   316.0986   312.9240     2.4634     2.4212  -999.2500     0.0000    40.5263
     46.5000   640.8243    76.6118   -23.7903  -254.1124     0.1751    51.0654    54.9751     3.2026    10.7467     0.0000    -0.2371   316.0944   312.9182     2.4633     2.4206  -999.2500     0.0000    46.0000
     47.0000   641.3220    76.6118   -23.7903  -254.1452     0.1797    51.5314    54.9801     3.2027    10.1841     0.0000    -0.2371   316.0739   312.8976     2.4633     2.4195  -999.2500     0.0000    44.7895
     47.5000   640.7982    76.6118   -23.7903  -254.1548     0.1841    48.8766    54.9851     3.2037     9.6462     0.0000    -0.2369   316.0652   312.8879     2.4633     2.4191  -999.2500     0.0000    57.4211
     48.0000   641.3220    76.6118    -4.0132  -254.1507     0.1886    50.4712    54.9901     3.2047     9.2570     0.0000    -0.2368   316.0695   312.8911     2.4633     2.4179  -999.2500     0.0000    53.9500
     48.5000   641.3220    76.6118    -5.9165  -254.1146     0.1931    53.2745    54.9951     3.2047     8.7295     0.0000    -0.2365   316.0795   312.9012     2.4633     2.4173  -999.2500     0.0000    41.7368
