~VERSION INFORMATION
VERS.           1.2   :CWLS Log ASCII Standard - VERSION 1.2
WRAP.           NO    :One Line per depth step
PROD.  Schlumberger   :LAS Producer
PROG.  DLIS to ASCII 2.3                               :LAS Program name and version
CREA.        2015/01/14 20:43                          :LAS Creation date {YYYY/MM/DD hh:mm}
DLIS_CREA.  2015-Jan-14 13:25                          :DLIS Creation date and time {YYYY-MMM-DD hh:mm}
SOURCE.     d5fbb1e7-1f44-4e43-b8fb-7fdeb49dde7f       :DLIS File Name
#--------------------------------------------------
~WELL INFORMATION
#MNEM.UNIT      DATA             DESCRIPTION
#---- ------ --------------   -----------------------------
STRT .F       8.0000         :START DEPTH     
STOP .F      353.0000        :STOP DEPTH     
STEP .F       0.5000         :STEP       
NULL .          -999.25      :NULL VALUE
COMP .                 COMPANY:  ADM Company                        
WELL .                    WELL:  CCS#2                              
FLD  .                   FIELD:  Wildcat                            
LOC  .                LOCATION:  Latitude: 39.885961                
CNTY .                  COUNTY:  Macon                              
STAT .                   STATE:  Illinois                           
CTRY .                 COUNTRY:  USA                                
SRVC .         SERVICE COMPANY:  Schlumberger                       
LATI .DEG             LATITUDE:  39° 53' 9.46" N                    
LONG .DEG            LONGITUDE:  88° 53' 16.959" W                  
API  .              API NUMBER:  12-115-23713-00                    
DATE .                LOG DATE:  12-Jan-2015
UWI  .          UNIQUE WELL ID:                                     
#-----------------------------------------------------------------------------
~PARAMETER INFORMATION
#MNEM.UNIT    VALUE                      DESCRIPTION
#---- -----   --------------------       ------------------------
CN   .        ADM Company                :Company Name
WN   .        CCS#2                      :Well Name
FN   .        Wildcat                    :Field Name
FL   .        Latitude  39.885961        :Field Location
FL1  .        Longitude  -88.888044      :Field Location, Line 1
COUN .        Macon                      :County or Parish
STAT .        Illinois                   :State or Province
NATI .        USA                        :Nation
DATE .        12-Jan-2015                :Tools Above Rotary Table Date
APIN .        12-115-23713-00            :API Well Number
SECT .        32                         :Section
TOWN .        17N                        :Township
RANG .        3E                         :Range
DMF  .        KB                         :Drilling Measured From (Name of Drilling Elevation Reference)
LMF  .        KB                         :Logging Measured From (Name of Logging Elevation Reference)
PDAT .        GL                         :Permanent Datum
ENGI .        Devin Arnold               :Engineer s Name
WITN .        Nick Malkewicz             :Witness s Name
LATI .        39° 53' 9.46  N            :Latitude
LONG .        88° 53' 16.959  W          :Longitude
LUL  .        Bradford                   :Logging Unit Location
LUN  .        3095                       :Logging Unit Number
RUN  .        1                          :Run Number
SON  .        D71E-00006                 :Service Order Number
BHT  .DEGF      58.00000                 :Bottom Hole Temperature
BS   .IN        26.00000                 :Bit Size
MDEN .G/C3       2.71000                 :Matrix Density for Density Porosity
DFD  .LB/G      10.10000                 :Drilling Fluid Density
DFV  .S         60.00000                 :Drilling Fluid Viscosity
DFL  .C3      -999.25000                 :Drilling Fluid Loss
RMFS .OHMM       1.23200                 :Resistivity of Mud Filtrate Sample
EKB  .F        691.19995                 :Elevation of Kelly Bushing
EGL  .F        675.69995                 :Elevation of Ground Level
BLI  .F        342.00000                 :Bottom Log Interval
BSAL .PPM        0.00000                 :Borehole Salinity
FLEV .F          8.00000                 :Depth of Drilling Fluid Level to LMF (Log Measured From)
MCST .DEGF      42.80000                 :Mudcake Sample Temperature
MFST .DEGF      42.80000                 :Mud Filtrate Sample Temperature
MRT  .DEGF      58.00000                 :Maximum Recorded Temperature
MST  .DEGF      42.80000                 :Mud Sample Temperature
RMCS .OHMM       1.84800                 :Resistivity of Mud Cake Sample
RMS  .OHMM       1.54000                 :Resistivity of Mud Sample
RW   .OHMM       1.00000                 :Connate Water Resistivity
TDD  .F        349.00000                 :Driller Total Depth
TDL  .F        349.00000                 :Logger Total Depth
TLI  .F         50.00000                 :Top Log Interval
HIDE .        Wildcat                    :Header Identifier
MATR .        LIME                       :Rock Matrix for Neutron Porosity Corrections
FNUM .           1.00000                 :F-Numerator for Formation Factor Formula
FEXP .           2.00000                 :Exponent "m" for Formation Factor Formula
DFT  .        Fresh Mud                  :Drilling Fluid Type
DFPH .        -999.25000                 :Drilling Fluid pH
MCSS .        Calculated                 :Mudcake Sample Source
MFSS .        Calculated                 :Mud Filtrate Sample Source
FD   .G/C3       1.00000                 :Fluid Density
MSS  .        Active Tank                :Mud Sample Source
OS1  .                                   :Other Services Line 1
OS2  .                                   :Other Services Line 2
OS3  .                                   :Other Services Line 3
OS4  .                                   :Other Services Line 4
OS5  .                                   :Other Services Line 5
R1   .        Matrix Density  Limestone. :Remarks Line 1
R2   .        Mud Sample taken on location. :Remarks Line 2
R3   .        Presentations as per client request. :Remarks Line 3
R4   .        No Chemical Sources ran due to possible potable water zones. :Remarks Line 4
R5   .        Bottom Hole Temperature taken from GM2 temperature log provided by the client. 58degF :Remarks Line 5
R6   .                                   :Remarks Line 6
R7   .                                   :Remarks Line 7
R8   .        APS ran outside max bit size range of 20in causing faulty data. :Remarks Line 8
TCS  .        19 45 00                   :Time Circulation Stopped
TLAB .        01 15 00                   :Time Logger At Bottom
NMT  .        NOBARITE                   :HRDD Mud Type for Nuclear Devices
EPD  .C3         675.699951              :Elevation of Permanent Datum above Mean Sea Level
APD  .F          15.500000               :Elevation of Depth Reference (LMF) above Permanent Datum
#-----------------------------------------------------------------------------
~CURVE INFORMATION
#MNEM.UNIT   API CODE                                  DESCRIPTION
#---- -----  --------                                  -----------------------
DEPT .F                                                :DEPTH (BOREHOLE) {F12.4}
AF10 .OHMM                                             :Array Induction Four Foot Resistivity A10 {F11.4}
AF20 .OHMM                                             :Array Induction Four Foot Resistivity A20 {F11.4}
AF30 .OHMM                                             :Array Induction Four Foot Resistivity A30 {F11.4}
AF60 .OHMM                                             :Array Induction Four Foot Resistivity A60 {F11.4}
AF90 .OHMM                                             :Array Induction Four Foot Resistivity A90 {F11.4}
AO10 .OHMM                                             :Array Induction One Foot Resistivity A10 {F11.4}
AO20 .OHMM                                             :Array Induction One Foot Resistivity A20 {F11.4}
AO30 .OHMM                                             :Array Induction One Foot Resistivity A30 {F11.4}
AO60 .OHMM                                             :Array Induction One Foot Resistivity A60 {F11.4}
AO90 .OHMM                                             :Array Induction One Foot Resistivity A90 {F11.4}
AT10 .OHMM                                             :Array Induction Two Foot Resistivity A10 {F11.4}
AT20 .OHMM                                             :Array Induction Two Foot Resistivity A20 {F11.4}
AT30 .OHMM                                             :Array Induction Two Foot Resistivity A30 {F11.4}
AT60 .OHMM                                             :Array Induction Two Foot Resistivity A60 {F11.4}
AT90 .OHMM                                             :Array Induction Two Foot Resistivity A90 {F11.4}
AFEC .HZ                                               :Far Detector Count Rate {F11.4}
ANEC .HZ                                               :Near Detector Count Rate {F11.4}
AORT .OHMM                                             :Array Induction One Foot Rt {F11.4}
AORX .OHMM                                             :Array Induction One Foot Rxo {F11.4}
APDC .CFCF                                             :Near/Array Corrected Dolomite Porosity {F11.4}
APLC .PU                                               :Near/Array Corrected Limestone Porosity {F11.4}
APSC .CFCF                                             :Near/Array Corrected Sandstone Porosity {F11.4}
CDF  .LBF                                              :Calibrated Downhole Force {F11.4}
CTEM .DEGF                                             :Cartridge Temperature {F11.4}
DCAL .IN                                               :Differential Caliper {F11.4}
ED   .F                                                :East Departure {F11.4}
FPLC .CFCF                                             :Near/Far Corrected Limestone Porosity {F11.4}
GR_EDTC.GAPI                                           :Gamma Ray {F11.4}
GTEM .DEGF                                             :Generalized Borehole Temperature {F11.4}
HASC .CFCF                                             :APS High Resolution Near/Array Corrected Sandstone Porosity {F11.4}
HSIG .CU                                               :APS High Resolution Formation Capture Cross Section {F11.4}
HSTO .IN                                               :APS High Resolution Effective Standoff in Limestone {F11.4}
ND   .F                                                :North Departure {F11.4}
QSGF .                                                 :Quality of Formation Sigma {F11.4}
SIGF .CU                                               :Formation Capture Cross Section {F11.4}
SP   .MV                                               :Spontaneous Potential {F11.4}
SPAR .MV                                               :SP, Armor Return Compensated {F11.4}
STIT .F                                                :Stuck Tool Indicator, Total {F11.4}
STOF .IN                                               :Effective Standoff in Limestone {F11.4}
STPC .CFCF                                             :Corrected Standoff Porosity {F11.4}
TENS .LBF                                              :Cable Tension {F11.4}
#-----------------------------------------------------------------------------
# 
#      DEPT        AF10       AF20       AF30       AF60       AF90       AO10       AO20       AO30       AO60       AO90       AT10       AT20       AT30       AT60       AT90       AFEC       ANEC       AORT       AORX       APDC       APLC       APSC       CDF        CTEM       DCAL        ED        FPLC     GR_EDTC      GTEM       HASC       HSIG       HSTO        ND        QSGF       SIGF        SP        SPAR       STIT       STOF       STPC       TENS
#
~A  
# ...
    116.0000     5.2541     7.8954    11.4138    27.8305    47.9394     5.1492     7.7716    10.9377    26.7824    28.7880     5.1487     7.7647    11.2036    26.6380    73.8261   333.7143  2433.7144    35.6697     4.8007     0.8939    89.5116     0.8964   643.6144    90.4471     0.0000     0.4249     1.1879    38.1134    55.6701     0.9073    27.7004    -0.1306     0.1457     0.2168    27.3237  -343.6406  -345.4727     0.0000    -0.3584     0.7909   689.9286
    116.5000     5.2172     7.8129    11.0975    26.4660    43.9403     5.1298     7.7281    10.7790    24.5080    25.9483     5.1382     7.7261    10.9618    25.7644    76.8276   338.2857  2428.0000    30.8165     4.7782     0.9224    92.3274     0.9240   638.5570    90.4471     0.0000     0.4227     1.2690    39.9442    55.6751     0.9503    20.9765     1.9202     0.1491     0.2055    27.4681  -343.5046  -344.1805     0.0000    -0.3183     0.7920   650.9260
    117.0000     5.2198     7.8130    10.9283    25.4996    40.8637     5.1271     7.7122    10.6737    23.3347    24.4383     5.1889     7.7531    10.8732    25.1081    80.5658   332.0000  2423.4285    28.3274     4.7924     0.9265    92.7351     0.9281   641.9949    90.4471     0.0000     0.4204     1.1958    40.1701    55.6801     0.9160    27.5500    -0.3416     0.1524     0.2023    27.5144  -343.3611  -342.8581     0.0000    -0.3057     0.7925   675.1429
    117.5000     5.2540     7.8595    10.8450    24.7659    38.5366     5.1816     7.7090    10.6935    23.0116    23.9279     5.2354     7.8053    10.8638    24.4241    83.9327   351.4286  2398.2856    27.0260     4.8337     0.8993    90.0424     0.9016   641.1443    90.4471     0.0000     0.4181     1.0986    41.0036    55.6851     0.9054    27.5966    -0.3616     0.1557     0.2137    27.4739  -342.9353  -341.4694     0.0000    -0.3562     0.7904   638.5186
    118.0000     5.3181     7.9511    10.8392    24.2681    37.1437     5.2610     7.8178    10.7948    21.7530    22.4402     5.2996     7.8766    10.7753    23.5310    86.6003   349.7143  2424.0000    24.9819     4.9105     0.8348    83.6843     0.8396   638.3990    90.4471     0.0000     0.4157     1.0041    40.3547    55.6901     0.8593    26.3187    -0.2791     0.1589     0.1850    27.6939  -342.4283  -340.0562     0.0000    -0.1915     0.7910   586.3704
    118.5000     5.4177     8.1120    10.9670    24.2140    37.0840     5.3970     7.9419    10.8437    21.0054    21.5297     5.3735     7.9445    10.6504    23.0791    88.7017   349.0000  2412.0000    23.6585     5.0040     0.8034    80.5906     0.8096   643.6074    90.4471     0.0000     0.4133     1.0778    40.4215    55.6951     0.8359    26.5661    -0.1689     0.1621     0.1958    27.2207  -341.7315  -338.6446     0.0000    -0.0283     0.7917   618.9630
    119.0000     5.5997     8.4507    11.3968    24.9454    38.8415     5.5461     8.1923    10.9272    20.4191    20.8204     5.5088     8.1185    10.8346    22.5948    88.8947   332.0000  2399.4285    22.5759     5.1431     0.8201    82.2372     0.8256   639.9000    90.4471     0.0000     0.4109     1.0265    38.2239    55.7001     0.8390    27.2831    -0.1890     0.1652     0.1964    26.8269  -340.4630  -337.1798     0.0000    -0.1182     0.7913   569.2963
    119.5000     5.8841     9.0178    12.1837    26.8309    42.9012     5.5551     8.1854    10.3357    17.4237    17.6925     5.7206     8.4127    11.1394    23.2709    92.5911   355.4286  2389.7144    18.9609     5.1678     0.8822    88.3584     0.8851   647.0759    90.4471     0.0000     0.4083     0.9491    40.4314    55.7051     0.8559    27.0427    -0.2613     0.1683     0.2220    26.8590  -338.9838  -335.7465     0.0000    -0.3470     0.7897   543.7143
    120.0000     6.2778     9.8556    13.3940    30.1582    49.4187     6.0735     9.3009    12.2074    21.1195    21.4052     6.1783     9.5032    12.6629    27.6883   110.8099   366.8571  2362.8572    22.5007     5.5231     0.9196    92.0519     0.9213   640.9665    90.4471     0.0000     0.4057     0.9166    40.9372    55.7101     0.9145    25.0603    -0.3336     0.1714     0.2177    26.6712  -337.0112  -334.2757     0.0000    -0.3124     0.7897   575.1852
    120.5000     6.7890    10.9772    15.0733    34.8916    56.9653     7.0846    11.9352    15.8769    27.9113    28.2489     6.9245    11.5366    15.5893    36.1587   124.1926   340.5714  2429.1428    28.7157     5.9784     0.9258    92.6637     0.9274   641.6522    90.4471     0.0000     0.4031     0.8507    42.4050    55.7151     0.9039    25.3527    -0.1033     0.1744     0.2251    25.9171  -334.7755  -332.8438     0.0000    -0.2834     0.7894   590.9630
    121.0000     7.3533    12.3523    17.1420    41.3323    67.7360     7.9453    14.2842    18.1856    30.8759    31.1577     7.7428    13.8907    19.0145    47.5131   131.4197   370.2857  2409.1428    30.9071     6.3012     0.8605    86.2208     0.8643   652.8429    90.4471     0.0000     0.4004     0.7886    41.5849    55.7201     0.8930    24.2959     0.5097     0.1774     0.2219    26.2436  -332.3518  -331.4370     0.0000    -0.2965     0.7900   620.4445
    121.5000     8.0325    13.9807    19.6892    49.6970    81.0360     8.4893    15.1940    19.5969    30.7200    30.9141     8.1689    14.3341    19.7932    51.0823   130.8734   376.0000  2438.5000    31.2607     6.6764     0.8575    85.9270     0.8614   640.4333    90.4471     0.0000     0.3977     0.7081    43.6405    55.7251     0.8652    26.4212    -0.2984     0.1803     0.2089    26.8965  -330.0023  -330.1073     0.0000    -0.2859     0.7904   645.6296
    122.0000     8.7475    15.9085    22.8692    61.4647    95.7338     7.7246    12.1745    14.5436    19.5757    19.6409     8.4861    14.5868    20.3010    55.3460   103.9613   368.5714  2348.0000    20.4536     6.6794     0.8253    82.7479     0.8305   643.0864    90.4471     0.0000     0.3949     0.6172    45.0794    55.7301     0.8141    28.5051    -0.0499     0.1832     0.2019    26.4749  -327.4653  -328.8189     0.0000    -0.1366     0.7927   606.2963
    122.5000     9.5737    18.1546    26.7379    78.0302   110.5543    10.0315    18.6196    22.4129    28.1757    28.2356     9.8637    19.2026    27.4226    85.6027   133.6675   402.2857  2446.2856    30.1678     8.1119     0.8086    81.0994     0.8145   642.3505    90.4471     0.0000     0.3921     0.5579    46.2429    55.7351     0.7676    27.4457     0.2097     0.1861     0.2027    26.6416  -324.9051  -327.6042     0.0000    -0.0496     0.7926   732.1482
    123.0000    10.4640    20.5284    31.0253    98.3139   121.1424    15.1755    36.7651    33.8593    37.9783    38.0760    11.9854    26.8715    40.7035   120.3607   141.8756   405.1429  2454.8572    41.9287     9.6058     0.7607    76.3710     0.7689   639.7350    90.4471     0.0000     0.3892     0.5639    43.9193    55.7401     0.8073    25.9059    -0.0260     0.1889     0.2600    25.9362  -322.6183  -326.3607     0.0000     0.1901     0.7898   658.4286
    123.5000    11.2807    22.5262    34.6819   115.4690   122.4422    13.9047    42.3940    41.6281    46.5370    46.7037    12.4099    27.4371    43.1690   151.1588   146.4440   357.7143  2452.0000    51.5620    10.9292     0.7486    75.1783     0.7574   638.8589    90.4471     0.0000     0.3863     0.6933    41.5502    55.7451     0.7736    23.8743     0.1655     0.1917     0.3102    25.1741  -320.4815  -324.9771     0.0000     0.2810     0.7930   703.1481
    124.0000    11.8788    23.5384    36.4392   119.5182   113.4974    10.4564    20.9623    26.7368    25.9632    26.0330    11.8208    23.9224    36.7855   160.7393   120.1120   360.5714  2384.0000    31.1816     9.8464     0.7264    72.9862     0.7363   636.5482    90.4471     0.0000     0.3833     0.6893    39.6941    55.7501     0.7134    23.4055     0.4804     0.1944     0.3871    24.1048  -318.3929  -323.3532     0.0000     0.3835     0.7917   613.3572
    124.5000    12.1767    23.2226    35.6214   108.5575    98.4458    11.6804    20.4501    27.9280    27.3434    27.4240    12.5474    25.5249    38.7023   129.1969   112.6677   409.7143  2424.0000    31.3175    10.1455     0.6725    67.6591     0.6852   637.8178    90.4471     0.0000     0.3802     0.5890    39.4735    55.7551     0.6678    22.9500     0.6747     0.1971     0.5336    24.8281  -316.4190  -321.3786     0.0000     0.6122     0.7906   611.2222
