~VERSION INFORMATION
VERS.           1.2   :CWLS Log ASCII Standard - VERSION 1.2
WRAP.           NO    :One Line per depth step
PROD.  Schlumberger   :LAS Producer
PROG.  DLIS to ASCII 2.3                               :LAS Program name and version
CREA.        2015/01/14 20:43                          :LAS Creation date {YYYY/MM/DD hh:mm}
DLIS_CREA.  2015-Jan-14 13:25                          :DLIS Creation date and time {YYYY-MMM-DD hh:mm}
SOURCE.     d5fbb1e7-1f44-4e43-b8fb-7fdeb49dde7f       :DLIS File Name
#--------------------------------------------------
~WELL INFORMATION
#MNEM.UNIT      DATA             DESCRIPTION
#---- ------ --------------   -----------------------------
STRT .F       8.0000         :START DEPTH     
STOP .F      353.0000        :STOP DEPTH     
STEP .F       0.5000         :STEP       
NULL .          -999.25      :NULL VALUE
COMP .                 COMPANY:  ADM Company                        
WELL .                    WELL:  CCS#2                              
FLD  .                   FIELD:  Wildcat                            
LOC  .                LOCATION:  Latitude: 39.885961                
CNTY .                  COUNTY:  Macon                              
STAT .                   STATE:  Illinois                           
CTRY .                 COUNTRY:  USA                                
SRVC .         SERVICE COMPANY:  Schlumberger                       
LATI .DEG             LATITUDE:  39° 53' 9.46" N                    
LONG .DEG            LONGITUDE:  88° 53' 16.959" W                  
API  .              API NUMBER:  12-115-23713-00                    
DATE .                LOG DATE:  12-Jan-2015
UWI  .          UNIQUE WELL ID:                                     
#-----------------------------------------------------------------------------
~PARAMETER INFORMATION
#MNEM.UNIT    VALUE                      DESCRIPTION
#---- -----   --------------------       ------------------------
CN   .        ADM Company                :Company Name
WN   .        CCS#2                      :Well Name
FN   .        Wildcat                    :Field Name
FL   .        Latitude  39.885961        :Field Location
FL1  .        Longitude  -88.888044      :Field Location, Line 1
COUN .        Macon                      :County or Parish
STAT .        Illinois                   :State or Province
NATI .        USA                        :Nation
DATE .        12-Jan-2015                :Tools Above Rotary Table Date
APIN .        12-115-23713-00            :API Well Number
SECT .        32                         :Section
TOWN .        17N                        :Township
RANG .        3E                         :Range
DMF  .        KB                         :Drilling Measured From (Name of Drilling Elevation Reference)
LMF  .        KB                         :Logging Measured From (Name of Logging Elevation Reference)
PDAT .        GL                         :Permanent Datum
ENGI .        Devin Arnold               :Engineer s Name
WITN .        Nick Malkewicz             :Witness s Name
LATI .        39° 53' 9.46  N            :Latitude
LONG .        88° 53' 16.959  W          :Longitude
LUL  .        Bradford                   :Logging Unit Location
LUN  .        3095                       :Logging Unit Number
RUN  .        1                          :Run Number
SON  .        D71E-00006                 :Service Order Number
BHT  .DEGF      58.00000                 :Bottom Hole Temperature
BS   .IN        26.00000                 :Bit Size
MDEN .G/C3       2.71000                 :Matrix Density for Density Porosity
DFD  .LB/G      10.10000                 :Drilling Fluid Density
DFV  .S         60.00000                 :Drilling Fluid Viscosity
DFL  .C3      -999.25000                 :Drilling Fluid Loss
RMFS .OHMM       1.23200                 :Resistivity of Mud Filtrate Sample
EKB  .F        691.19995                 :Elevation of Kelly Bushing
EGL  .F        675.69995                 :Elevation of Ground Level
BLI  .F        342.00000                 :Bottom Log Interval
BSAL .PPM        0.00000                 :Borehole Salinity
FLEV .F          8.00000                 :Depth of Drilling Fluid Level to LMF (Log Measured From)
MCST .DEGF      42.80000                 :Mudcake Sample Temperature
MFST .DEGF      42.80000                 :Mud Filtrate Sample Temperature
MRT  .DEGF      58.00000                 :Maximum Recorded Temperature
MST  .DEGF      42.80000                 :Mud Sample Temperature
RMCS .OHMM       1.84800                 :Resistivity of Mud Cake Sample
RMS  .OHMM       1.54000                 :Resistivity of Mud Sample
RW   .OHMM       1.00000                 :Connate Water Resistivity
TDD  .F        349.00000                 :Driller Total Depth
TDL  .F        349.00000                 :Logger Total Depth
TLI  .F         50.00000                 :Top Log Interval
HIDE .        Wildcat                    :Header Identifier
MATR .        LIME                       :Rock Matrix for Neutron Porosity Corrections
FNUM .           1.00000                 :F-Numerator for Formation Factor Formula
FEXP .           2.00000                 :Exponent "m" for Formation Factor Formula
DFT  .        Fresh Mud                  :Drilling Fluid Type
DFPH .        -999.25000                 :Drilling Fluid pH
MCSS .        Calculated                 :Mudcake Sample Source
MFSS .        Calculated                 :Mud Filtrate Sample Source
FD   .G/C3       1.00000                 :Fluid Density
MSS  .        Active Tank                :Mud Sample Source
OS1  .                                   :Other Services Line 1
OS2  .                                   :Other Services Line 2
OS3  .                                   :Other Services Line 3
OS4  .                                   :Other Services Line 4
OS5  .                                   :Other Services Line 5
R1   .        Matrix Density  Limestone. :Remarks Line 1
R2   .        Mud Sample taken on location. :Remarks Line 2
R3   .        Presentations as per client request. :Remarks Line 3
R4   .        No Chemical Sources ran due to possible potable water zones. :Remarks Line 4
R5   .        Bottom Hole Temperature taken from GM2 temperature log provided by the client. 58degF :Remarks Line 5
R6   .                                   :Remarks Line 6
R7   .                                   :Remarks Line 7
R8   .        APS ran outside max bit size range of 20in causing faulty data. :Remarks Line 8
TCS  .        19 45 00                   :Time Circulation Stopped
TLAB .        01 15 00                   :Time Logger At Bottom
NMT  .        NOBARITE                   :HRDD Mud Type for Nuclear Devices
EPD  .C3         675.699951              :Elevation of Permanent Datum above Mean Sea Level
APD  .F          15.500000               :Elevation of Depth Reference (LMF) above Permanent Datum
#-----------------------------------------------------------------------------
~CURVE INFORMATION
#MNEM.UNIT   API CODE                                  DESCRIPTION
#---- -----  --------                                  -----------------------
DEPT .F                                                :DEPTH (BOREHOLE) {F12.4}
AF10 .OHMM                                             :Array Induction Four Foot Resistivity A10 {F11.4}
AF20 .OHMM                                             :Array Induction Four Foot Resistivity A20 {F11.4}
AF30 .OHMM                                             :Array Induction Four Foot Resistivity A30 {F11.4}
AF60 .OHMM                                             :Array Induction Four Foot Resistivity A60 {F11.4}
AF90 .OHMM                                             :Array Induction Four Foot Resistivity A90 {F11.4}
AO10 .OHMM                                             :Array Induction One Foot Resistivity A10 {F11.4}
AO20 .OHMM                                             :Array Induction One Foot Resistivity A20 {F11.4}
AO30 .OHMM                                             :Array Induction One Foot Resistivity A30 {F11.4}
AO60 .OHMM                                             :Array Induction One Foot Resistivity A60 {F11.4}
AO90 .OHMM                                             :Array Induction One Foot Resistivity A90 {F11.4}
AT10 .OHMM                                             :Array Induction Two Foot Resistivity A10 {F11.4}
AT20 .OHMM                                             :Array Induction Two Foot Resistivity A20 {F11.4}
AT30 .OHMM                                             :Array Induction Two Foot Resistivity A30 {F11.4}
AT60 .OHMM                                             :Array Induction Two Foot Resistivity A60 {F11.4}
AT90 .OHMM                                             :Array Induction Two Foot Resistivity A90 {F11.4}
AFEC .HZ                                               :Far Detector Count Rate {F11.4}
ANEC .HZ                                               :Near Detector Count Rate {F11.4}
AORT .OHMM                                             :Array Induction One Foot Rt {F11.4}
AORX .OHMM                                             :Array Induction One Foot Rxo {F11.4}
APDC .CFCF                                             :Near/Array Corrected Dolomite Porosity {F11.4}
APLC .PU                                               :Near/Array Corrected Limestone Porosity {F11.4}
APSC .CFCF                                             :Near/Array Corrected Sandstone Porosity {F11.4}
CDF  .LBF                                              :Calibrated Downhole Force {F11.4}
CTEM .DEGF                                             :Cartridge Temperature {F11.4}
DCAL .IN                                               :Differential Caliper {F11.4}
ED   .F                                                :East Departure {F11.4}
FPLC .CFCF                                             :Near/Far Corrected Limestone Porosity {F11.4}
GR_EDTC.GAPI                                           :Gamma Ray {F11.4}
GTEM .DEGF                                             :Generalized Borehole Temperature {F11.4}
HASC .CFCF                                             :APS High Resolution Near/Array Corrected Sandstone Porosity {F11.4}
HSIG .CU                                               :APS High Resolution Formation Capture Cross Section {F11.4}
HSTO .IN                                               :APS High Resolution Effective Standoff in Limestone {F11.4}
ND   .F                                                :North Departure {F11.4}
QSGF .                                                 :Quality of Formation Sigma {F11.4}
SIGF .CU                                               :Formation Capture Cross Section {F11.4}
SP   .MV                                               :Spontaneous Potential {F11.4}
SPAR .MV                                               :SP, Armor Return Compensated {F11.4}
STIT .F                                                :Stuck Tool Indicator, Total {F11.4}
STOF .IN                                               :Effective Standoff in Limestone {F11.4}
STPC .CFCF                                             :Corrected Standoff Porosity {F11.4}
TENS .LBF                                              :Cable Tension {F11.4}
#-----------------------------------------------------------------------------
# 
#      DEPT        AF10       AF20       AF30       AF60       AF90       AO10       AO20       AO30       AO60       AO90       AT10       AT20       AT30       AT60       AT90       AFEC       ANEC       AORT       AORX       APDC       APLC       APSC       CDF        CTEM       DCAL        ED        FPLC     GR_EDTC      GTEM       HASC       HSIG       HSTO        ND        QSGF       SIGF        SP        SPAR       STIT       STOF       STPC       TENS
#
~A  
# ...
     53.0000    10.6534    16.7085    21.4595    37.2356    45.5526     8.8400    11.6978    13.2894    15.1193    14.9974     9.8411    14.0511    17.3306    30.6439    49.3744   357.1429  2435.4285    15.7069     8.2061     0.8879    88.9238     0.8907   697.8754    90.4471     0.0000     0.2322     0.7385    45.3951    55.0401     0.8556    26.2320    -0.2675    -0.2321     0.2487    25.4313  -348.5186  -348.2412     0.0000    -0.3516     0.7889   746.5946
     53.5000    11.7784    18.7341    23.8438    39.7414    48.3362    13.0555    20.4729    21.4331    22.4930    22.2984    11.9585    18.7480    23.1701    39.5052    61.3507   386.5000  2400.5715    23.6447    10.8364     0.8317    83.3740     0.8366   697.4349    90.4471     0.0000     0.2364     0.7464    45.2522    55.0451     0.7825    24.7676     0.1085    -0.2314     0.2075    26.2327  -346.2587  -347.5331     0.0000    -0.1814     0.7900   636.3784
     54.0000    13.1991    21.4711    27.0394    42.5976    51.4597    16.7655    34.6481    31.6926    31.1219    30.8918    14.7324    25.8939    32.4984    50.9524    69.8297   364.0000  2377.7144    33.6019    14.5267     0.7870    78.9680     0.7939   700.2966    90.4471     0.0000     0.2406     0.5965    45.5948    55.0501     0.7865    26.3394     0.0990    -0.2306     0.2142    26.6643  -344.7247  -346.9363     0.0000     0.0505     0.7902   708.4167
     54.5000    14.9610    24.3947    30.3220    44.5423    51.7880    18.7906    37.5003    36.9435    26.5059    26.3075    16.4604    33.2084    38.5178    54.2995    68.8731   401.1429  2470.2856    30.1177    15.9595     0.7217    72.5194     0.7318   701.9588    90.4471     0.0000     0.2447     0.5120    44.6215    55.0551     0.7165    26.0914     0.4649    -0.2298     0.3523    25.8205  -343.9088  -346.4777     0.0000     0.3921     0.7901   622.2703
     55.0000    16.9551    26.5236    32.5192    44.7578    49.2547    16.4869    29.9291    30.9429    24.0397    23.9125    17.2586    31.6126    36.0188    48.9607    57.7999   416.0000  2382.2856    28.2243    17.6110     0.6675    67.1647     0.6805   708.1280    90.4471     0.0000     0.2488     0.4470    49.3775    55.0601     0.6203    24.3842     0.8436    -0.2288     0.5033    26.0951  -343.8345  -346.1722     0.0000     0.6208     0.7894   660.8109
     55.5000    18.4013    27.3662    33.0204    43.2291    44.8511    21.0071    31.6448    31.9766    24.1615    24.0753    19.5545    30.4878    34.5582    43.6381    46.9233   411.4286  2374.8572    27.6773    20.9293     0.5763    55.7357     0.5815   689.5484    90.4471     0.0000     0.2529     0.4194    50.3660    55.0651     0.5730    23.5665     0.9402    -0.2279     0.8589    24.5257  -344.3026  -346.1266     0.0000     0.9292     0.7914   656.0000
     56.0000    19.6184    27.2952    32.3305    40.9776    41.0092    28.2830    39.0643    41.3625    33.2826    33.3067    20.3558    28.6084    31.9425    41.8161    39.7962   422.2857  2484.0000    35.9077    26.3701     0.5060    43.6161     0.4738   684.6556    90.4471     0.0000     0.2570     0.3258    55.0526    55.0701     0.4909    22.7838     1.0736    -0.2269     1.1697    23.2656  -345.1419  -346.1660     0.0000     1.1334     0.7931   607.8421
     56.5000    20.7455    27.1373    31.5765    39.7230    39.5776    25.3314    27.5775    30.2239    27.8456    27.9847    21.1174    27.5099    31.2589    38.7738    34.4454   465.1429  2480.0000    28.8248    23.7338     0.4833    40.7203     0.4429   680.4083    90.4471     0.0000     0.2611     0.3033    52.6962    55.0751     0.5141    22.9141     1.0571    -0.2259     1.2157    23.3752  -346.3043  -346.4348     0.0000     1.1743     0.7901   685.1892
     57.0000    21.6774    26.6641    30.8719    37.9302    36.6137    23.0895    21.9420    24.5440    25.5511    25.7935    21.7479    25.8806    29.0954    36.1357    28.9769   461.7143  2490.8572    26.5608    22.8564     0.5052    43.6253     0.4737   673.1860    90.4471     0.0000     0.2651     0.2947    53.4297    55.0801     0.4354    22.7650     1.1883    -0.2248     1.0850    24.4689  -346.9612  -346.7955     0.0000     1.1199     0.7910   734.1053
     57.5000    22.3668    26.6037    30.6329    36.8879    35.3340    22.5967    26.1780    28.1264    28.3827    28.7599    22.2859    26.3352    30.3448    37.5117    29.7829   456.5714  2574.8572    28.9377    21.7491     0.4659    39.7545     0.4264   661.0897    90.4471     0.0000     0.2691     0.3218    52.8849    55.0851     0.4300    25.0549     1.2084    -0.2236     1.2679    23.3817  -347.7585  -347.2544     0.0000     1.2150     0.7908   689.9730
     58.0000    22.7786    26.6759    30.6806    36.2763    34.5272    22.5926    25.7603    28.1363    28.7009    29.1841    22.7387    26.7233    30.5473    35.9132    28.0661   428.5714  2521.7144    29.1818    21.3275     0.4864    40.9059     0.4458   662.6520    90.4471     0.0000     0.2730     0.3548    53.9899    55.0901     0.4551    24.5392     1.1485    -0.2224     1.1660    24.1348  -348.3240  -347.7413     0.0000     1.1707     0.7904   662.3514
     58.5000    23.1549    26.8107    30.8212    36.0120    34.3644    23.1728    27.4525    29.6568    28.4041    28.9348    23.0233    27.1638    31.3557    36.4258    27.7964   422.0000  2548.0000    29.7159    21.2250     0.5108    44.7142     0.4833   661.5668    90.4471     0.0000     0.2770     0.4017    52.8302    55.0951     0.4941    23.2132     1.0826    -0.2212     1.0374    24.6753  -349.0017  -348.2910     0.0000     1.0895     0.7890   650.1316
     59.0000    23.4042    26.9123    30.9822    36.0233    34.5531    22.0113    25.9837    27.7110    29.5079    30.1767    23.4395    26.5121    31.1628    36.1414    27.1844   414.8571  2488.0000    31.6042    21.6020     0.5029    43.2137     0.4700   656.4214    90.4471     0.0000     0.2809     0.3914    52.2737    55.1001     0.5362    23.9394     0.9920    -0.2198     1.1547    23.3824  -349.5203  -348.7613     0.0000     1.1271     0.7911   661.4324
     59.5000    23.4271    26.9409    31.0977    35.9180    34.6927    24.4084    27.3859    29.4552    34.5554    35.5621    23.7216    26.7395    31.4313    36.3307    27.4821   417.1429  2411.2000    38.6703    22.5883     0.5347    49.1485     0.5224   660.1635    90.4471     0.0000     0.2848     0.4479    52.3406    55.1051     0.4203    22.5474     1.2170    -0.2185     0.9539    23.7200  -350.1908  -349.2545     0.0000     0.9790     0.7830   666.0811
     60.0000    23.1550    26.8442    31.3352    36.0903    35.1070    25.8566    29.4433    33.1044    48.8815    50.8058    23.6175    26.9735    31.7397    36.3672    27.6465   404.6667  2437.1428    58.9438    23.5437     0.5255    47.0522     0.5045   649.4985    90.4471     0.0000     0.2887     0.4193    50.8604    55.1101     0.5750    23.6318     0.9276    -0.2171     1.0786    23.5234  -350.5521  -349.6041     0.0000     1.0730     0.7924   583.8919
     60.5000    22.5246    26.5983    31.4788    36.4036    36.2567    23.4718    26.8889    31.3210    60.5715    63.9620    23.1063    26.8759    32.1434    35.4305    27.7474   412.6667  2509.1428    80.0671    22.1045     0.5787    56.1985     0.5855   641.1683    90.4471     0.0000     0.2925     0.4380    52.6698    55.1151     0.6276    24.0650     0.8128    -0.2156     0.8789    23.6177  -350.5608  -349.8427     0.0000     0.9107     0.7899   546.1892
     61.0000    21.5385    26.1444    31.2887    36.8539    36.6418    21.7969    26.2707    31.9491    73.4214    78.6018    21.9053    25.9901    31.6146    36.4142    28.9432   440.5714  2479.4285   113.2173    20.7326     0.5634    53.5224     0.5620   640.9291    90.4471     0.0000     0.2963     0.3982    51.9201    55.1201     0.6098    24.3711     0.8824    -0.2141     0.9492    23.6054  -350.1808  -349.8962     0.0000     0.9703     0.7922   554.2973
     61.5000    20.2659    25.2599    30.7662    37.0711    36.6857    19.6617    24.2231    31.0251    76.8470    82.7696    20.1670    24.9046    30.7321    36.2839    28.9201   425.1429  2506.2856   128.9845    18.6480     0.5796    56.2864     0.5864   644.9155    90.4471     0.0000     0.3002     0.3971    51.6227    55.1251     0.5172    23.0024     1.0327    -0.2126     0.8298    24.9175  -349.8868  -349.9167     0.0000     0.9183     0.7912   615.6757
