~VERSION INFORMATION
VERS.           1.2   :CWLS Log ASCII Standard - VERSION 1.2
WRAP.           NO    :One Line per depth step
PROD.  Schlumberger   :LAS Producer
PROG.  DLIS to ASCII 2.3                               :LAS Program name and version
CREA.        2015/05/30 23:46                          :LAS Creation date {YYYY/MM/DD hh:mm}
DLIS_CREA.  2015-May-30 15:01                          :DLIS Creation date and time {YYYY-MMM-DD hh:mm}
SOURCE.     b43ac578-4029-44ab-a201-dacd5736d378       :DLIS File Name
#--------------------------------------------------
~WELL INFORMATION
#MNEM.UNIT      DATA             DESCRIPTION
#---- ------ --------------   -----------------------------
STRT .F      5200.5000       :START DEPTH     
STOP .F      7212.5000       :STOP DEPTH     
STEP .F       0.5000         :STEP       
NULL .          -999.25      :NULL VALUE
COMP .                 COMPANY:  ADM COMPANY                        
WELL .                    WELL:  CCS#2                              
FLD  .                   FIELD:  WILDCAT                            
LOC  .                LOCATION:  LAT 39.885961                      
CNTY .                  COUNTY:  MACON                              
STAT .                   STATE:  ILLINOIS                           
CTRY .                 COUNTRY:  USA                                
SRVC .         SERVICE COMPANY:  Schlumberger                       
LATI .DEG             LATITUDE:  39.885961 degrees                  
LONG .DEG            LONGITUDE:  -88.888044 degrees                 
API  .              API NUMBER:  12-115-23713-00                    
DATE .                LOG DATE:  29-May-2015
UWI  .          UNIQUE WELL ID:  12-115-23713-00                    
#-----------------------------------------------------------------------------
~PARAMETER INFORMATION
#MNEM.UNIT    VALUE                      DESCRIPTION
#---- -----   --------------------       ------------------------
CN   .        ADM COMPANY                :Company Name
WN   .        CCS#2                      :Well Name
FN   .        WILDCAT                    :Field Name
FL   .        LAT 39.885961              :Field Location
FL1  .        LONG 39.885961             :Field Location, Line 1
COUN .        MACON                      :County or Parish
STAT .        ILLINOIS                   :State or Province
NATI .        USA                        :Nation
DATE .        29-May-2015                :Tools Above Rotary Table Date
APIN .        12-115-23713-00            :API Well Number
SECT .        32                         :Section
TOWN .        17N                        :Township
RANG .        3E                         :Range
DMF  .        KB                         :Drilling Measured From (Name of Drilling Elevation Reference)
LMF  .        KB                         :Logging Measured From (Name of Logging Elevation Reference)
PDAT .        GL                         :Permanent Datum
ENGI .        H. DIMITROV / M. MOHAMMED  :Engineer s Name
WITN .        NICK MALKEWICZ             :Witness s Name
LATI .        39.885961 degrees          :Latitude
LONG .        -88.888044 degrees         :Longitude
LUL  .        BRADFORD                   :Logging Unit Location
LUN  .        3003                       :Logging Unit Number
RUN  .        RUN 3B                     :Run Number
SON  .                                   :Service Order Number
BHT  .DEGF     127.00000                 :Bottom Hole Temperature
BS   .IN        12.25000                 :Bit Size
MDEN .LB/G      22.11532                 :Matrix Density for Density Porosity
DFD  .LB/G       9.20000                 :Drilling Fluid Density
DFV  .S         66.00000                 :Drilling Fluid Viscosity
DFL  .C3         7.60000                 :Drilling Fluid Loss
RMFS .OHMM       0.17000                 :Resistivity of Mud Filtrate Sample
EKB  .F        691.19995                 :Elevation of Kelly Bushing
EGL  .F        675.69995                 :Elevation of Ground Level
BLI  .F       7192.00000                 :Bottom Log Interval
BSAL .PPM     15100.00000                :Borehole Salinity
FLEV .F          8.00000                 :Depth of Drilling Fluid Level to LMF (Log Measured From)
MCST .DEGF      72.50000                 :Mudcake Sample Temperature
MFST .DEGF      72.50000                 :Mud Filtrate Sample Temperature
MRT  .DEGF     127.00000                 :Maximum Recorded Temperature
MST  .DEGF      72.50000                 :Mud Sample Temperature
RMCS .OHMM       0.14000                 :Resistivity of Mud Cake Sample
RMS  .OHMM       0.20000                 :Resistivity of Mud Sample
RW   .OHMM       1.00000                 :Connate Water Resistivity
TDD  .F       7193.00049                 :Driller Total Depth
TDL  .F       7192.00000                 :Logger Total Depth
TLI  .F       5231.00000                 :Top Log Interval
HIDE .        WILDCAT                    :Header Identifier
MATR .        SAND                       :Rock Matrix for Neutron Porosity Corrections
FNUM .           1.00000                 :F-Numerator for Formation Factor Formula
FEXP .           2.00000                 :Exponent "m" for Formation Factor Formula
DFT  .        Fresh Water                :Drilling Fluid Type
DFPH .          11.50000                 :Drilling Fluid pH
MCSS .        Calculated                 :Mudcake Sample Source
MFSS .        Calculated                 :Mud Filtrate Sample Source
FD   .LB/G       8.34540                 :Fluid Density
MSS  .        Active Tank                :Mud Sample Source
OS1  .                                   :Other Services Line 1
OS2  .                                   :Other Services Line 2
OS3  .                                   :Other Services Line 3
OS4  .                                   :Other Services Line 4
OS5  .                                   :Other Services Line 5
R1   .        THANKS FOR CHOOSING SCHLUMBERGER!!! :Remarks Line 1
R2   .        All WELL PROPERTIES PROVIDED BY CLIENT :Remarks Line 2
R3   .        ALL SCALES ON PRESENTATIONS AS PER

CLIENT REQUEST :Remarks Line 3
R4   .        MATRIX  SANDSTONE          :Remarks Line 4
R5   .        MATRIX DENSITY  2.65 G/CC  :Remarks Line 5
R6   .        ALL LOGGING INTERVALS AS PER CLIENT REQUEST :Remarks Line 6
R7   .        MRT = 127 DEGF FROM THE THERMOMETER :Remarks Line 7
R8   .                                   :Remarks Line 8
TCS  .        20 00 00                   :Time Circulation Stopped
TLAB .        11 17 00                   :Time Logger At Bottom
EPD  .C3         675.699951              :Elevation of Permanent Datum above Mean Sea Level
APD  .F          15.500000               :Elevation of Depth Reference (LMF) above Permanent Datum
#-----------------------------------------------------------------------------
~CURVE INFORMATION
#MNEM.UNIT   API CODE                                  DESCRIPTION
#---- -----  --------                                  -----------------------
DEPT .F                                                :DEPTH (BOREHOLE) {F12.4}
C1   .IN                                               :Caliper 1 {F11.4}
C2   .IN                                               :Caliper 2 {F11.4}
CDF  .LBF                                              :Calibrated Downhole Force {F11.4}
CTEM .DEGF                                             :Cartridge Temperature {F11.4}
DCAL .IN                                               :Differential Caliper {F11.4}
DEVI .DEG                                              :Hole Deviation {F11.4}
DEVIM.DEG                                              :Memorized Deviation {F11.4}
DTCO .US/F                                             :Delta-T Compressional {F11.4}
DTSM .US/F                                             :Delta-T Shear {F11.4}
ED   .F                                                :East Departure {F11.4}
GR_EDTC.GAPI                                           :Gamma Ray {F11.4}
GTEM .DEGF                                             :Generalized Borehole Temperature {F11.4}
HAZI .DEG                                              :Hole Azimuth Relative to True North {F11.4}
HAZIM.DEG                                              :Hole Azimuth Relative to True North {F11.4}
ITT  .S                                                :Integrated Transit Time {F11.4}
ND   .F                                                :North Departure {F11.4}
P1AZ .DEG                                              :Pad 1 Azimuth in Horizontal Plane (0 = True North) {F11.4}
PR   .                                                 :Poisson s Ratio {F11.4}
RB   .DEG                                              :Relative Bearing {F11.4}
SDEV .DEG                                              :Sonde Deviation {F11.4}
SDEVM.DEG                                              :Sonde Deviation {F11.4}
SPHI .CFCF                                             :Sonic Porosity {F11.4}
STIT .F                                                :Stuck Tool Indicator, Total {F11.4}
TENS .LBF                                              :Cable Tension {F11.4}
#-----------------------------------------------------------------------------
# 
#      DEPT         C1         C2        CDF        CTEM       DCAL       DEVI      DEVIM       DTCO       DTSM        ED      GR_EDTC      GTEM       HAZI      HAZIM       ITT         ND        P1AZ        PR         RB        SDEV      SDEVM       SPHI       STIT       TENS
#
~A  
# ...
   5606.5000    11.9441    11.8804  1572.1521   124.0471    -0.0688     0.5949     0.6064    60.2163    93.6340   -56.0838    35.0126   113.9874   357.0871   356.8747     0.1070   102.4077   291.8950     0.1474   294.8091     0.5949     0.6064     0.0438     0.0000  3245.3333
   5607.0000    11.9358    11.9003  1571.6282   124.0471    -0.0232     0.5955     0.6089    60.1050    92.7110   -56.0865    34.9057   113.9915   357.2187   356.9536     0.1069   102.4156   291.0637     0.1375   293.8461     0.5955     0.6089     0.0427     0.0000  3216.3333
   5607.5000    11.9275    11.8843  1566.9131   124.0471    -0.0347     0.5960     0.6110    59.3986    91.4237   -56.0891    36.9108   113.9956   357.2802   356.9710     0.1069   102.4233   290.4113     0.1348   293.1322     0.5960     0.6110     0.0358     0.0000  3231.3333
   5608.0000    11.9110    11.8764  1571.8900   124.0471    -0.0463     0.5957     0.6138    59.5427    91.4091   -56.0917    37.6777   113.9996   357.3854   357.0696     0.1069   102.4311   289.5939     0.1315   292.2096     0.5957     0.6138     0.0372     0.0000  3201.0000
   5608.5000    11.9317    11.8923  1576.9419   124.0471    -0.0463     0.5952     0.6151    60.0544    91.2382   -56.0943    36.3468   114.0038   357.5171   357.2324     0.1069   102.4388   288.4444     0.1178   290.9283     0.5952     0.6151     0.0422     0.0000  3286.6667
   5609.0000    11.9275    11.8684  1567.0067   124.0471    -0.0463     0.5941     0.6158    59.9204    91.7024   -56.0970    34.2568   114.0079   357.6078   357.2827     0.1068   102.4466   287.5667     0.1275   289.9598     0.5941     0.6158     0.0409     0.0000  3233.3333
   5609.5000    11.9441    11.8843  1554.9570   124.0471    -0.0575     0.5925     0.6167    59.9080    91.8059   -56.0997    30.2211   114.0120   357.7141   357.3622     0.1068   102.4546   286.8596     0.1292   289.1465     0.5925     0.6167     0.0408     0.0000  3155.3333
   5610.0000    11.9441    11.8843  1553.6473   124.0471    -0.0463     0.5913     0.6168    59.6618    91.7573   -56.1023    33.5763   114.0161   357.7883   357.4215     0.1068   102.4622   286.2709     0.1338   288.4835     0.5913     0.6168     0.0384     0.0000  3220.2500
   5610.5000    11.9275    11.8764  1567.2686   124.0471    -0.0347     0.5899     0.6157    59.3023    92.0849   -56.1049    42.7498   114.0202   357.9196   357.4557     0.1067   102.4699   285.4518     0.1457   287.5331     0.5899     0.6157     0.0348     0.0000  3278.3333
   5611.0000    11.9606    11.9083  1563.3955   124.0471    -0.0232     0.5890     0.6147    59.4283    92.1224   -56.1076    56.4892   114.0243   358.0149   357.5708     0.1067   102.4777   284.2994     0.1436   286.2853     0.5890     0.6147     0.0361     0.0000  3225.3333
   5611.5000    11.9978    11.8764  1519.9122   124.0471    -0.0116     0.5887     0.6127    59.5092    91.7929   -56.1102    61.3941   114.0284   358.0827   357.6268     0.1067   102.4854   283.7450     0.1375   285.6631     0.5887     0.6127     0.0369     0.0000  3159.0000
   5612.0000    11.9854    11.8843  1498.4513   124.0471    -0.0344     0.5884     0.6103    59.6855    91.7771   -56.1128    53.5277   114.0325   358.1339   357.6568     0.1066   102.4931   283.4653     0.1336   285.3321     0.5884     0.6103     0.0386     0.0000  3171.0000
   5612.5000    11.9854    11.9003  1572.8630   124.0471    -0.0344     0.5895     0.6068    59.7262    92.4360   -56.1154    42.5777   114.0366   358.0937   357.7400     0.1066   102.5008   281.2333     0.1416   283.1403     0.5895     0.6068     0.0390     0.0000  3241.3333
   5613.0000    11.9813    11.8883  1570.7676   124.0471    -0.0456     0.5906     0.6049    60.2237    93.0552   -56.1180    35.1009   114.0407   357.9600   357.6942     0.1066   102.5085   280.0419     0.1396   282.0825     0.5906     0.6049     0.0438     0.0000  3186.0000
   5613.5000    11.9813    11.8923  1563.2047   124.0471    -0.0344     0.5924     0.6006    60.6506    95.1632   -56.1207    35.5638   114.0448   357.7713   357.7719     0.1066   102.5162   279.7957     0.1580   282.0251     0.5924     0.6006     0.0479     0.0000  3175.6667
   5614.0000    11.9854    11.9003  1562.3663   124.0471    -0.0463     0.5940     0.5979    61.1877    93.8589   -56.1233    39.4237   114.0489   357.6077   357.6598     0.1065   102.5237   279.2450     0.1305   281.6379     0.5940     0.5979     0.0530     0.0000  3248.3333
   5614.5000    11.9730    11.8843  1566.5503   124.0471    -0.0344     0.5966     0.5936    62.0091    95.4346   -56.1258    51.0384   114.0530   357.3264   357.6962     0.1065   102.5313   278.2768     0.1347   280.9510     0.5966     0.5936     0.0606     0.0000  3167.3335
   5615.0000    11.9772    11.9243  1573.0164   124.0471    -0.0469     0.5990     0.5907    62.3754    96.6579   -56.1285    62.8226   114.0571   357.1035   357.7263     0.1065   102.5390   277.4186     0.1432   280.3156     0.5990     0.5907     0.0639     0.0000  3163.0000
   5615.5000    11.9854    11.8724  1576.9419   124.0471    -0.0344     0.6019     0.5865    62.6346    97.1306   -56.1311    72.1263   114.0612   356.9985   357.7743     0.1064   102.5467   276.7567     0.1441   279.7587     0.6019     0.5865     0.0662     0.0000  3229.7502
   5616.0000    11.9854    11.8843  1568.4847   124.0471    -0.0456     0.6043     0.5828    63.0241    98.9698   -56.1337    68.5097   114.0653   356.9064   357.9023     0.1064   102.5543   276.0377     0.1589   279.1318     0.6043     0.5828     0.0697     0.0000  3208.0002
   5616.5000    11.9854    11.8684  1565.8654   124.0471    -0.0344     0.6067     0.5790    63.2010    99.3302   -56.1363    65.2160   114.0695   356.8329   358.0355     0.1064   102.5619   275.1659     0.1599   278.3334     0.6067     0.5790     0.0712     0.0000  3226.6667
   5617.0000    11.9854    11.8804  1570.2792   124.0471    -0.0456     0.6099     0.5757    62.9054    99.0703   -56.1390    60.7046   114.0736   356.9351   358.2084     0.1063   102.5695   274.4601     0.1622   277.5255     0.6099     0.5757     0.0686     0.0000  3205.6667
   5617.5000    12.0020    11.8764  1567.9796   124.0471    -0.0572     0.6120     0.5722    62.6070    97.4814   -56.1415    57.2333   114.0777   357.0208   358.3594     0.1063   102.5770   273.6107     0.1490   276.5902     0.6120     0.5722     0.0660     0.0000  3105.6667
   5618.0000    11.9937    11.8764  1564.1646   124.0471    -0.0572     0.6134     0.5705    62.6865    96.9164   -56.1441    45.5799   114.0818   357.1185   358.4671     0.1063   102.5846   272.6573     0.1404   275.5392     0.6134     0.5705     0.0667     0.0000  3264.0000
   5618.5000    11.9978    11.8764  1566.9692   124.0471    -0.0469     0.6149     0.5682    62.2890    97.4008   -56.1467    33.3842   114.0859   357.2294   358.6450     0.1062   102.5921   271.6548     0.1540   274.4257     0.6149     0.5682     0.0631     0.0000  3183.0000
   5619.0000    11.9854    11.8843  1558.2501   124.0471    -0.0688     0.6165     0.5676    62.3269    96.5963   -56.1493    27.3325   114.0900   357.3228   358.7462     0.1062   102.5996   270.7550     0.1434   273.4325     0.6165     0.5676     0.0634     0.0000  3183.6667
   5619.5000    11.9854    11.9003  1547.9780   124.0471    -0.0688     0.6164     0.5668    62.4418    96.3650   -56.1519    27.6567   114.0941   357.3635   358.9872     0.1062   102.6071   269.9854     0.1381   272.6220     0.6164     0.5668     0.0645     0.0000  3220.0000
   5620.0000    11.9813    11.8923  1533.7206   124.0471    -0.0699     0.6168     0.5664    62.5313    96.2146   -56.1545    30.4161   114.0982   357.4297   359.1612     0.1062   102.6148   269.2476     0.1344   271.8180     0.6168     0.5664     0.0653     0.0000  3164.0000
   5620.5000    11.9854    11.8923  1503.4806   124.0471    -0.0688     0.6157     0.5663    62.6082    96.4544   -56.1571    31.3097   114.1023   357.4557   359.2659     0.1061   102.6223   268.8694     0.1360   271.4138     0.6157     0.5663     0.0660     0.0000  3169.0000
