~VERSION INFORMATION
VERS.           1.2   :CWLS Log ASCII Standard - VERSION 1.2
WRAP.           NO    :One Line per depth step
PROD.  Schlumberger   :LAS Producer
PROG.  DLIS to ASCII 2.3                               :LAS Program name and version
CREA.        2015/01/14 20:43                          :LAS Creation date {YYYY/MM/DD hh:mm}
DLIS_CREA.  2015-Jan-14 13:25                          :DLIS Creation date and time {YYYY-MMM-DD hh:mm}
SOURCE.     d5fbb1e7-1f44-4e43-b8fb-7fdeb49dde7f       :DLIS File Name
#--------------------------------------------------
~WELL INFORMATION
#MNEM.UNIT      DATA             DESCRIPTION
#---- ------ --------------   -----------------------------
STRT .F       8.0000         :START DEPTH     
STOP .F      353.0000        :STOP DEPTH     
STEP .F       0.5000         :STEP       
NULL .          -999.25      :NULL VALUE
COMP .                 COMPANY:  ADM Company                        
WELL .                    WELL:  CCS#2                              
FLD  .                   FIELD:  Wildcat                            
LOC  .                LOCATION:  Latitude: 39.885961                
CNTY .                  COUNTY:  Macon                              
STAT .                   STATE:  Illinois                           
CTRY .                 COUNTRY:  USA                                
SRVC .         SERVICE COMPANY:  Schlumberger                       
LATI .DEG             LATITUDE:  39° 53' 9.46" N                    
LONG .DEG            LONGITUDE:  88° 53' 16.959" W                  
API  .              API NUMBER:  12-115-23713-00                    
DATE .                LOG DATE:  12-Jan-2015
UWI  .          UNIQUE WELL ID:                                     
#-----------------------------------------------------------------------------
~PARAMETER INFORMATION
#MNEM.UNIT    VALUE                      DESCRIPTION
#---- -----   --------------------       ------------------------
CN   .        ADM Company                :Company Name
WN   .        CCS#2                      :Well Name
FN   .        Wildcat                    :Field Name
FL   .        Latitude  39.885961        :Field Location
FL1  .        Longitude  -88.888044      :Field Location, Line 1
COUN .        Macon                      :County or Parish
STAT .        Illinois                   :State or Province
NATI .        USA                        :Nation
DATE .        12-Jan-2015                :Tools Above Rotary Table Date
APIN .        12-115-23713-00            :API Well Number
SECT .        32                         :Section
TOWN .        17N                        :Township
RANG .        3E                         :Range
DMF  .        KB                         :Drilling Measured From (Name of Drilling Elevation Reference)
LMF  .        KB                         :Logging Measured From (Name of Logging Elevation Reference)
PDAT .        GL                         :Permanent Datum
ENGI .        Devin Arnold               :Engineer s Name
WITN .        Nick Malkewicz             :Witness s Name
LATI .        39° 53' 9.46  N            :Latitude
LONG .        88° 53' 16.959  W          :Longitude
LUL  .        Bradford                   :Logging Unit Location
LUN  .        3095                       :Logging Unit Number
RUN  .        1                          :Run Number
SON  .        D71E-00006                 :Service Order Number
BHT  .DEGF      58.00000                 :Bottom Hole Temperature
BS   .IN        26.00000                 :Bit Size
MDEN .G/C3       2.71000                 :Matrix Density for Density Porosity
DFD  .LB/G      10.10000                 :Drilling Fluid Density
DFV  .S         60.00000                 :Drilling Fluid Viscosity
DFL  .C3      -999.25000                 :Drilling Fluid Loss
RMFS .OHMM       1.23200                 :Resistivity of Mud Filtrate Sample
EKB  .F        691.19995                 :Elevation of Kelly Bushing
EGL  .F        675.69995                 :Elevation of Ground Level
BLI  .F        342.00000                 :Bottom Log Interval
BSAL .PPM        0.00000                 :Borehole Salinity
FLEV .F          8.00000                 :Depth of Drilling Fluid Level to LMF (Log Measured From)
MCST .DEGF      42.80000                 :Mudcake Sample Temperature
MFST .DEGF      42.80000                 :Mud Filtrate Sample Temperature
MRT  .DEGF      58.00000                 :Maximum Recorded Temperature
MST  .DEGF      42.80000                 :Mud Sample Temperature
RMCS .OHMM       1.84800                 :Resistivity of Mud Cake Sample
RMS  .OHMM       1.54000                 :Resistivity of Mud Sample
RW   .OHMM       1.00000                 :Connate Water Resistivity
TDD  .F        349.00000                 :Driller Total Depth
TDL  .F        349.00000                 :Logger Total Depth
TLI  .F         50.00000                 :Top Log Interval
HIDE .        Wildcat                    :Header Identifier
MATR .        LIME                       :Rock Matrix for Neutron Porosity Corrections
FNUM .           1.00000                 :F-Numerator for Formation Factor Formula
FEXP .           2.00000                 :Exponent "m" for Formation Factor Formula
DFT  .        Fresh Mud                  :Drilling Fluid Type
DFPH .        -999.25000                 :Drilling Fluid pH
MCSS .        Calculated                 :Mudcake Sample Source
MFSS .        Calculated                 :Mud Filtrate Sample Source
FD   .G/C3       1.00000                 :Fluid Density
MSS  .        Active Tank                :Mud Sample Source
OS1  .                                   :Other Services Line 1
OS2  .                                   :Other Services Line 2
OS3  .                                   :Other Services Line 3
OS4  .                                   :Other Services Line 4
OS5  .                                   :Other Services Line 5
R1   .        Matrix Density  Limestone. :Remarks Line 1
R2   .        Mud Sample taken on location. :Remarks Line 2
R3   .        Presentations as per client request. :Remarks Line 3
R4   .        No Chemical Sources ran due to possible potable water zones. :Remarks Line 4
R5   .        Bottom Hole Temperature taken from GM2 temperature log provided by the client. 58degF :Remarks Line 5
R6   .                                   :Remarks Line 6
R7   .                                   :Remarks Line 7
R8   .        APS ran outside max bit size range of 20in causing faulty data. :Remarks Line 8
TCS  .        19 45 00                   :Time Circulation Stopped
TLAB .        01 15 00                   :Time Logger At Bottom
NMT  .        NOBARITE                   :HRDD Mud Type for Nuclear Devices
EPD  .C3         675.699951              :Elevation of Permanent Datum above Mean Sea Level
APD  .F          15.500000               :Elevation of Depth Reference (LMF) above Permanent Datum
#-----------------------------------------------------------------------------
~CURVE INFORMATION
#MNEM.UNIT   API CODE                                  DESCRIPTION
#---- -----  --------                                  -----------------------
DEPT .F                                                :DEPTH (BOREHOLE) {F12.4}
AF10 .OHMM                                             :Array Induction Four Foot Resistivity A10 {F11.4}
AF20 .OHMM                                             :Array Induction Four Foot Resistivity A20 {F11.4}
AF30 .OHMM                                             :Array Induction Four Foot Resistivity A30 {F11.4}
AF60 .OHMM                                             :Array Induction Four Foot Resistivity A60 {F11.4}
AF90 .OHMM                                             :Array Induction Four Foot Resistivity A90 {F11.4}
AO10 .OHMM                                             :Array Induction One Foot Resistivity A10 {F11.4}
AO20 .OHMM                                             :Array Induction One Foot Resistivity A20 {F11.4}
AO30 .OHMM                                             :Array Induction One Foot Resistivity A30 {F11.4}
AO60 .OHMM                                             :Array Induction One Foot Resistivity A60 {F11.4}
AO90 .OHMM                                             :Array Induction One Foot Resistivity A90 {F11.4}
AT10 .OHMM                                             :Array Induction Two Foot Resistivity A10 {F11.4}
AT20 .OHMM                                             :Array Induction Two Foot Resistivity A20 {F11.4}
AT30 .OHMM                                             :Array Induction Two Foot Resistivity A30 {F11.4}
AT60 .OHMM                                             :Array Induction Two Foot Resistivity A60 {F11.4}
AT90 .OHMM                                             :Array Induction Two Foot Resistivity A90 {F11.4}
AFEC .HZ                                               :Far Detector Count Rate {F11.4}
ANEC .HZ                                               :Near Detector Count Rate {F11.4}
AORT .OHMM                                             :Array Induction One Foot Rt {F11.4}
AORX .OHMM                                             :Array Induction One Foot Rxo {F11.4}
APDC .CFCF                                             :Near/Array Corrected Dolomite Porosity {F11.4}
APLC .PU                                               :Near/Array Corrected Limestone Porosity {F11.4}
APSC .CFCF                                             :Near/Array Corrected Sandstone Porosity {F11.4}
CDF  .LBF                                              :Calibrated Downhole Force {F11.4}
CTEM .DEGF                                             :Cartridge Temperature {F11.4}
DCAL .IN                                               :Differential Caliper {F11.4}
ED   .F                                                :East Departure {F11.4}
FPLC .CFCF                                             :Near/Far Corrected Limestone Porosity {F11.4}
GR_EDTC.GAPI                                           :Gamma Ray {F11.4}
GTEM .DEGF                                             :Generalized Borehole Temperature {F11.4}
HASC .CFCF                                             :APS High Resolution Near/Array Corrected Sandstone Porosity {F11.4}
HSIG .CU                                               :APS High Resolution Formation Capture Cross Section {F11.4}
HSTO .IN                                               :APS High Resolution Effective Standoff in Limestone {F11.4}
ND   .F                                                :North Departure {F11.4}
QSGF .                                                 :Quality of Formation Sigma {F11.4}
SIGF .CU                                               :Formation Capture Cross Section {F11.4}
SP   .MV                                               :Spontaneous Potential {F11.4}
SPAR .MV                                               :SP, Armor Return Compensated {F11.4}
STIT .F                                                :Stuck Tool Indicator, Total {F11.4}
STOF .IN                                               :Effective Standoff in Limestone {F11.4}
STPC .CFCF                                             :Corrected Standoff Porosity {F11.4}
TENS .LBF                                              :Cable Tension {F11.4}
#-----------------------------------------------------------------------------
# 
#      DEPT        AF10       AF20       AF30       AF60       AF90       AO10       AO20       AO30       AO60       AO90       AT10       AT20       AT30       AT60       AT90       AFEC       ANEC       AORT       AORX       APDC       APLC       APSC       CDF        CTEM       DCAL        ED        FPLC     GR_EDTC      GTEM       HASC       HSIG       HSTO        ND        QSGF       SIGF        SP        SPAR       STIT       STOF       STPC       TENS
#
~A  
      8.0000     8.8817    14.8733    22.1560    41.0204    41.9873     8.8677    15.1048    21.6647    47.8051    47.4179     8.8794    14.9306    22.2246    40.4829    40.7879   349.2000  2385.6001    51.5400     7.7328     0.9689    96.9287     0.9695   694.9464    90.4471     0.0000     0.2237     1.1110  -999.2500    54.5901  -999.2500  -999.2500  -999.2500    -0.2335     0.2304    26.0559  -999.2500  -999.2500     0.0000     0.0862     0.7918   771.4055
      8.5000     8.8817    14.8733    22.1560    41.0204    41.9873     8.8677    15.1048    21.6647    47.8051    47.4179     8.8794    14.9306    22.2246    40.4829    40.7879   349.2000  2385.6001    51.5400     7.7328     0.9689    96.9287     0.9695   694.9464    90.4471     0.0000     0.2237     1.1110  -999.2500    54.5951  -999.2500  -999.2500  -999.2500    -0.2335     0.2304    26.0559  -999.2500  -999.2500     0.0000     0.0862     0.7918   771.4055
      9.0000     8.8817    14.8733    22.1560    41.0204    41.9873     8.8677    15.1048    21.6647    47.8051    47.4179     8.8794    14.9306    22.2246    40.4829    40.7879   349.2000  2385.6001    51.5400     7.7328     0.9689    96.9287     0.9695   694.9464    90.4471     0.0000     0.2237     1.1110  -999.2500    54.6001  -999.2500  -999.2500  -999.2500    -0.2335     0.2304    26.0559  -999.2500  -999.2500     0.0000     0.0862     0.7918   771.4055
      9.5000     8.8817    14.8733    22.1560    41.0204    41.9873     8.8677    15.1048    21.6647    47.8051    47.4179     8.8794    14.9306    22.2246    40.4829    40.7879   349.2000  2385.6001    51.5400     7.7328     0.9689    96.9287     0.9695   694.9464    90.4471     0.0000     0.2237     1.1110  -999.2500    54.6051  -999.2500  -999.2500  -999.2500    -0.2335     0.2304    26.0559  -999.2500  -999.2500     0.0000     0.0862     0.7918   771.4055
     10.0000     8.8817    14.8733    22.1560    41.0204    41.9873     8.8677    15.1048    21.6647    47.8051    47.4179     8.8794    14.9306    22.2246    40.4829    40.7879   349.2000  2385.6001    51.5400     7.7328     0.9689    96.9287     0.9695   694.9464    90.4471     0.0000     0.2237     1.1110  -999.2500    54.6101  -999.2500  -999.2500  -999.2500    -0.2335     0.2304    26.0559  -999.2500  -999.2500     0.0000     0.0862     0.7918   771.4055
     10.5000     8.8817    14.8733    22.1560    41.0204    41.9873     8.8677    15.1048    21.6647    47.8051    47.4179     8.8794    14.9306    22.2246    40.4829    40.7879   349.2000  2385.6001    51.5400     7.7328     0.9689    96.9287     0.9695   694.9464    90.4471     0.0000     0.2237     1.1110  -999.2500    54.6151  -999.2500  -999.2500  -999.2500    -0.2335     0.2304    26.0559  -999.2500  -999.2500     0.0000     0.0862     0.7918   771.4055
     11.0000     8.8817    14.8733    22.1560    41.0204    41.9873     8.8677    15.1048    21.6647    47.8051    47.4179     8.8794    14.9306    22.2246    40.4829    40.7879   349.2000  2385.6001    51.5400     7.7328     0.9689    96.9287     0.9695   694.9464    90.4471     0.0000     0.2237     1.1110  -999.2500    54.6201  -999.2500  -999.2500  -999.2500    -0.2335     0.2304    26.0559  -999.2500  -999.2500     0.0000     0.0862     0.7918   771.4055
     11.5000     8.8817    14.8733    22.1560    41.0204    41.9873     8.8677    15.1048    21.6647    47.8051    47.4179     8.8794    14.9306    22.2246    40.4829    40.7879   349.2000  2385.6001    51.5400     7.7328     0.9689    96.9287     0.9695   694.9464    90.4471     0.0000     0.2237     1.1110  -999.2500    54.6251  -999.2500  -999.2500  -999.2500    -0.2335     0.2304    26.0559  -999.2500  -999.2500     0.0000     0.0862     0.7918   771.4055
     12.0000     8.8817    14.8733    22.1560    41.0204    41.9873     8.8677    15.1048    21.6647    47.8051    47.4179     8.8794    14.9306    22.2246    40.4829    40.7879   349.2000  2385.6001    51.5400     7.7328     0.9689    96.9287     0.9695   694.9464    90.4471     0.0000     0.2237     1.1110  -999.2500    54.6301  -999.2500  -999.2500  -999.2500    -0.2335     0.2304    26.0559  -999.2500  -999.2500     0.0000     0.0862     0.7918   771.4055
     12.5000     8.8817    14.8733    22.1560    41.0204    41.9873     8.8677    15.1048    21.6647    47.8051    47.4179     8.8794    14.9306    22.2246    40.4829    40.7879   349.2000  2385.6001    51.5400     7.7328     0.9689    96.9287     0.9695   694.9464    90.4471     0.0000     0.2237     1.1110  -999.2500    54.6351  -999.2500  -999.2500  -999.2500    -0.2335     0.2304    26.0559  -999.2500  -999.2500     0.0000     0.0862     0.7918   771.4055
     13.0000     8.8817    14.8733    22.1560    41.0204    41.9873     8.8677    15.1048    21.6647    47.8051    47.4179     8.8794    14.9306    22.2246    40.4829    40.7879   349.2000  2385.6001    51.5400     7.7328     0.9689    96.9287     0.9695   694.9464    90.4471     0.0000     0.2237     1.1110  -999.2500    54.6401  -999.2500  -999.2500  -999.2500    -0.2335     0.2304    26.0559  -999.2500  -999.2500     0.0000     0.0862     0.7918   771.4055
     13.5000     8.8817    14.8733    22.1560    41.0204    41.9873     8.8677    15.1048    21.6647    47.8051    47.4179     8.8794    14.9306    22.2246    40.4829    40.7879   349.2000  2385.6001    51.5400     7.7328     0.9689    96.9287     0.9695   694.9464    90.4471     0.0000     0.2237     1.1110  -999.2500    54.6451  -999.2500  -999.2500  -999.2500    -0.2335     0.2304    26.0559  -999.2500  -999.2500     0.0000     0.0862     0.7918   771.4055
     14.0000     8.8817    14.8733    22.1560    41.0204    41.9873     8.8677    15.1048    21.6647    47.8051    47.4179     8.8794    14.9306    22.2246    40.4829    40.7879   349.2000  2385.6001    51.5400     7.7328     0.9689    96.9287     0.9695   694.9464    90.4471     0.0000     0.2237     1.1110  -999.2500    54.6501  -999.2500  -999.2500  -999.2500    -0.2335     0.2304    26.0559  -999.2500  -999.2500     0.0000     0.0862     0.7918   771.4055
     14.5000     8.8817    14.8733    22.1560    41.0204    41.9873     8.8677    15.1048    21.6647    47.8051    47.4179     8.8794    14.9306    22.2246    40.4829    40.7879   349.2000  2385.6001    51.5400     7.7328     0.9689    96.9287     0.9695   694.9464    90.4471     0.0000     0.2237     1.1110  -999.2500    54.6551  -999.2500  -999.2500  -999.2500    -0.2335     0.2304    26.0559  -999.2500  -999.2500     0.0000     0.0862     0.7918   771.4055
     15.0000     8.8817    14.8733    22.1560    41.0204    41.9873     8.8677    15.1048    21.6647    47.8051    47.4179     8.8794    14.9306    22.2246    40.4829    40.7879   349.2000  2385.6001    51.5400     7.7328     0.9689    96.9287     0.9695   694.9464    90.4471     0.0000     0.2237     1.1110  -999.2500    54.6601  -999.2500  -999.2500  -999.2500    -0.2335     0.2304    26.0559  -999.2500  -999.2500     0.0000     0.0862     0.7918   771.4055
     15.5000     8.8817    14.8733    22.1560    41.0204    41.9873     8.8677    15.1048    21.6647    47.8051    47.4179     8.8794    14.9306    22.2246    40.4829    40.7879   349.2000  2385.6001    51.5400     7.7328     0.9689    96.9287     0.9695   694.9464    90.4471     0.0000     0.2237     1.1110  -999.2500    54.6651  -999.2500  -999.2500  -999.2500    -0.2335     0.2304    26.0559  -999.2500  -999.2500     0.0000     0.0862     0.7918   771.4055
     16.0000     8.8817    14.8733    22.1560    41.0204    41.9873     8.8677    15.1048    21.6647    47.8051    47.4179     8.8794    14.9306    22.2246    40.4829    40.7879   349.2000  2385.6001    51.5400     7.7328     0.9689    96.9287     0.9695   694.9464    90.4471     0.0000     0.2237     1.1110    33.7044    54.6701  -999.2500  -999.2500  -999.2500    -0.2335     0.2304    26.0559  -999.2500  -999.2500     0.0000     0.0862     0.7918   771.4055
     16.5000     8.8817    14.8733    22.1560    41.0204    41.9873     8.8677    15.1048    21.6647    47.8051    47.4179     8.8794    14.9306    22.2246    40.4829    40.7879   349.2000  2385.6001    51.5400     7.7328     0.9689    96.9287     0.9695   694.9464    90.4471     0.0000     0.2237     1.1110    31.4717    54.6751  -999.2500  -999.2500  -999.2500    -0.2335     0.2304    26.0559  -999.2500  -999.2500     0.0000     0.0862     0.7918   771.4055
