~VERSION INFORMATION
VERS.           1.2   :CWLS Log ASCII Standard - VERSION 1.2
WRAP.           NO    :One Line per depth step
PROD.  Schlumberger   :LAS Producer
PROG.  DLIS to ASCII 2.3                               :LAS Program name and version
CREA.        2015/01/14 20:42                          :LAS Creation date {YYYY/MM/DD hh:mm}
DLIS_CREA.  2015-Jan-14 13:26                          :DLIS Creation date and time {YYYY-MMM-DD hh:mm}
SOURCE.     b1232dd5-b707-4891-82b9-d24dcc6cb5d4       :DLIS File Name
#--------------------------------------------------
~WELL INFORMATION
#MNEM.UNIT      DATA             DESCRIPTION
#---- ------ --------------   -----------------------------
STRT .F      -8.0000         :START DEPTH     
STOP .F      352.5000        :STOP DEPTH     
STEP .F       0.5000         :STEP       
NULL .          -999.25      :NULL VALUE
COMP .                 COMPANY:  ADM Company                        
WELL .                    WELL:  CCS#2                              
FLD  .                   FIELD:  Wildcat                            
LOC  .                LOCATION:  Latitude: 39.885961                
CNTY .                  COUNTY:  Macon                              
STAT .                   STATE:  Illinois                           
CTRY .                 COUNTRY:  USA                                
SRVC .         SERVICE COMPANY:  Schlumberger                       
LATI .DEG             LATITUDE:  39° 53' 9.46" N                    
LONG .DEG            LONGITUDE:  88° 53' 16.959" W                  
API  .              API NUMBER:  12-115-23713-00                    
DATE .                LOG DATE:  13-Jan-2015
UWI  .          UNIQUE WELL ID:                                     
#-----------------------------------------------------------------------------
~PARAMETER INFORMATION
#MNEM.UNIT    VALUE                      DESCRIPTION
#---- -----   --------------------       ------------------------
CN   .        ADM Company                :Company Name
WN   .        CCS#2                      :Well Name
FN   .        Wildcat                    :Field Name
FL   .        Latitude  39.885961        :Field Location
FL1  .        Longitude  -88.888044      :Field Location, Line 1
COUN .        Macon                      :County or Parish
STAT .        Illinois                   :State or Province
NATI .        USA                        :Nation
DATE .        13-Jan-2015                :Tools Above Rotary Table Date
APIN .        12-115-23713-00            :API Well Number
SECT .        32                         :Section
TOWN .        17N                        :Township
RANG .        3E                         :Range
DMF  .        KB                         :Drilling Measured From (Name of Drilling Elevation Reference)
LMF  .        KB                         :Logging Measured From (Name of Logging Elevation Reference)
PDAT .        GL                         :Permanent Datum
ENGI .        Devin Arnold               :Engineer s Name
WITN .        Nick Malkewicz             :Witness s Name
LATI .        39° 53' 9.46  N            :Latitude
LONG .        88° 53' 16.959  W          :Longitude
LUL  .        Bradford                   :Logging Unit Location
LUN  .        3095                       :Logging Unit Number
RUN  .        2                          :Run Number
SON  .        D71E-00006                 :Service Order Number
BHT  .DEGF      58.00000                 :Bottom Hole Temperature
BS   .IN        26.00000                 :Bit Size
MDEN .G/C3       2.71000                 :Matrix Density for Density Porosity
DFD  .LB/G      10.10000                 :Drilling Fluid Density
DFV  .S       -999.25000                 :Drilling Fluid Viscosity
DFL  .C3      -999.25000                 :Drilling Fluid Loss
RMFS .OHMM       1.23200                 :Resistivity of Mud Filtrate Sample
EKB  .F        691.19995                 :Elevation of Kelly Bushing
EGL  .F        675.69995                 :Elevation of Ground Level
BLI  .F        345.00000                 :Bottom Log Interval
BSAL .PPM        0.00000                 :Borehole Salinity
FLEV .F          8.00000                 :Depth of Drilling Fluid Level to LMF (Log Measured From)
MCST .DEGF      42.80000                 :Mudcake Sample Temperature
MFST .DEGF      42.80000                 :Mud Filtrate Sample Temperature
MRT  .DEGF      58.00000                 :Maximum Recorded Temperature
MST  .DEGF      42.80000                 :Mud Sample Temperature
RMCS .OHMM       1.84800                 :Resistivity of Mud Cake Sample
RMS  .OHMM       1.54000                 :Resistivity of Mud Sample
RW   .OHMM       1.00000                 :Connate Water Resistivity
TDD  .F        349.00000                 :Driller Total Depth
TDL  .F        349.00000                 :Logger Total Depth
TLI  .F         50.00000                 :Top Log Interval
HIDE .        Wildcat                    :Header Identifier
MATR .        LIME                       :Rock Matrix for Neutron Porosity Corrections
FNUM .           1.00000                 :F-Numerator for Formation Factor Formula
FEXP .           2.00000                 :Exponent "m" for Formation Factor Formula
DFT  .        Fresh Mud                  :Drilling Fluid Type
DFPH .        -999.25000                 :Drilling Fluid pH
MCSS .        Calculated                 :Mudcake Sample Source
MFSS .        Calculated                 :Mud Filtrate Sample Source
FD   .G/C3       1.00000                 :Fluid Density
MSS  .        Active Tank                :Mud Sample Source
OS1  .                                   :Other Services Line 1
OS2  .                                   :Other Services Line 2
OS3  .                                   :Other Services Line 3
OS4  .                                   :Other Services Line 4
OS5  .                                   :Other Services Line 5
R1   .        Matrix Density  Limestone. :Remarks Line 1
R2   .        Mud Sample taken on location. :Remarks Line 2
R3   .        Presentations as per client request. :Remarks Line 3
R4   .        No Chemical Sources ran due to possible potable water zones. :Remarks Line 4
R5   .        Bottom Hole Temperature taken from GM2 temperature log provided by the client. 58degF :Remarks Line 5
R6   .                                   :Remarks Line 6
R7   .                                   :Remarks Line 7
R8   .                                   :Remarks Line 8
TCS  .        19 45 00                   :Time Circulation Stopped
TLAB .        03 30 00                   :Time Logger At Bottom
EPD  .C3         675.699951              :Elevation of Permanent Datum above Mean Sea Level
APD  .F          15.500000               :Elevation of Depth Reference (LMF) above Permanent Datum
#-----------------------------------------------------------------------------
~CURVE INFORMATION
#MNEM.UNIT   API CODE                                  DESCRIPTION
#---- -----  --------                                  -----------------------
DEPT .F                                                :DEPTH (BOREHOLE) {F12.4}
CDF  .LBF                                              :Calibrated Downhole Force {F11.4}
CTEM .DEGF                                             :Cartridge Temperature {F11.4}
DCAL .IN                                               :Differential Caliper {F11.4}
DT   .US/F                                             :Delta-T (also called Slowness or Interval Transit Time) {F11.4}
ED   .F                                                :East Departure {F11.4}
GR_EDTC.GAPI                                           :Gamma Ray {F11.4}
GTEM .DEGF                                             :Generalized Borehole Temperature {F11.4}
HAZI .DEG                                              :Hole Azimuth Relative to True North {F11.4}
HAZIM.DEG                                              :Memorized Hole Azimuth {F11.4}
ITT  .S                                                :Integrated Transit Time {F11.4}
ND   .F                                                :North Departure {F11.4}
P1AZ .DEG                                              :Pad 1 Azimuth in Horizontal Plane (0 = True North) {F11.4}
RB   .DEG                                              :Relative Bearing {F11.4}
SDEV .DEG                                              :Sonde Deviation {F11.4}
SDEVM.DEG                                              :Memorized Sonde Deviation {F11.4}
SPHI .CFCF                                             :Sonic Porosity {F11.4}
STIT .F                                                :Stuck Tool Indicator, Total {F11.4}
TENS .LBF                                              :Cable Tension {F11.4}
#-----------------------------------------------------------------------------
# 
#      DEPT        CDF        CTEM       DCAL        DT         ED      GR_EDTC      GTEM       HAZI      HAZIM       ITT         ND        P1AZ        RB        SDEV      SDEVM       SPHI       STIT       TENS
#
~A  
# ...
    182.0000   656.1819    74.6353    -5.5711    57.5296    -0.1049    39.1708    56.3300   230.0563   188.4521     0.0187     0.2333   181.8804   311.8507     2.4679     2.4786     0.0115     0.0000   901.1429
    182.5000   659.7319    74.6353    -5.5982    60.3318    -0.1083    41.3455    56.3350   229.5750   187.9839     0.0187     0.2309   181.3703   311.8218     2.4685     2.4783     0.0326     0.0000   915.8667
    183.0000   656.2293    74.6353    -5.5713    61.4279    -0.1117    41.8879    56.3400   228.9472   187.6481     0.0187     0.2284   180.6078   311.6871     2.4691     2.4781     0.0408     0.0000   877.5715
    183.5000   656.2293    74.6353    -5.5713    60.2336    -0.1149    41.8897    56.3450   228.3251   187.2172     0.0187     0.2260   180.0876   311.7887     2.4699     2.4776     0.0318     0.0000   870.7143
    184.0000   654.1454    74.6353    -5.5982    59.4482    -0.1181    41.5069    56.3500   227.7086   186.8060     0.0186     0.2235   179.6832   312.0013     2.4708     2.4772     0.0259     0.0000   873.6667
    184.5000   657.2247    74.6353    -5.5982    67.4331    -0.1213    45.1911    56.3550   227.2482   186.5122     0.0186     0.2208   179.3295   312.1080     2.4715     2.4772     0.0860     0.0000   850.3572
    185.0000   656.5832    74.6353    -5.5696    83.2836    -0.1244    53.1720    56.3600   226.6359   186.1347     0.0186     0.2182   178.7083   312.0990     2.4722     2.4768     0.2051     0.0000   849.0714
    185.5000   655.6132    74.6353    -5.5982   101.2724    -0.1275    59.1200    56.3650   226.0282   185.7666     0.0185     0.2155   177.9665   311.9650     2.4730     2.4768     0.3404     0.0000   856.4667
    186.0000   653.7645    74.3529    -5.5982   114.1423    -0.1306    61.8734    56.3700   225.4196   185.4140     0.0185     0.2127   177.2219   311.8289     2.4738     2.4768     0.4372     0.0000   888.5715
    186.5000   654.2859    73.9765    -5.5711   117.3691    -0.1336    58.5473    56.3750   224.9644   185.1441     0.0184     0.2099   176.8071   311.8693     2.4744     2.4764     0.4614     0.0000   881.5000
    187.0000   657.2941    73.5059    -5.5980   114.5499    -0.1365    58.6987    56.3800   224.3646   184.7966     0.0184     0.2071   176.2446   311.9065     2.4752     2.4763     0.4402     0.0000   885.8572
    187.5000   655.2814    73.7129    -5.5694   104.2035    -0.1394    61.0156    56.3850   223.7728   184.4492     0.0183     0.2041   175.6137   311.8678     2.4758     2.4757     0.3624     0.0000   879.8667
    188.0000   655.1866    73.7129    -5.5982   116.9664    -0.1423    68.6952    56.3900   223.3322   184.0993     0.0182     0.2011   175.1862   311.8809     2.4762     2.4750     0.4584     0.0000   863.2857
    188.5000   654.2859    73.6471    -5.5696   124.2022    -0.1451    69.4482    56.3950   222.7456   183.8347     0.0182     0.1981   174.6581   311.9393     2.4768     2.4747     0.5128     0.0000   922.0000
    189.0000   658.0305    73.7129    -5.5980   128.4283    -0.1479    70.5056    56.4000   222.1553   183.4771     0.0181     0.1950   174.1226   311.9940     2.4771     2.4738     0.5446     0.0000   888.7333
    189.5000   655.8975    73.5059    -5.6249   134.1778    -0.1507    69.8510    56.4050   221.5562   183.1058     0.0181     0.1918   173.5226   311.9930     2.4773     2.4730     0.5878     0.0000   864.7857
    190.0000   658.0051    73.1859    -5.5980   131.2878    -0.1534    76.9302    56.4100   221.0978   182.8148     0.0180     0.1886   173.0146   311.9435     2.4776     2.4722     0.5661     0.0000   863.5001
    190.5000   656.6085    72.6588    -5.5980   132.3265    -0.1560    83.0722    56.4150   220.4647   182.4092     0.0179     0.1854   172.4211   311.9830     2.4777     2.4714     0.5739     0.0000   886.8572
    191.0000   657.8883    72.7906    -5.5427   134.1671    -0.1586    82.4644    56.4200   219.8005   181.9718     0.0179     0.1821   171.8709   312.0971     2.4779     2.4705     0.5877     0.0000   843.3571
    191.5000   657.8883    72.6588    -5.5980   136.1633    -0.1612    79.6545    56.4250   219.2812   181.4874     0.0178     0.1787   171.4622   312.2078     2.4782     2.4694     0.6027     0.0000   879.9333
    192.0000   655.2373    72.6588    -5.5711   -58.9328    -0.1638    71.7645    56.4300   218.5539   181.0990     0.0000     0.1752   170.7567   312.2294     2.4784     2.4685     0.6018     0.0000   845.0715
    192.5000   655.9212    72.6588    -5.5980   -57.4072    -0.1662    66.7413    56.4350   217.7934   180.5382     0.0000     0.1718   169.8991   312.1323     2.4789     2.4671  -999.2500     0.0000   909.3572
    193.0000   656.2531    72.6588    -5.5983   -57.2380    -0.1687    65.4801    56.4400   217.0010   179.9392     0.0000     0.1683   168.9492   311.9750     2.4795     2.4661  -999.2500     0.0000   892.7333
    193.5000   658.5519    72.6588    -5.6249   -56.8742    -0.1711    66.2987    56.4450   216.3819   179.4625     0.0000     0.1646   168.3446   311.9896     2.4796     2.4648  -999.2500     0.0000   878.0000
    194.0000   655.1865    72.6588    -5.6252   -57.3108    -0.1734    66.9371    56.4500   215.5426   178.8038     0.0000     0.1610   167.4942   311.9783     2.4802     2.4639  -999.2500     0.0000   877.1429
    194.5000   656.8929    72.6588    -5.6807   -57.4891    -0.1757    61.8413    56.4550   214.6910   178.1147     0.0000     0.1574   166.6709   312.0067     2.4806     2.4628  -999.2500     0.0000   875.3572
    195.0000   655.1865    72.6588    -5.6518   -60.5328    -0.1779    58.8303    56.4600   214.0480   177.3992     0.0000     0.1537   165.9079   311.8865     2.4810     2.4618  -999.2500     0.0000   922.8572
    195.5000   659.3510    72.6588    -5.6521   -58.8421    -0.1802    59.2257    56.4650   213.1979   176.8566     0.0000     0.1498   165.0370   311.8658     2.4815     2.4610  -999.2500     0.0000   863.5334
    196.0000   655.2339    72.6588    -5.7077   -59.3695    -0.1824    62.7059    56.4700   212.3596   176.1062     0.0000     0.1459   164.1535   311.8207     2.4821     2.4600  -999.2500     0.0000   857.3572
    196.5000   655.8975    72.6588    -5.6791   -59.7425    -0.1845    66.2587    56.4750   211.7386   175.3534     0.0000     0.1421   163.4845   311.7726     2.4823     2.4589  -999.2500     0.0000   895.7857
    197.0000   655.2339    72.6588    -5.6791   134.8616    -0.1865    65.3809    56.4800   210.9329   174.5972     0.0177     0.1382   162.7397   311.8335     2.4828     2.4577     0.5929     0.0000   892.6429
    197.5000   658.0051    72.6588    -5.6505   127.2151    -0.1885    62.1815    56.4850   210.1484   174.0109     0.0177     0.1341   161.9469   311.8253     2.4831     2.4570     0.5355     0.0000   851.2667
    198.0000   656.2293    72.6588    -5.6791   117.3621    -0.1905    57.0770    56.4900   209.3846   173.2449     0.0176     0.1301   161.2006   311.8426     2.4833     2.4560     0.4614     0.0000   883.5000
    198.5000   656.9387    72.6588    -5.6791   112.8369    -0.1924    54.5533    56.4950   208.8206   172.4705     0.0175     0.1262   160.6557   311.8617     2.4835     2.4551     0.4273     0.0000   866.4286
    199.0000   657.5092    72.6588    -5.6791   112.2072    -0.1942    53.4476    56.5000   208.0862   171.8875     0.0175     0.1222   159.9559   311.8964     2.4835     2.4547     0.4226     0.0000   890.8000
    199.5000   655.2576    72.6588    -5.6791   113.9365    -0.1959    55.0004    56.5050   207.3641   171.1118     0.0174     0.1182   159.2343   311.8968     2.4838     2.4541     0.4356     0.0000   882.5000
    200.0000   658.0051    72.6588    -5.7331   119.2162    -0.1975    61.5325    56.5100   206.6420   170.3436     0.0174     0.1143   158.5720   311.9568     2.4836     2.4538     0.4753     0.0000   853.7143
    200.5000   657.5566    72.6588    -5.8682   119.4290    -0.1990    64.9861    56.5150   206.0982   169.5941     0.0173     0.1104   158.0755   312.0041     2.4837     2.4537     0.4769     0.0000   875.5000
