~VERSION INFORMATION
VERS.           1.2   :CWLS Log ASCII Standard - VERSION 1.2
WRAP.           NO    :One Line per depth step
PROD.  Schlumberger   :LAS Producer
PROG.  DLIS to ASCII 2.3                               :LAS Program name and version
CREA.        2015/05/30 05:44                          :LAS Creation date {YYYY/MM/DD hh:mm}
DLIS_CREA.  2015-May-29 22:59                          :DLIS Creation date and time {YYYY-MMM-DD hh:mm}
SOURCE.     3feb4549-4107-45e4-8f62-928498d876c9       :DLIS File Name
#--------------------------------------------------
~WELL INFORMATION
#MNEM.UNIT      DATA             DESCRIPTION
#---- ------ --------------   -----------------------------
STRT .F      5218.5000       :START DEPTH     
STOP .F      7211.0000       :STOP DEPTH     
STEP .F       0.5000         :STEP       
NULL .          -999.25      :NULL VALUE
COMP .                 COMPANY:  ADM COMPANY                        
WELL .                    WELL:  CCS#2                              
FLD  .                   FIELD:  WILDCAT                            
LOC  .                LOCATION:  LAT 39.885961                      
CNTY .                  COUNTY:  MACON                              
STAT .                   STATE:  ILLINOIS                           
CTRY .                 COUNTRY:  USA                                
SRVC .         SERVICE COMPANY:  Schlumberger                       
LATI .DEG             LATITUDE:  39.885961 degrees                  
LONG .DEG            LONGITUDE:  -88.888044 degrees                 
API  .              API NUMBER:  12-115-23713-00                    
DATE .                LOG DATE:  29-May-2015
UWI  .          UNIQUE WELL ID:  12-115-23713-00                    
#-----------------------------------------------------------------------------
~PARAMETER INFORMATION
#MNEM.UNIT    VALUE                      DESCRIPTION
#---- -----   --------------------       ------------------------
CN   .        ADM COMPANY                :Company Name
WN   .        CCS#2                      :Well Name
FN   .        WILDCAT                    :Field Name
FL   .        LAT 39.885961              :Field Location
FL1  .        LONG 39.885961             :Field Location, Line 1
COUN .        MACON                      :County or Parish
STAT .        ILLINOIS                   :State or Province
NATI .        USA                        :Nation
DATE .        29-May-2015                :Tools Above Rotary Table Date
APIN .        12-115-23713-00            :API Well Number
SECT .        32                         :Section
TOWN .        17N                        :Township
RANG .        3E                         :Range
DMF  .        KB                         :Drilling Measured From (Name of Drilling Elevation Reference)
LMF  .        KB                         :Logging Measured From (Name of Logging Elevation Reference)
PDAT .        GL                         :Permanent Datum
ENGI .        H. DIMITROV / M. MOHAMMED  :Engineer s Name
WITN .        NICK MALKEWICZ             :Witness s Name
LATI .        39.885961 degrees          :Latitude
LONG .        -88.888044 degrees         :Longitude
LUL  .        BRADFORD                   :Logging Unit Location
LUN  .        3003                       :Logging Unit Number
RUN  .        Run 3C                     :Run Number
SON  .                                   :Service Order Number
BHT  .DEGF     127.00000                 :Bottom Hole Temperature
BS   .IN        12.25000                 :Bit Size
DFD  .LB/G       9.20000                 :Drilling Fluid Density
DFV  .S         66.00000                 :Drilling Fluid Viscosity
DFL  .C3         7.60000                 :Drilling Fluid Loss
RMFS .OHMM       0.17000                 :Resistivity of Mud Filtrate Sample
EKB  .F        691.19995                 :Elevation of Kelly Bushing
EGL  .F        675.69995                 :Elevation of Ground Level
BLI  .F       7192.00000                 :Bottom Log Interval
BSAL .PPM     15100.00000                :Borehole Salinity
FLEV .F          8.00000                 :Depth of Drilling Fluid Level to LMF (Log Measured From)
MCST .DEGF      72.50000                 :Mudcake Sample Temperature
MFST .DEGF      72.50000                 :Mud Filtrate Sample Temperature
MRT  .DEGF     127.00000                 :Maximum Recorded Temperature
MST  .DEGF      72.50000                 :Mud Sample Temperature
RMCS .OHMM       0.14000                 :Resistivity of Mud Cake Sample
RMS  .OHMM       0.20000                 :Resistivity of Mud Sample
RW   .OHMM       1.00000                 :Connate Water Resistivity
TDD  .F       7193.00049                 :Driller Total Depth
TDL  .F       7193.00049                 :Logger Total Depth
TLI  .F       5240.00000                 :Top Log Interval
HIDE .        WILDCAT                    :Header Identifier
MATR .        SAND                       :Rock Matrix for Neutron Porosity Corrections
FNUM .           1.00000                 :F-Numerator for Formation Factor Formula
FEXP .           2.00000                 :Exponent "m" for Formation Factor Formula
DFT  .        Fresh Water                :Drilling Fluid Type
DFPH .          11.50000                 :Drilling Fluid pH
MCSS .        Calculated                 :Mudcake Sample Source
MFSS .        Calculated                 :Mud Filtrate Sample Source
FD   .LB/G       8.34540                 :Fluid Density
MSS  .        Active Tank                :Mud Sample Source
OS1  .                                   :Other Services Line 1
OS2  .                                   :Other Services Line 2
OS3  .                                   :Other Services Line 3
OS4  .                                   :Other Services Line 4
OS5  .                                   :Other Services Line 5
R1   .        THANKS FOR CHOOSING SCHLUMBERGER!!! :Remarks Line 1
R2   .        All WELL PROPERTIES PROVIDED BY CLIENT :Remarks Line 2
R3   .        ALL SCALES ON PRESENTATIONS AS PER

CLIENT REQUEST :Remarks Line 3
R4   .        MATRIX  SANDSTONE          :Remarks Line 4
R5   .        MATRIX DENSITY  2.65 G/CC  :Remarks Line 5
R6   .        ALL LOGGING INTERVALS AS PER CLIENT REQUEST :Remarks Line 6
R7   .        MRT = 127 DEGF FROM THE THERMOMETER :Remarks Line 7
R8   .                                   :Remarks Line 8
TCS  .        20 00 00                   :Time Circulation Stopped
TLAB .        14 31 00                   :Time Logger At Bottom
EPD  .C3         675.699951              :Elevation of Permanent Datum above Mean Sea Level
APD  .F          15.500000               :Elevation of Depth Reference (LMF) above Permanent Datum
#-----------------------------------------------------------------------------
~CURVE INFORMATION
#MNEM.UNIT   API CODE                                  DESCRIPTION
#---- -----  --------                                  -----------------------
DEPT .F                                                :DEPTH (BOREHOLE) {F12.4}
BFV  .CFCF                                             :Bound Fluid Volume {F11.4}
CBP1 .CFCF                                             :CMR Bin Porosity 1 {F11.4}
CBP2 .CFCF                                             :CMR Bin Porosity 2 {F11.4}
CBP3 .CFCF                                             :CMR Bin Porosity 3 {F11.4}
CBP4 .CFCF                                             :CMR Bin Porosity 4 {F11.4}
CBP5 .CFCF                                             :CMR Bin Porosity 5 {F11.4}
CBP6 .CFCF                                             :CMR Bin Porosity 6 {F11.4}
CBP7 .CFCF                                             :CMR Bin Porosity 7 {F11.4}
CBP8 .CFCF                                             :CMR Bin Porosity 8 {F11.4}
CDF  .LBF                                              :Calibrated Downhole Force {F11.4}
CMFF .CFCF                                             :CMR Free Fluid {F11.4}
CMFF_SIG.CFCF                                          :Standard Deviation of CMR Free Fluid {F11.4}
CMR_PHI_CONV.                                          :CMR Porosity Conversion factor {F11.4}
CMRP_3MS.CFCF                                          :CMR Porosity with T2 values greater than 3 ms {F11.4}
CTEM .DEGF                                             :Cartridge Temperature {F11.4}
DCAL .IN                                               :Differential Caliper {F11.4}
ED   .F                                                :East Departure {F11.4}
GR_EDTC.GAPI                                           :Gamma Ray {F11.4}
GTEM .DEGF                                             :Generalized Borehole Temperature {F11.4}
HCGR .GAPI                                             :HNGS Computed Gamma Ray {F11.4}
HFK  .%                                                :HNGS Formation Potassium Concentration {F11.4}
HSGR .GAPI                                             :HNGS Standard Gamma-Ray {F11.4}
HTHO .PPM                                              :HNGS Formation Thorium Concentration {F11.4}
HURA .PPM                                              :HNGS Formation Uranium Concentration {F11.4}
KSDR .MD                                               :SDR Permeability {F11.4}
KTIM .MD                                               :Timur/Coates Permeability {F11.4}
ND   .F                                                :North Departure {F11.4}
STIT .F                                                :Stuck Tool Indicator, Total {F11.4}
T2LM .MS                                               :T2 Logarithmic Mean {F11.4}
T2LM_SIG.MS                                            :Standard Deviation of T2 Logarithmic Mean {F11.4}
TCMR .CFCF                                             :Total CMR Porosity {F11.4}
TENS .LBF                                              :Cable Tension {F11.4}
#-----------------------------------------------------------------------------
# 
#      DEPT        BFV        CBP1       CBP2       CBP3       CBP4       CBP5       CBP6       CBP7       CBP8       CDF        CMFF     CMFF_SIG  CMR_PHI_CO  CMRP_3MS     CTEM       DCAL        ED      GR_EDTC      GTEM       HCGR       HFK        HSGR       HTHO       HURA       KSDR       KTIM        ND        STIT       T2LM     T2LM_SIG     TCMR       TENS
#                                                                                                                                                   NV
~A  
# ...
   5614.5000     0.0219     0.0046     0.0000     0.0007     0.0165     0.0250     0.0310     0.0211     0.0015  1246.2882     0.0786     0.0035     0.0006     0.0959   122.0706     0.0000    -1.0845    38.7640   114.0621    36.6761     1.3625    40.5747     3.7793     0.5364     3.1919    13.4486    38.7960     0.0000    88.7994  -999.2500     0.1006  2700.0000
   5615.0000     0.0224     0.0055     0.0000     0.0021     0.0147     0.0355     0.0352     0.0135     0.0017  1246.7837     0.0859     0.0036     0.0006     0.1027   122.0706     0.0000    -1.0847    51.7910   114.0662    48.3428     1.7671    54.6463     5.1505     0.8414     2.9427    20.2124    38.8012     0.0000    73.2235  -999.2500     0.1082  2728.8000
   5615.5000     0.0207     0.0019     0.0012     0.0056     0.0120     0.0403     0.0423     0.0145     0.0004  1227.4111     0.0975     0.0036     0.0006     0.1151   122.0706     0.0000    -1.0849    65.6894   114.0703    61.3492     2.2350    69.7036     6.5807     1.0470     5.2053    45.7312    38.8064     0.0000    80.5989  -999.2500     0.1182  2664.3000
   5616.0000     0.0208     0.0005     0.0007     0.0074     0.0123     0.0367     0.0499     0.0182     0.0001  1216.6492     0.1049     0.0036     0.0006     0.1246   122.0706     0.0000    -1.0851    71.5459   114.0744    68.1022     2.4939    77.4834     7.2302     1.1500     8.7220    64.3638    38.8116     0.0000    91.8614  -999.2500     0.1257  2606.5000
   5616.5000     0.0218     0.0001     0.0001     0.0079     0.0137     0.0292     0.0540     0.0223     0.0000  1208.8690     0.1055     0.0036     0.0006     0.1271   122.0706     0.0000    -1.0853    69.4797   114.0785    66.0335     2.3960    75.7788     7.1403     1.1906    10.8684    62.7575    38.8167     0.0000   101.8800  -999.2500     0.1273  2613.2222
   5617.0000     0.0228     0.0000     0.0000     0.0080     0.0148     0.0227     0.0541     0.0249     0.0000  1208.1814     0.1018     0.0037     0.0006     0.1246   122.0706     0.0000    -1.0855    63.7921   114.0826    59.0966     2.1345    67.6830     6.4477     1.0958    11.1369    48.0952    38.8219     0.0000   107.4892  -999.2500     0.1246  2596.4446
   5617.5000     0.0228     0.0000     0.0000     0.0080     0.0148     0.0227     0.0541     0.0249     0.0000  1223.3397     0.1018     0.0037     0.0006     0.1246   122.0706     0.0000    -1.0857    59.1155   114.0867    50.1595     1.8486    58.3408     5.2569     1.0117    11.1369    48.0952    38.8270     0.0000   107.4892  -999.2500     0.1246  2645.0000
   5618.0000     0.0219     0.0000     0.0000     0.0097     0.0122     0.0193     0.0505     0.0226     0.0000  1220.5750     0.0924     0.0037     0.0006     0.1143   122.1005     0.0000    -1.0858    48.9611   114.0908    40.5204     1.5004    46.5593     4.2049     0.7058     7.5521    31.0706    38.8321     0.0000   104.1988  -999.2500     0.1143  2624.0000
   5618.5000     0.0214     0.0000     0.0003     0.0108     0.0103     0.0203     0.0469     0.0182     0.0000  1210.2820     0.0854     0.0038     0.0006     0.1065   122.0706     0.0000    -1.0860    38.3545   114.0950    31.6177     1.1923    36.8108     3.1549     0.6105     4.8057    21.1514    38.8372     0.0000    94.1717  -999.2500     0.1068  2563.3999
   5619.0000     0.0217     0.0000     0.0012     0.0102     0.0104     0.0231     0.0429     0.0164     0.0000  1206.9282     0.0824     0.0037     0.0006     0.1029   122.0706     0.0000    -1.0862    31.3951   114.0991    27.5466     1.0709    31.6831     2.5609     0.5183     3.5087    16.9200    38.8423     0.0000    86.4385  -999.2500     0.1041  2609.6667
   5619.5000     0.0221     0.0000     0.0018     0.0078     0.0125     0.0259     0.0398     0.0190     0.0004  1220.7987     0.0851     0.0037     0.0006     0.1054   122.1005     0.0000    -1.0864    28.7952   114.1032    25.7630     1.0060    29.2256     2.3693     0.4261     4.6133    20.9994    38.8474     0.0000    89.9115  -999.2500     0.1071  2658.2998
   5620.0000     0.0205     0.0000     0.0000     0.0044     0.0161     0.0281     0.0402     0.0256     0.0019  1221.9945     0.0958     0.0037     0.0006     0.1163   122.0706     0.0000    -1.0865    27.9533   114.1072    25.5220     1.0299    28.4858     2.1518     0.3577     9.4131    40.0534    38.8524     0.0000   113.3845  -999.2500     0.1163  2629.0999
   5620.5000     0.0148     0.0000     0.0000     0.0015     0.0134     0.0316     0.0426     0.0284     0.0017  1223.5126     0.1042     0.0038     0.0006     0.1191   122.1591     0.0000    -1.0867    28.0767   114.1114    26.6689     1.0899    28.4604     2.1686     0.2490    13.7699    48.9333    38.8575     0.0000   130.2005  -999.2500     0.1191  2643.3000
   5621.0000     0.0144     0.0000     0.0016     0.0007     0.0120     0.0332     0.0433     0.0299     0.0008  1215.9476     0.1072     0.0038     0.0006     0.1199   122.1005     0.0000    -1.0869    27.2653   114.1155    27.7934     1.1681    29.4775     2.0709     0.2690    13.9842    56.4067    38.8625     0.0000   126.6532  -999.2500     0.1215  2582.0000
   5621.5000     0.0158     0.0001     0.0032     0.0010     0.0115     0.0318     0.0428     0.0320     0.0002  1220.7982     0.1067     0.0036     0.0006     0.1193   122.1323     0.0000    -1.0870    28.4483   114.1196    29.6758     1.2511    31.4694     2.1884     0.2702    13.2952    59.2528    38.8675     0.0000   121.4237  -999.2500     0.1225  2655.8999
   5622.0000     0.0180     0.0004     0.0041     0.0016     0.0119     0.0281     0.0413     0.0346     0.0002  1220.1493     0.1042     0.0035     0.0006     0.1177   122.1904     0.0000    -1.0872    28.5165   114.1237    30.3876     1.2899    31.9078     2.1895     0.2461    12.6472    55.7479    38.8724     0.0000   119.0604  -999.2500     0.1222  2633.0000
   5622.5000     0.0220     0.0013     0.0050     0.0021     0.0135     0.0245     0.0388     0.0365     0.0001  1225.2882     0.0999     0.0038     0.0006     0.1156   122.0706     0.0000    -1.0874    29.0624   114.1278    30.5246     1.3096    32.2527     2.1178     0.2132    10.6900    45.6657    38.8774     0.0000   109.9786  -999.2500     0.1219  2612.8999
   5623.0000     0.0182     0.0003     0.0044     0.0018     0.0117     0.0209     0.0352     0.0375     0.0000  1228.3081     0.0936     0.0043     0.0006     0.1071   122.0706     0.0000    -1.0875    30.8620   114.1319    30.9734     1.3175    32.7437     2.2156     0.2262     9.7298    31.8479    38.8823     0.0000   125.2073  -999.2500     0.1118  2668.4001
   5623.5000     0.0199     0.0000     0.0029     0.0040     0.0130     0.0182     0.0293     0.0334     0.0000  1223.8750     0.0808     0.0040     0.0006     0.0979   122.1618     0.0000    -1.0877    34.4435   114.1360    32.1199     1.3723    34.4386     2.2625     0.3128     6.0313    16.9636    38.8873     0.0000   115.6130  -999.2500     0.1008  2641.5454
   5624.0000     0.0252     0.0000     0.0013     0.0072     0.0167     0.0164     0.0234     0.0253     0.0000  1224.2166     0.0651     0.0038     0.0006     0.0890   122.1323     0.0000    -1.0878    46.2967   114.1401    39.3643     1.6916    42.2996     2.7152     0.3768     2.5713     6.1709    38.8922     0.0000    90.5848  -999.2500     0.0903  2622.0000
   5624.5000     0.0322     0.0002     0.0006     0.0103     0.0211     0.0163     0.0192     0.0156     0.0000  1219.4905     0.0511     0.0038     0.0006     0.0825   122.1314     0.0000    -1.0880    63.6020   114.1442    57.4470     2.4863    62.0403     3.8591     0.5728     0.7359     1.2648    38.8971     0.0000    61.1147  -999.2500     0.0833  2636.9092
   5625.0000     0.0391     0.0011     0.0015     0.0127     0.0237     0.0193     0.0178     0.0081     0.0000  1219.7479     0.0452     0.0038     0.0006     0.0816   122.2802     0.0000    -1.0881    84.9555   114.1483    80.0710     3.4558    87.6922     5.4360     0.9329     0.3201     0.6773    38.9020     0.0000    39.7976  -999.2500     0.0843  2599.3638
