~VERSION INFORMATION
VERS.           1.2   :CWLS Log ASCII Standard - VERSION 1.2
WRAP.           NO    :One Line per depth step
PROD.  Schlumberger   :LAS Producer
PROG.  DLIS to ASCII 2.3                               :LAS Program name and version
CREA.        2015/01/14 20:43                          :LAS Creation date {YYYY/MM/DD hh:mm}
DLIS_CREA.  2015-Jan-14 13:25                          :DLIS Creation date and time {YYYY-MMM-DD hh:mm}
SOURCE.     d5fbb1e7-1f44-4e43-b8fb-7fdeb49dde7f       :DLIS File Name
#--------------------------------------------------
~WELL INFORMATION
#MNEM.UNIT      DATA             DESCRIPTION
#---- ------ --------------   -----------------------------
STRT .F       8.0000         :START DEPTH     
STOP .F      353.0000        :STOP DEPTH     
STEP .F       0.5000         :STEP       
NULL .          -999.25      :NULL VALUE
COMP .                 COMPANY:  ADM Company                        
WELL .                    WELL:  CCS#2                              
FLD  .                   FIELD:  Wildcat                            
LOC  .                LOCATION:  Latitude: 39.885961                
CNTY .                  COUNTY:  Macon                              
STAT .                   STATE:  Illinois                           
CTRY .                 COUNTRY:  USA                                
SRVC .         SERVICE COMPANY:  Schlumberger                       
LATI .DEG             LATITUDE:  39° 53' 9.46" N                    
LONG .DEG            LONGITUDE:  88° 53' 16.959" W                  
API  .              API NUMBER:  12-115-23713-00                    
DATE .                LOG DATE:  12-Jan-2015
UWI  .          UNIQUE WELL ID:                                     
#-----------------------------------------------------------------------------
~PARAMETER INFORMATION
#MNEM.UNIT    VALUE                      DESCRIPTION
#---- -----   --------------------       ------------------------
CN   .        ADM Company                :Company Name
WN   .        CCS#2                      :Well Name
FN   .        Wildcat                    :Field Name
FL   .        Latitude  39.885961        :Field Location
FL1  .        Longitude  -88.888044      :Field Location, Line 1
COUN .        Macon                      :County or Parish
STAT .        Illinois                   :State or Province
NATI .        USA                        :Nation
DATE .        12-Jan-2015                :Tools Above Rotary Table Date
APIN .        12-115-23713-00            :API Well Number
SECT .        32                         :Section
TOWN .        17N                        :Township
RANG .        3E                         :Range
DMF  .        KB                         :Drilling Measured From (Name of Drilling Elevation Reference)
LMF  .        KB                         :Logging Measured From (Name of Logging Elevation Reference)
PDAT .        GL                         :Permanent Datum
ENGI .        Devin Arnold               :Engineer s Name
WITN .        Nick Malkewicz             :Witness s Name
LATI .        39° 53' 9.46  N            :Latitude
LONG .        88° 53' 16.959  W          :Longitude
LUL  .        Bradford                   :Logging Unit Location
LUN  .        3095                       :Logging Unit Number
RUN  .        1                          :Run Number
SON  .        D71E-00006                 :Service Order Number
BHT  .DEGF      58.00000                 :Bottom Hole Temperature
BS   .IN        26.00000                 :Bit Size
MDEN .G/C3       2.71000                 :Matrix Density for Density Porosity
DFD  .LB/G      10.10000                 :Drilling Fluid Density
DFV  .S         60.00000                 :Drilling Fluid Viscosity
DFL  .C3      -999.25000                 :Drilling Fluid Loss
RMFS .OHMM       1.23200                 :Resistivity of Mud Filtrate Sample
EKB  .F        691.19995                 :Elevation of Kelly Bushing
EGL  .F        675.69995                 :Elevation of Ground Level
BLI  .F        342.00000                 :Bottom Log Interval
BSAL .PPM        0.00000                 :Borehole Salinity
FLEV .F          8.00000                 :Depth of Drilling Fluid Level to LMF (Log Measured From)
MCST .DEGF      42.80000                 :Mudcake Sample Temperature
MFST .DEGF      42.80000                 :Mud Filtrate Sample Temperature
MRT  .DEGF      58.00000                 :Maximum Recorded Temperature
MST  .DEGF      42.80000                 :Mud Sample Temperature
RMCS .OHMM       1.84800                 :Resistivity of Mud Cake Sample
RMS  .OHMM       1.54000                 :Resistivity of Mud Sample
RW   .OHMM       1.00000                 :Connate Water Resistivity
TDD  .F        349.00000                 :Driller Total Depth
TDL  .F        349.00000                 :Logger Total Depth
TLI  .F         50.00000                 :Top Log Interval
HIDE .        Wildcat                    :Header Identifier
MATR .        LIME                       :Rock Matrix for Neutron Porosity Corrections
FNUM .           1.00000                 :F-Numerator for Formation Factor Formula
FEXP .           2.00000                 :Exponent "m" for Formation Factor Formula
DFT  .        Fresh Mud                  :Drilling Fluid Type
DFPH .        -999.25000                 :Drilling Fluid pH
MCSS .        Calculated                 :Mudcake Sample Source
MFSS .        Calculated                 :Mud Filtrate Sample Source
FD   .G/C3       1.00000                 :Fluid Density
MSS  .        Active Tank                :Mud Sample Source
OS1  .                                   :Other Services Line 1
OS2  .                                   :Other Services Line 2
OS3  .                                   :Other Services Line 3
OS4  .                                   :Other Services Line 4
OS5  .                                   :Other Services Line 5
R1   .        Matrix Density  Limestone. :Remarks Line 1
R2   .        Mud Sample taken on location. :Remarks Line 2
R3   .        Presentations as per client request. :Remarks Line 3
R4   .        No Chemical Sources ran due to possible potable water zones. :Remarks Line 4
R5   .        Bottom Hole Temperature taken from GM2 temperature log provided by the client. 58degF :Remarks Line 5
R6   .                                   :Remarks Line 6
R7   .                                   :Remarks Line 7
R8   .        APS ran outside max bit size range of 20in causing faulty data. :Remarks Line 8
TCS  .        19 45 00                   :Time Circulation Stopped
TLAB .        01 15 00                   :Time Logger At Bottom
NMT  .        NOBARITE                   :HRDD Mud Type for Nuclear Devices
EPD  .C3         675.699951              :Elevation of Permanent Datum above Mean Sea Level
APD  .F          15.500000               :Elevation of Depth Reference (LMF) above Permanent Datum
#-----------------------------------------------------------------------------
~CURVE INFORMATION
#MNEM.UNIT   API CODE                                  DESCRIPTION
#---- -----  --------                                  -----------------------
DEPT .F                                                :DEPTH (BOREHOLE) {F12.4}
AF10 .OHMM                                             :Array Induction Four Foot Resistivity A10 {F11.4}
AF20 .OHMM                                             :Array Induction Four Foot Resistivity A20 {F11.4}
AF30 .OHMM                                             :Array Induction Four Foot Resistivity A30 {F11.4}
AF60 .OHMM                                             :Array Induction Four Foot Resistivity A60 {F11.4}
AF90 .OHMM                                             :Array Induction Four Foot Resistivity A90 {F11.4}
AO10 .OHMM                                             :Array Induction One Foot Resistivity A10 {F11.4}
AO20 .OHMM                                             :Array Induction One Foot Resistivity A20 {F11.4}
AO30 .OHMM                                             :Array Induction One Foot Resistivity A30 {F11.4}
AO60 .OHMM                                             :Array Induction One Foot Resistivity A60 {F11.4}
AO90 .OHMM                                             :Array Induction One Foot Resistivity A90 {F11.4}
AT10 .OHMM                                             :Array Induction Two Foot Resistivity A10 {F11.4}
AT20 .OHMM                                             :Array Induction Two Foot Resistivity A20 {F11.4}
AT30 .OHMM                                             :Array Induction Two Foot Resistivity A30 {F11.4}
AT60 .OHMM                                             :Array Induction Two Foot Resistivity A60 {F11.4}
AT90 .OHMM                                             :Array Induction Two Foot Resistivity A90 {F11.4}
AFEC .HZ                                               :Far Detector Count Rate {F11.4}
ANEC .HZ                                               :Near Detector Count Rate {F11.4}
AORT .OHMM                                             :Array Induction One Foot Rt {F11.4}
AORX .OHMM                                             :Array Induction One Foot Rxo {F11.4}
APDC .CFCF                                             :Near/Array Corrected Dolomite Porosity {F11.4}
APLC .PU                                               :Near/Array Corrected Limestone Porosity {F11.4}
APSC .CFCF                                             :Near/Array Corrected Sandstone Porosity {F11.4}
CDF  .LBF                                              :Calibrated Downhole Force {F11.4}
CTEM .DEGF                                             :Cartridge Temperature {F11.4}
DCAL .IN                                               :Differential Caliper {F11.4}
ED   .F                                                :East Departure {F11.4}
FPLC .CFCF                                             :Near/Far Corrected Limestone Porosity {F11.4}
GR_EDTC.GAPI                                           :Gamma Ray {F11.4}
GTEM .DEGF                                             :Generalized Borehole Temperature {F11.4}
HASC .CFCF                                             :APS High Resolution Near/Array Corrected Sandstone Porosity {F11.4}
HSIG .CU                                               :APS High Resolution Formation Capture Cross Section {F11.4}
HSTO .IN                                               :APS High Resolution Effective Standoff in Limestone {F11.4}
ND   .F                                                :North Departure {F11.4}
QSGF .                                                 :Quality of Formation Sigma {F11.4}
SIGF .CU                                               :Formation Capture Cross Section {F11.4}
SP   .MV                                               :Spontaneous Potential {F11.4}
SPAR .MV                                               :SP, Armor Return Compensated {F11.4}
STIT .F                                                :Stuck Tool Indicator, Total {F11.4}
STOF .IN                                               :Effective Standoff in Limestone {F11.4}
STPC .CFCF                                             :Corrected Standoff Porosity {F11.4}
TENS .LBF                                              :Cable Tension {F11.4}
#-----------------------------------------------------------------------------
# 
#      DEPT        AF10       AF20       AF30       AF60       AF90       AO10       AO20       AO30       AO60       AO90       AT10       AT20       AT30       AT60       AT90       AFEC       ANEC       AORT       AORX       APDC       APLC       APSC       CDF        CTEM       DCAL        ED        FPLC     GR_EDTC      GTEM       HASC       HSIG       HSTO        ND        QSGF       SIGF        SP        SPAR       STIT       STOF       STPC       TENS
#
~A  
# ...
    278.0000     4.9185     4.6816     4.6941     4.8663     4.8456     6.0180     5.8002     5.8137     6.4102     6.3597     5.9370     5.5096     5.4335     5.6422     5.5616   389.1429  2514.5000     5.9436     5.6957     0.9154    91.6369     0.9173   633.8075    88.4706     0.0000     0.2228     0.7045    98.3038    57.2900     0.9332    25.1279    -0.2761    -0.2261     0.2276    26.4231  -161.4509  -159.6880     0.0000    -0.3383     0.7917   870.9286
    278.5000     4.7805     4.5508     4.5760     4.7288     4.7231     5.5011     5.4055     5.7397     5.9789     5.9403     5.0000     4.9127     5.0180     5.2346     5.1630   392.0000  2488.5715     5.2610     5.0946     0.8707    87.2210     0.8740   632.8535    88.4706     0.0000     0.2276     0.7132    83.3981    57.2950     0.8864    26.9264    -0.3487    -0.2253     0.2299    26.0790  -158.7616  -157.9741     0.0000    -0.3219     0.7932   870.0000
    279.0000     4.5461     4.3526     4.3891     4.5065     4.4981     3.7218     3.5700     3.6063     3.8416     3.8279     4.1593     4.0201     4.0784     4.2472     4.2047   367.4286  2450.2856     4.4398     4.3943     0.8550    85.6737     0.8589   630.0730    88.4706     0.0000     0.2323     0.7581    75.2593    57.3000     0.7857    29.5873    -0.0301    -0.2244     0.2053    26.9854  -155.1496  -156.1531     0.0000    -0.2728     0.7919   941.1111
    279.5000     4.3524     4.1742     4.2094     4.3187     4.3070     4.1144     3.7467     3.7758     3.8292     3.8175     4.0589     3.8530     3.9118     4.0228     3.9563   378.0000  2503.4285     4.1499     4.2061     0.7779    78.0715     0.7853   633.1836    88.4706     0.0000     0.2370     0.8094    69.0771    57.3050     0.8195    26.9820    -0.0983    -0.2235     0.2061    27.8203  -152.6763  -154.6685     0.0000     0.1098     0.7914   930.1428
    280.0000     4.2428     4.0627     4.0908     4.1838     4.1735     4.4523     4.2724     4.1466     4.1771     4.1649     4.1706     4.0120     4.0306     4.1560     4.0860   374.8571  2454.0000     4.0621     4.1929     0.7741    77.6993     0.7817   632.9932    88.4706     0.0000     0.2418     0.8667    64.3919    57.3100     0.8217    27.1715    -0.0860    -0.2225     0.2243    27.1189  -150.6366  -153.2822     0.0000     0.1383     0.7924   930.7499
    280.5000     4.1774     4.0044     4.0218     4.1051     4.1070     4.3157     4.0882     4.0223     4.0950     4.0850     4.2154     4.0733     4.0613     4.1518     4.0472   351.4286  2476.0000     4.0487     4.1798     0.7960    79.8544     0.8025   630.2634    88.4706     0.0000     0.2465     0.8338    62.7625    57.3150     0.7892    26.8022     0.0729    -0.2215     0.2088    26.7516  -148.6362  -152.0471     0.0000     0.0197     0.7927   919.5185
    281.0000     4.1353     3.9749     3.9846     4.0703     4.0622     4.0212     3.9229     3.9105     4.0099     4.0017     4.1213     3.9766     4.0004     4.0880     3.9686   382.8571  2456.0000     4.0451     4.1289     0.8606    86.2272     0.8643   634.9352    88.4706     0.0000     0.2512     0.7951    63.7256    57.3200     0.8419    25.6789    -0.2032    -0.2204     0.2054    27.1619  -147.1317  -151.1300     0.0000    -0.2907     0.7928   897.0357
    281.5000     4.1024     3.9611     3.9614     4.0484     4.0277     4.0266     3.8776     3.8556     3.9941     3.9878     4.0596     3.9208     3.9341     4.0321     3.9250   383.0000  2424.0000     4.0503     4.0725     0.8740    87.5484     0.8772   634.3700    88.4706     0.0000     0.2560     0.6512    63.2460    57.3250     0.8921    26.3170    -0.3558    -0.2193     0.2313    26.1325  -147.0532  -150.6023     0.0000    -0.3321     0.7915   868.8148
    282.0000     4.0810     3.9622     3.9552     4.0434     4.0162     4.0573     3.9000     3.8848     4.0549     4.0503     4.0467     3.9136     3.9132     4.0059     3.9111   391.4286  2479.5000     4.0738     4.0332     0.8730    87.4485     0.8762   633.0186    88.4706     0.0000     0.2608     0.7753    63.6822    57.3300     0.8696    26.3885    -0.3106    -0.2182     0.2439    25.3954  -147.7009  -150.3490     0.0000    -0.3297     0.7915   874.8215
    282.5000     4.0961     3.9836     3.9783     4.0900     4.0640     3.9945     3.9004     3.9134     4.0973     4.0942     4.0287     3.9210     3.9151     4.0107     3.9407   343.4286  2453.7144     4.1214     4.0147     0.8687    87.0307     0.8722   633.1582    88.4706     0.0000     0.2656     0.7619    64.4803    57.3350     0.8974    24.3957    -0.3577    -0.2170     0.2507    24.8899  -148.9745  -150.3012     0.0000    -0.3200     0.7904   847.2592
    283.0000     4.1523     4.0628     4.0704     4.2087     4.1819     3.9424     3.9007     3.9202     4.1025     4.1014     4.0519     3.9545     3.9381     4.0528     4.0500   391.0000  2420.5715     4.2152     4.0312     0.8970    89.8175     0.8994   632.3837    88.4706     0.0000     0.2705     0.8497    62.7847    57.3400     0.8604    23.4238    -0.3023    -0.2158     0.2605    24.8287  -150.3310  -150.3941     0.0000    -0.3547     0.7895   859.5358
    283.5000     4.2927     4.2153     4.2400     4.4078     4.3821     3.9407     3.9787     4.0363     4.2174     4.2178     4.1173     4.0239     4.0239     4.1861     4.1982   379.4286  2498.8572     4.4056     4.1070     0.8803    88.1762     0.8833   630.9871    88.4706     0.0000     0.2753     0.7462    62.9302    57.3450     0.9255    23.8492    -0.2858    -0.2145     0.2533    25.0691  -151.4978  -150.5325     0.0000    -0.3439     0.7885   846.4445
    284.0000     4.5337     4.4377     4.4788     4.6898     4.6688     4.3703     4.3045     4.4357     4.5350     4.5374     4.3712     4.3233     4.3787     4.6021     4.6071   367.4286  2515.5000     4.7413     4.3703     0.8774    87.8857     0.8805   637.7924    88.4706     0.0000     0.2801     0.7387    62.1771    57.3500     0.9398    25.8163     0.3605    -0.2132     0.2557    24.8675  -153.7522  -150.8591     0.0000    -0.3390     0.7873   885.5714
    284.5000     4.7958     4.6798     4.7452     5.0362     5.0257     4.8621     4.6864     4.8370     5.4269     5.4319     4.8405     4.7052     4.6983     4.9771     5.0318   391.4286  2505.1428     5.5661     4.6447     0.8793    88.0778     0.8824   632.1425    88.4706     0.0000     0.2850     0.8241    67.5450    57.3550     0.9197    26.1964     0.2877    -0.2119     0.2550    24.9596  -155.3218  -151.0920     0.0000    -0.3430     0.7896   897.6667
    285.0000     5.1240     4.9913     5.0856     5.3996     5.4119     5.3221     5.0525     5.2874     6.1717     6.1796     5.4227     5.0648     5.2188     5.6209     5.6784   364.0000  2465.1428     6.5702     5.0237     0.8452    84.7107     0.8496   631.6727    88.4706     0.0000     0.2898     0.6921    63.7414    57.3600     0.8254    23.7891    -0.1218    -0.2105     0.2202    25.7849  -155.4598  -151.0077     0.0000    -0.2368     0.7911   894.0714
    285.5000     5.3899     5.2347     5.3597     5.7216     5.7651     5.6725     5.4476     5.8684     7.1055     7.1197     5.7336     5.4787     5.6612     6.1420     6.2329   396.5000  2449.7144     7.7049     5.4233     0.8068    80.9188     0.8128   632.8281    88.4706     0.0000     0.2947     0.6967    61.3783    57.3650     0.7683    24.3496     0.1978    -0.2090     0.2292    25.0460  -154.3125  -150.6665     0.0000    -0.0447     0.7919   940.4074
    286.0000     5.4736     5.3770     5.5349     5.9241     5.9965     5.5226     6.3168     6.9457     8.1717     8.1952     5.6626     5.7973     6.1483     6.6753     6.7973   382.8571  2461.0000     8.4392     5.3898     0.8166    81.8906     0.8222   631.1141    88.4706     0.0000     0.2996     0.6566    57.4908    57.3700     0.8025    25.4777     0.0146    -0.2076     0.2380    24.2897  -152.7963  -150.1833     0.0000    -0.0939     0.7924   905.7500
    286.5000     5.4019     5.3947     5.5727     5.9655     6.0500     5.5863     5.4761     5.9180     6.7921     6.8114     5.4937     5.5172     5.8099     6.2146     6.3223   372.0000  2448.5715     6.9949     5.4362     0.8597    86.1376     0.8635   629.5905    88.4706     0.0000     0.3045     0.7559    57.6760    57.3750     0.8130    24.2107    -0.0438    -0.2061     0.2331    25.5535  -151.3750  -149.6404     0.0000    -0.2926     0.7907   917.8518
