~VERSION INFORMATION
VERS.           1.2   :CWLS Log ASCII Standard - VERSION 1.2
WRAP.           NO    :One Line per depth step
PROD.  Schlumberger   :LAS Producer
PROG.  DLIS to ASCII 2.3                               :LAS Program name and version
CREA.        2015/05/30 05:44                          :LAS Creation date {YYYY/MM/DD hh:mm}
DLIS_CREA.  2015-May-29 22:59                          :DLIS Creation date and time {YYYY-MMM-DD hh:mm}
SOURCE.     3feb4549-4107-45e4-8f62-928498d876c9       :DLIS File Name
#--------------------------------------------------
~WELL INFORMATION
#MNEM.UNIT      DATA             DESCRIPTION
#---- ------ --------------   -----------------------------
STRT .F      5218.5000       :START DEPTH     
STOP .F      7211.0000       :STOP DEPTH     
STEP .F       0.5000         :STEP       
NULL .          -999.25      :NULL VALUE
COMP .                 COMPANY:  ADM COMPANY                        
WELL .                    WELL:  CCS#2                              
FLD  .                   FIELD:  WILDCAT                            
LOC  .                LOCATION:  LAT 39.885961                      
CNTY .                  COUNTY:  MACON                              
STAT .                   STATE:  ILLINOIS                           
CTRY .                 COUNTRY:  USA                                
SRVC .         SERVICE COMPANY:  Schlumberger                       
LATI .DEG             LATITUDE:  39.885961 degrees                  
LONG .DEG            LONGITUDE:  -88.888044 degrees                 
API  .              API NUMBER:  12-115-23713-00                    
DATE .                LOG DATE:  29-May-2015
UWI  .          UNIQUE WELL ID:  12-115-23713-00                    
#-----------------------------------------------------------------------------
~PARAMETER INFORMATION
#MNEM.UNIT    VALUE                      DESCRIPTION
#---- -----   --------------------       ------------------------
CN   .        ADM COMPANY                :Company Name
WN   .        CCS#2                      :Well Name
FN   .        WILDCAT                    :Field Name
FL   .        LAT 39.885961              :Field Location
FL1  .        LONG 39.885961             :Field Location, Line 1
COUN .        MACON                      :County or Parish
STAT .        ILLINOIS                   :State or Province
NATI .        USA                        :Nation
DATE .        29-May-2015                :Tools Above Rotary Table Date
APIN .        12-115-23713-00            :API Well Number
SECT .        32                         :Section
TOWN .        17N                        :Township
RANG .        3E                         :Range
DMF  .        KB                         :Drilling Measured From (Name of Drilling Elevation Reference)
LMF  .        KB                         :Logging Measured From (Name of Logging Elevation Reference)
PDAT .        GL                         :Permanent Datum
ENGI .        H. DIMITROV / M. MOHAMMED  :Engineer s Name
WITN .        NICK MALKEWICZ             :Witness s Name
LATI .        39.885961 degrees          :Latitude
LONG .        -88.888044 degrees         :Longitude
LUL  .        BRADFORD                   :Logging Unit Location
LUN  .        3003                       :Logging Unit Number
RUN  .        Run 3C                     :Run Number
SON  .                                   :Service Order Number
BHT  .DEGF     127.00000                 :Bottom Hole Temperature
BS   .IN        12.25000                 :Bit Size
DFD  .LB/G       9.20000                 :Drilling Fluid Density
DFV  .S         66.00000                 :Drilling Fluid Viscosity
DFL  .C3         7.60000                 :Drilling Fluid Loss
RMFS .OHMM       0.17000                 :Resistivity of Mud Filtrate Sample
EKB  .F        691.19995                 :Elevation of Kelly Bushing
EGL  .F        675.69995                 :Elevation of Ground Level
BLI  .F       7192.00000                 :Bottom Log Interval
BSAL .PPM     15100.00000                :Borehole Salinity
FLEV .F          8.00000                 :Depth of Drilling Fluid Level to LMF (Log Measured From)
MCST .DEGF      72.50000                 :Mudcake Sample Temperature
MFST .DEGF      72.50000                 :Mud Filtrate Sample Temperature
MRT  .DEGF     127.00000                 :Maximum Recorded Temperature
MST  .DEGF      72.50000                 :Mud Sample Temperature
RMCS .OHMM       0.14000                 :Resistivity of Mud Cake Sample
RMS  .OHMM       0.20000                 :Resistivity of Mud Sample
RW   .OHMM       1.00000                 :Connate Water Resistivity
TDD  .F       7193.00049                 :Driller Total Depth
TDL  .F       7193.00049                 :Logger Total Depth
TLI  .F       5240.00000                 :Top Log Interval
HIDE .        WILDCAT                    :Header Identifier
MATR .        SAND                       :Rock Matrix for Neutron Porosity Corrections
FNUM .           1.00000                 :F-Numerator for Formation Factor Formula
FEXP .           2.00000                 :Exponent "m" for Formation Factor Formula
DFT  .        Fresh Water                :Drilling Fluid Type
DFPH .          11.50000                 :Drilling Fluid pH
MCSS .        Calculated                 :Mudcake Sample Source
MFSS .        Calculated                 :Mud Filtrate Sample Source
FD   .LB/G       8.34540                 :Fluid Density
MSS  .        Active Tank                :Mud Sample Source
OS1  .                                   :Other Services Line 1
OS2  .                                   :Other Services Line 2
OS3  .                                   :Other Services Line 3
OS4  .                                   :Other Services Line 4
OS5  .                                   :Other Services Line 5
R1   .        THANKS FOR CHOOSING SCHLUMBERGER!!! :Remarks Line 1
R2   .        All WELL PROPERTIES PROVIDED BY CLIENT :Remarks Line 2
R3   .        ALL SCALES ON PRESENTATIONS AS PER

CLIENT REQUEST :Remarks Line 3
R4   .        MATRIX  SANDSTONE          :Remarks Line 4
R5   .        MATRIX DENSITY  2.65 G/CC  :Remarks Line 5
R6   .        ALL LOGGING INTERVALS AS PER CLIENT REQUEST :Remarks Line 6
R7   .        MRT = 127 DEGF FROM THE THERMOMETER :Remarks Line 7
R8   .                                   :Remarks Line 8
TCS  .        20 00 00                   :Time Circulation Stopped
TLAB .        14 31 00                   :Time Logger At Bottom
EPD  .C3         675.699951              :Elevation of Permanent Datum above Mean Sea Level
APD  .F          15.500000               :Elevation of Depth Reference (LMF) above Permanent Datum
#-----------------------------------------------------------------------------
~CURVE INFORMATION
#MNEM.UNIT   API CODE                                  DESCRIPTION
#---- -----  --------                                  -----------------------
DEPT .F                                                :DEPTH (BOREHOLE) {F12.4}
BFV  .CFCF                                             :Bound Fluid Volume {F11.4}
CBP1 .CFCF                                             :CMR Bin Porosity 1 {F11.4}
CBP2 .CFCF                                             :CMR Bin Porosity 2 {F11.4}
CBP3 .CFCF                                             :CMR Bin Porosity 3 {F11.4}
CBP4 .CFCF                                             :CMR Bin Porosity 4 {F11.4}
CBP5 .CFCF                                             :CMR Bin Porosity 5 {F11.4}
CBP6 .CFCF                                             :CMR Bin Porosity 6 {F11.4}
CBP7 .CFCF                                             :CMR Bin Porosity 7 {F11.4}
CBP8 .CFCF                                             :CMR Bin Porosity 8 {F11.4}
CDF  .LBF                                              :Calibrated Downhole Force {F11.4}
CMFF .CFCF                                             :CMR Free Fluid {F11.4}
CMFF_SIG.CFCF                                          :Standard Deviation of CMR Free Fluid {F11.4}
CMR_PHI_CONV.                                          :CMR Porosity Conversion factor {F11.4}
CMRP_3MS.CFCF                                          :CMR Porosity with T2 values greater than 3 ms {F11.4}
CTEM .DEGF                                             :Cartridge Temperature {F11.4}
DCAL .IN                                               :Differential Caliper {F11.4}
ED   .F                                                :East Departure {F11.4}
GR_EDTC.GAPI                                           :Gamma Ray {F11.4}
GTEM .DEGF                                             :Generalized Borehole Temperature {F11.4}
HCGR .GAPI                                             :HNGS Computed Gamma Ray {F11.4}
HFK  .%                                                :HNGS Formation Potassium Concentration {F11.4}
HSGR .GAPI                                             :HNGS Standard Gamma-Ray {F11.4}
HTHO .PPM                                              :HNGS Formation Thorium Concentration {F11.4}
HURA .PPM                                              :HNGS Formation Uranium Concentration {F11.4}
KSDR .MD                                               :SDR Permeability {F11.4}
KTIM .MD                                               :Timur/Coates Permeability {F11.4}
ND   .F                                                :North Departure {F11.4}
STIT .F                                                :Stuck Tool Indicator, Total {F11.4}
T2LM .MS                                               :T2 Logarithmic Mean {F11.4}
T2LM_SIG.MS                                            :Standard Deviation of T2 Logarithmic Mean {F11.4}
TCMR .CFCF                                             :Total CMR Porosity {F11.4}
TENS .LBF                                              :Cable Tension {F11.4}
#-----------------------------------------------------------------------------
# 
#      DEPT        BFV        CBP1       CBP2       CBP3       CBP4       CBP5       CBP6       CBP7       CBP8       CDF        CMFF     CMFF_SIG  CMR_PHI_CO  CMRP_3MS     CTEM       DCAL        ED      GR_EDTC      GTEM       HCGR       HFK        HSGR       HTHO       HURA       KSDR       KTIM        ND        STIT       T2LM     T2LM_SIG     TCMR       TENS
#                                                                                                                                                   NV
~A  
# ...
   6538.5000     0.0425     0.0031     0.0073     0.0123     0.0198     0.0352     0.0316     0.0081     0.0014  1197.8682     0.0764     0.0036     0.0006     0.1085   124.0471     0.0000     0.2604    47.0803   121.6432    46.7476     1.8043    49.3829     4.4098     0.6229     1.5028     6.5790    35.2764     0.0000    43.2775  -999.2500     0.1189  2795.4546
   6539.0000     0.0428     0.0025     0.0064     0.0119     0.0220     0.0401     0.0264     0.0082     0.0012  1204.6747     0.0759     0.0036     0.0006     0.1098   124.0471     0.0000     0.2678    44.4776   121.6473    47.2169     1.8334    49.2345     4.3894     0.5343     1.4620     6.4208    35.2733     0.0000    42.7504  -999.2500     0.1187  2842.5999
   6539.5000     0.0469     0.0035     0.0060     0.0111     0.0263     0.0415     0.0211     0.0070     0.0003  1196.3396     0.0699     0.0037     0.0006     0.1073   124.0471     0.0000     0.2752    47.5036   121.6514    52.1119     2.0123    54.2164     4.9099     0.5539     1.0109     4.2569    35.2703     0.0000    36.2932  -999.2500     0.1168  2818.3003
   6540.0000     0.0481     0.0060     0.0044     0.0091     0.0285     0.0387     0.0183     0.0040     0.0000  1198.8461     0.0610     0.0036     0.0006     0.0986   124.0471     0.0000     0.2827    50.4724   121.6555    59.9196     2.3204    62.0530     5.6072     0.5900     0.5247     2.2767    35.2672     0.0000    30.4536  -999.2500     0.1091  2782.4001
   6540.5000     0.0400     0.0045     0.0037     0.0068     0.0249     0.0365     0.0175     0.0033     0.0000  1196.9255     0.0574     0.0036     0.0006     0.0891   124.0471     0.0000     0.2903    57.0887   121.6596    64.9410     2.4760    66.8216     6.3042     0.6041     0.4089     1.8637    35.2641     0.0000    33.7462  -999.2500     0.0973  2829.7273
   6541.0000     0.0333     0.0020     0.0039     0.0051     0.0223     0.0357     0.0185     0.0020     0.0004  1196.0825     0.0566     0.0036     0.0006     0.0840   124.0471     0.0000     0.2977    60.6352   121.6637    64.7978     2.4598    67.7943     6.3533     0.8017     0.4050     1.9032    35.2610     0.0000    39.6393  -999.2500     0.0899  2828.8000
   6541.5000     0.0364     0.0005     0.0053     0.0066     0.0240     0.0349     0.0177     0.0013     0.0008  1197.3137     0.0547     0.0036     0.0006     0.0853   124.0471     0.0000     0.3053    61.2693   121.6678    61.3176     2.3116    64.6880     6.1060     0.8341     0.3967     1.6670    35.2579     0.0000    38.4205  -999.2500     0.0911  2812.5457
   6542.0000     0.0530     0.0011     0.0082     0.0134     0.0303     0.0321     0.0147     0.0011     0.0008  1198.6824     0.0488     0.0036     0.0006     0.0924   124.0471     0.0000     0.3128    57.5668   121.6719    59.3724     2.2601    62.8226     5.7850     0.8291     0.3232     1.0137    35.2548     0.0000    28.2083  -999.2500     0.1018  2866.9001
   6542.5000     0.0827     0.0036     0.0136     0.0270     0.0384     0.0244     0.0119     0.0000     0.0000  1199.5826     0.0364     0.0035     0.0006     0.1018   124.0471     0.0000     0.3202    54.6102   121.6760    57.6181     2.1929    61.0398     5.6161     0.8054     0.1796     0.3889    35.2517     0.0000    14.9514  -999.2500     0.1191  2806.8184
   6543.0000     0.1198     0.0081     0.0234     0.0452     0.0432     0.0186     0.0055     0.0000     0.0000  1201.9779     0.0241     0.0035     0.0006     0.1124   124.0471     0.0000     0.3278    55.2762   121.6801    58.3136     2.2098    60.7569     5.7400     0.6609     0.1368     0.1850    35.2486     0.0000     9.3026  -999.2500     0.1438  2865.4001
   6543.5000     0.1523     0.0138     0.0357     0.0573     0.0456     0.0122     0.0016     0.0000     0.0000  1196.7908     0.0138     0.0033     0.0006     0.1166   124.0471     0.0000     0.3354    54.4784   121.6842    58.2684     2.2144    59.6254     5.6985     0.5185     0.1115     0.0704    35.2455     0.0000     6.2156  -999.2500     0.1661  2829.8181
   6544.0000     0.1756     0.0188     0.0465     0.0654     0.0449     0.0093     0.0001     0.0000     0.0000  1198.3323     0.0094     0.0033     0.0006     0.1197   124.0471     0.0000     0.3429    50.6903   121.6883    55.3830     2.1316    57.1314     5.2591     0.5213     0.1106     0.0340    35.2424     0.0000     4.8703  -999.2500     0.1850  2803.3999
   6544.5000     0.1879     0.0219     0.0535     0.0698     0.0427     0.0103     0.0002     0.0000     0.0003  1194.7645     0.0108     0.0035     0.0006     0.1232   124.0471     0.0000     0.3505    46.5116   121.6924    54.3640     2.0672    55.5438     5.3097     0.4699     0.1307     0.0528    35.2393     0.0000     4.5716  -999.2500     0.1986  2842.5999
   6545.0000     0.1904     0.0228     0.0564     0.0685     0.0427     0.0122     0.0001     0.0000     0.0016  1194.6934     0.0139     0.0036     0.0006     0.1251   124.0471     0.0000     0.3581    46.6656   121.6965    54.1154     2.0688    54.5511     5.2211     0.3535     0.1570     0.0922    35.2362     0.0000     4.7489  -999.2500     0.2043  2840.8181
   6545.5000     0.1887     0.0188     0.0524     0.0684     0.0490     0.0131     0.0000     0.0000     0.0039  1195.6219     0.0170     0.0038     0.0006     0.1344   124.0471     0.0000     0.3657    47.1236   121.7006    55.8990     2.1311    56.1941     5.4274     0.3368     0.2375     0.1470    35.2331     0.0000     5.7345  -999.2500     0.2056  2814.0000
   6546.0000     0.1848     0.0156     0.0482     0.0681     0.0528     0.0138     0.0000     0.0000     0.0048  1193.2057     0.0185     0.0036     0.0006     0.1395   124.0471     0.0000     0.3734    48.5198   121.7047    57.2910     2.2220    57.6085     5.3409     0.3216     0.2829     0.1715    35.2300     0.0000     6.4370  -999.2500     0.2033  2836.7273
   6546.5000     0.1837     0.0144     0.0447     0.0681     0.0566     0.0131     0.0000     0.0008     0.0042  1194.1641     0.0181     0.0036     0.0006     0.1427   124.0471     0.0000     0.3809    48.6219   121.7088    59.5463     2.3121    59.2104     5.5359     0.2592     0.3007     0.1610    35.2270     0.0000     6.7333  -999.2500     0.2018  2791.7273
   6547.0000     0.1867     0.0150     0.0430     0.0694     0.0594     0.0106     0.0000     0.0023     0.0025  1197.6522     0.0154     0.0039     0.0006     0.1442   124.0471     0.0000     0.3886    54.3317   121.7129    61.3155     2.3956    60.6073     5.6134     0.2170     0.2870     0.1175    35.2240     0.0000     6.5458  -999.2500     0.2021  2817.5000
   6547.5000     0.1915     0.0161     0.0441     0.0742     0.0572     0.0062     0.0002     0.0041     0.0000  1200.7625     0.0105     0.0043     0.0006     0.1418   124.0471     0.0000     0.3962    57.8717   121.7170    62.9711     2.4453    62.0398     5.8528     0.1704     0.2274     0.0498    35.2209     0.0000     5.8423  -999.2500     0.2020  2820.1001
   6548.0000     0.1980     0.0163     0.0479     0.0787     0.0551     0.0078     0.0000     0.0016     0.0049  1213.5326     0.0143     0.0040     0.0006     0.1481   124.0471     0.0000     0.4039    57.4959   121.7211    62.6158     2.4357    62.2903     5.7952     0.2729     0.3145     0.1097    35.2179     0.0000     6.1926  -999.2500     0.2123  2788.6365
   6548.5000     0.1974     0.0147     0.0484     0.0788     0.0555     0.0061     0.0000     0.0004     0.0139  1200.0150     0.0204     0.0040     0.0006     0.1546   124.0471     0.0000     0.4115    53.7439   121.7252    60.1431     2.3636    61.2204     5.4257     0.4492     0.5878     0.2551    35.2149     0.0000     7.9138  -999.2500     0.2178  2837.3000
   6549.0000     0.1979     0.0164     0.0460     0.0746     0.0609     0.0048     0.0000     0.0000     0.0252  1199.8571     0.0300     0.0041     0.0006     0.1654   124.0471     0.0000     0.4192    50.7828   121.7294    58.3218     2.2781    60.4471     5.3431     0.5841     1.3753     0.7136    35.2118     0.0000    10.6718  -999.2500     0.2278  2782.3000
