~VERSION INFORMATION
VERS.           1.2   :CWLS Log ASCII Standard - VERSION 1.2
WRAP.           NO    :One Line per depth step
PROD.  Schlumberger   :LAS Producer
PROG.  DLIS to ASCII 2.3                               :LAS Program name and version
CREA.        2015/05/30 05:44                          :LAS Creation date {YYYY/MM/DD hh:mm}
DLIS_CREA.  2015-May-29 22:59                          :DLIS Creation date and time {YYYY-MMM-DD hh:mm}
SOURCE.     3feb4549-4107-45e4-8f62-928498d876c9       :DLIS File Name
#--------------------------------------------------
~WELL INFORMATION
#MNEM.UNIT      DATA             DESCRIPTION
#---- ------ --------------   -----------------------------
STRT .F      5218.5000       :START DEPTH     
STOP .F      7211.0000       :STOP DEPTH     
STEP .F       0.5000         :STEP       
NULL .          -999.25      :NULL VALUE
COMP .                 COMPANY:  ADM COMPANY                        
WELL .                    WELL:  CCS#2                              
FLD  .                   FIELD:  WILDCAT                            
LOC  .                LOCATION:  LAT 39.885961                      
CNTY .                  COUNTY:  MACON                              
STAT .                   STATE:  ILLINOIS                           
CTRY .                 COUNTRY:  USA                                
SRVC .         SERVICE COMPANY:  Schlumberger                       
LATI .DEG             LATITUDE:  39.885961 degrees                  
LONG .DEG            LONGITUDE:  -88.888044 degrees                 
API  .              API NUMBER:  12-115-23713-00                    
DATE .                LOG DATE:  29-May-2015
UWI  .          UNIQUE WELL ID:  12-115-23713-00                    
#-----------------------------------------------------------------------------
~PARAMETER INFORMATION
#MNEM.UNIT    VALUE                      DESCRIPTION
#---- -----   --------------------       ------------------------
CN   .        ADM COMPANY                :Company Name
WN   .        CCS#2                      :Well Name
FN   .        WILDCAT                    :Field Name
FL   .        LAT 39.885961              :Field Location
FL1  .        LONG 39.885961             :Field Location, Line 1
COUN .        MACON                      :County or Parish
STAT .        ILLINOIS                   :State or Province
NATI .        USA                        :Nation
DATE .        29-May-2015                :Tools Above Rotary Table Date
APIN .        12-115-23713-00            :API Well Number
SECT .        32                         :Section
TOWN .        17N                        :Township
RANG .        3E                         :Range
DMF  .        KB                         :Drilling Measured From (Name of Drilling Elevation Reference)
LMF  .        KB                         :Logging Measured From (Name of Logging Elevation Reference)
PDAT .        GL                         :Permanent Datum
ENGI .        H. DIMITROV / M. MOHAMMED  :Engineer s Name
WITN .        NICK MALKEWICZ             :Witness s Name
LATI .        39.885961 degrees          :Latitude
LONG .        -88.888044 degrees         :Longitude
LUL  .        BRADFORD                   :Logging Unit Location
LUN  .        3003                       :Logging Unit Number
RUN  .        Run 3C                     :Run Number
SON  .                                   :Service Order Number
BHT  .DEGF     127.00000                 :Bottom Hole Temperature
BS   .IN        12.25000                 :Bit Size
DFD  .LB/G       9.20000                 :Drilling Fluid Density
DFV  .S         66.00000                 :Drilling Fluid Viscosity
DFL  .C3         7.60000                 :Drilling Fluid Loss
RMFS .OHMM       0.17000                 :Resistivity of Mud Filtrate Sample
EKB  .F        691.19995                 :Elevation of Kelly Bushing
EGL  .F        675.69995                 :Elevation of Ground Level
BLI  .F       7192.00000                 :Bottom Log Interval
BSAL .PPM     15100.00000                :Borehole Salinity
FLEV .F          8.00000                 :Depth of Drilling Fluid Level to LMF (Log Measured From)
MCST .DEGF      72.50000                 :Mudcake Sample Temperature
MFST .DEGF      72.50000                 :Mud Filtrate Sample Temperature
MRT  .DEGF     127.00000                 :Maximum Recorded Temperature
MST  .DEGF      72.50000                 :Mud Sample Temperature
RMCS .OHMM       0.14000                 :Resistivity of Mud Cake Sample
RMS  .OHMM       0.20000                 :Resistivity of Mud Sample
RW   .OHMM       1.00000                 :Connate Water Resistivity
TDD  .F       7193.00049                 :Driller Total Depth
TDL  .F       7193.00049                 :Logger Total Depth
TLI  .F       5240.00000                 :Top Log Interval
HIDE .        WILDCAT                    :Header Identifier
MATR .        SAND                       :Rock Matrix for Neutron Porosity Corrections
FNUM .           1.00000                 :F-Numerator for Formation Factor Formula
FEXP .           2.00000                 :Exponent "m" for Formation Factor Formula
DFT  .        Fresh Water                :Drilling Fluid Type
DFPH .          11.50000                 :Drilling Fluid pH
MCSS .        Calculated                 :Mudcake Sample Source
MFSS .        Calculated                 :Mud Filtrate Sample Source
FD   .LB/G       8.34540                 :Fluid Density
MSS  .        Active Tank                :Mud Sample Source
OS1  .                                   :Other Services Line 1
OS2  .                                   :Other Services Line 2
OS3  .                                   :Other Services Line 3
OS4  .                                   :Other Services Line 4
OS5  .                                   :Other Services Line 5
R1   .        THANKS FOR CHOOSING SCHLUMBERGER!!! :Remarks Line 1
R2   .        All WELL PROPERTIES PROVIDED BY CLIENT :Remarks Line 2
R3   .        ALL SCALES ON PRESENTATIONS AS PER

CLIENT REQUEST :Remarks Line 3
R4   .        MATRIX  SANDSTONE          :Remarks Line 4
R5   .        MATRIX DENSITY  2.65 G/CC  :Remarks Line 5
R6   .        ALL LOGGING INTERVALS AS PER CLIENT REQUEST :Remarks Line 6
R7   .        MRT = 127 DEGF FROM THE THERMOMETER :Remarks Line 7
R8   .                                   :Remarks Line 8
TCS  .        20 00 00                   :Time Circulation Stopped
TLAB .        14 31 00                   :Time Logger At Bottom
EPD  .C3         675.699951              :Elevation of Permanent Datum above Mean Sea Level
APD  .F          15.500000               :Elevation of Depth Reference (LMF) above Permanent Datum
#-----------------------------------------------------------------------------
~CURVE INFORMATION
#MNEM.UNIT   API CODE                                  DESCRIPTION
#---- -----  --------                                  -----------------------
DEPT .F                                                :DEPTH (BOREHOLE) {F12.4}
BFV  .CFCF                                             :Bound Fluid Volume {F11.4}
CBP1 .CFCF                                             :CMR Bin Porosity 1 {F11.4}
CBP2 .CFCF                                             :CMR Bin Porosity 2 {F11.4}
CBP3 .CFCF                                             :CMR Bin Porosity 3 {F11.4}
CBP4 .CFCF                                             :CMR Bin Porosity 4 {F11.4}
CBP5 .CFCF                                             :CMR Bin Porosity 5 {F11.4}
CBP6 .CFCF                                             :CMR Bin Porosity 6 {F11.4}
CBP7 .CFCF                                             :CMR Bin Porosity 7 {F11.4}
CBP8 .CFCF                                             :CMR Bin Porosity 8 {F11.4}
CDF  .LBF                                              :Calibrated Downhole Force {F11.4}
CMFF .CFCF                                             :CMR Free Fluid {F11.4}
CMFF_SIG.CFCF                                          :Standard Deviation of CMR Free Fluid {F11.4}
CMR_PHI_CONV.                                          :CMR Porosity Conversion factor {F11.4}
CMRP_3MS.CFCF                                          :CMR Porosity with T2 values greater than 3 ms {F11.4}
CTEM .DEGF                                             :Cartridge Temperature {F11.4}
DCAL .IN                                               :Differential Caliper {F11.4}
ED   .F                                                :East Departure {F11.4}
GR_EDTC.GAPI                                           :Gamma Ray {F11.4}
GTEM .DEGF                                             :Generalized Borehole Temperature {F11.4}
HCGR .GAPI                                             :HNGS Computed Gamma Ray {F11.4}
HFK  .%                                                :HNGS Formation Potassium Concentration {F11.4}
HSGR .GAPI                                             :HNGS Standard Gamma-Ray {F11.4}
HTHO .PPM                                              :HNGS Formation Thorium Concentration {F11.4}
HURA .PPM                                              :HNGS Formation Uranium Concentration {F11.4}
KSDR .MD                                               :SDR Permeability {F11.4}
KTIM .MD                                               :Timur/Coates Permeability {F11.4}
ND   .F                                                :North Departure {F11.4}
STIT .F                                                :Stuck Tool Indicator, Total {F11.4}
T2LM .MS                                               :T2 Logarithmic Mean {F11.4}
T2LM_SIG.MS                                            :Standard Deviation of T2 Logarithmic Mean {F11.4}
TCMR .CFCF                                             :Total CMR Porosity {F11.4}
TENS .LBF                                              :Cable Tension {F11.4}
#-----------------------------------------------------------------------------
# 
#      DEPT        BFV        CBP1       CBP2       CBP3       CBP4       CBP5       CBP6       CBP7       CBP8       CDF        CMFF     CMFF_SIG  CMR_PHI_CO  CMRP_3MS     CTEM       DCAL        ED      GR_EDTC      GTEM       HCGR       HFK        HSGR       HTHO       HURA       KSDR       KTIM        ND        STIT       T2LM     T2LM_SIG     TCMR       TENS
#                                                                                                                                                   NV
~A  
   5218.5000     0.7110     0.0518     0.1598     0.3266     0.1728     0.0007     0.0000     0.0000     0.0003  1263.8990     0.0010     0.0054     0.0006     0.5005   122.0706     0.0000    -0.2197    66.3039   111.2565  -999.2500  -999.2500  -999.2500  -999.2500  -999.2500    23.1931     0.0055    33.3782     0.0000     4.7496  -999.2500     0.7120  2574.2222
   5219.0000     0.7110     0.0518     0.1598     0.3266     0.1728     0.0007     0.0000     0.0000     0.0003  1263.8990     0.0010     0.0054     0.0006     0.5005   122.0706     0.0000    -0.2197    66.3039   111.2565  -999.2500  -999.2500  -999.2500  -999.2500  -999.2500    23.1931     0.0055    33.3782     0.0000     4.7496  -999.2500     0.7120  2574.2222
   5219.5000     0.7110     0.0518     0.1598     0.3266     0.1728     0.0007     0.0000     0.0000     0.0003  1263.8990     0.0010     0.0054     0.0006     0.5005   122.0706     0.0000    -0.2197    66.3039   111.2565  -999.2500  -999.2500  -999.2500  -999.2500  -999.2500    23.1931     0.0055    33.3782     0.0000     4.7496  -999.2500     0.7120  2574.2222
   5220.0000     0.7110     0.0518     0.1598     0.3266     0.1728     0.0007     0.0000     0.0000     0.0003  1263.8990     0.0010     0.0054     0.0006     0.5005   122.0706     0.0000    -0.2197    66.3039   111.2565  -999.2500  -999.2500  -999.2500  -999.2500  -999.2500    23.1931     0.0055    33.3782     0.0000     4.7496  -999.2500     0.7120  2574.2222
   5220.5000     0.7110     0.0518     0.1598     0.3266     0.1728     0.0007     0.0000     0.0000     0.0003  1263.8990     0.0010     0.0054     0.0006     0.5005   122.0706     0.0000    -0.2197    67.4359   111.2565  -999.2500  -999.2500  -999.2500  -999.2500  -999.2500    23.1931     0.0055    33.3782     0.0000     4.7496  -999.2500     0.7120  2574.2222
   5221.0000     0.7110     0.0518     0.1598     0.3266     0.1728     0.0007     0.0000     0.0000     0.0003  1263.8990     0.0010     0.0054     0.0006     0.5005   122.0706     0.0000    -0.2197    68.4464   111.2565  -999.2500  -999.2500  -999.2500  -999.2500  -999.2500    23.1931     0.0055    33.3782     0.0000     4.7496  -999.2500     0.7120  2574.2222
   5221.5000     0.7110     0.0518     0.1598     0.3266     0.1728     0.0007     0.0000     0.0000     0.0003  1263.8990     0.0010     0.0054     0.0006     0.5005   122.0706     0.0000    -0.2197    71.3118   111.2565  -999.2500  -999.2500  -999.2500  -999.2500  -999.2500    23.1931     0.0055    33.3782     0.0000     4.7496  -999.2500     0.7120  2574.2222
   5222.0000     0.7110     0.0518     0.1598     0.3266     0.1728     0.0007     0.0000     0.0000     0.0003  1263.8990     0.0010     0.0054     0.0006     0.5005   122.0706     0.0000    -0.2197    76.9890   111.2565  -999.2500  -999.2500  -999.2500  -999.2500  -999.2500    23.1931     0.0055    33.3782     0.0000     4.7496  -999.2500     0.7120  2574.2222
   5222.5000     0.7110     0.0518     0.1598     0.3266     0.1728     0.0007     0.0000     0.0000     0.0003  1263.8990     0.0010     0.0054     0.0006     0.5005   122.0706     0.0000    -0.2197    83.3773   111.2565  -999.2500  -999.2500  -999.2500  -999.2500  -999.2500    23.1931     0.0055    33.3782     0.0000     4.7496  -999.2500     0.7120  2574.2222
   5223.0000     0.7110     0.0518     0.1598     0.3266     0.1728     0.0007     0.0000     0.0000     0.0003  1263.8990     0.0010     0.0054     0.0006     0.5005   122.0706     0.0000    -0.2197    85.7931   111.2565  -999.2500  -999.2500  -999.2500  -999.2500  -999.2500    23.1931     0.0055    33.3782     0.0000     4.7496  -999.2500     0.7120  2574.2222
   5223.5000     0.7110     0.0518     0.1598     0.3266     0.1728     0.0007     0.0000     0.0000     0.0003  1263.8990     0.0010     0.0054     0.0006     0.5005   122.0706     0.0000    -0.2197    85.2916   111.2565  -999.2500  -999.2500  -999.2500  -999.2500  -999.2500    23.1931     0.0055    33.3782     0.0000     4.7496  -999.2500     0.7120  2574.2222
   5224.0000     0.7110     0.0518     0.1598     0.3266     0.1728     0.0007     0.0000     0.0000     0.0003  1263.8990     0.0010     0.0054     0.0006     0.5005   122.0706     0.0000    -0.2197    81.6349   111.2565  -999.2500  -999.2500  -999.2500  -999.2500  -999.2500    23.1931     0.0055    33.3782     0.0000     4.7496  -999.2500     0.7120  2574.2222
   5224.5000     0.7110     0.0518     0.1598     0.3266     0.1728     0.0007     0.0000     0.0000     0.0003  1263.8990     0.0010     0.0054     0.0006     0.5005   122.0706     0.0000    -0.2197    80.3299   111.2565  -999.2500  -999.2500  -999.2500  -999.2500  -999.2500    23.1931     0.0055    33.3782     0.0000     4.7496  -999.2500     0.7120  2574.2222
   5225.0000     0.7110     0.0518     0.1598     0.3266     0.1728     0.0007     0.0000     0.0000     0.0003  1263.8990     0.0010     0.0054     0.0006     0.5005   122.0706     0.0000    -0.2197    75.3495   111.2565  -999.2500  -999.2500  -999.2500  -999.2500  -999.2500    23.1931     0.0055    33.3782     0.0000     4.7496  -999.2500     0.7120  2574.2222
   5225.5000     0.7110     0.0518     0.1598     0.3266     0.1728     0.0007     0.0000     0.0000     0.0003  1263.8990     0.0010     0.0054     0.0006     0.5005   122.0706     0.0000    -0.2197    73.3958   111.2565  -999.2500  -999.2500  -999.2500  -999.2500  -999.2500    23.1931     0.0055    33.3782     0.0000     4.7496  -999.2500     0.7120  2574.2222
   5226.0000     0.7110     0.0518     0.1598     0.3266     0.1728     0.0007     0.0000     0.0000     0.0003  1263.8990     0.0010     0.0054     0.0006     0.5005   122.0706     0.0000    -0.2197    70.2648   111.2565  -999.2500  -999.2500  -999.2500  -999.2500  -999.2500    23.1931     0.0055    33.3782     0.0000     4.7496  -999.2500     0.7120  2574.2222
   5226.5000     0.7110     0.0518     0.1598     0.3266     0.1728     0.0007     0.0000     0.0000     0.0003  1263.8990     0.0010     0.0054     0.0006     0.5005   122.0706     0.0000    -0.2197    71.7007   111.2565    76.7575     3.2989    92.3129     5.3061     1.9693    23.1931     0.0055    33.3782     0.0000     4.7496  -999.2500     0.7120  2574.2222
   5227.0000     0.7110     0.0518     0.1598     0.3266     0.1728     0.0007     0.0000     0.0000     0.0003  1263.8990     0.0010     0.0054     0.0006     0.5005   122.0706     0.0000    -0.2197    70.6980   111.2565    76.0370     3.2756    90.5573     5.2115     1.7793    23.1931     0.0055    33.3782     0.0000     4.7496  -999.2500     0.7120  2574.2222
   5227.5000     0.7110     0.0518     0.1598     0.3266     0.1728     0.0007     0.0000     0.0000     0.0003  1263.8990     0.0010     0.0054     0.0006     0.5005   122.0706     0.0000    -0.2197    68.6314   111.2565    77.1787     3.3718    91.6365     5.0148     1.7566    23.1931     0.0055    33.3782     0.0000     4.7496  -999.2500     0.7120  2574.2222
   5228.0000     0.7110     0.0518     0.1598     0.3266     0.1728     0.0007     0.0000     0.0000     0.0003  1263.8990     0.0010     0.0054     0.0006     0.5005   122.0706     0.0000    -0.2197    66.1211   111.2565    78.0656     3.4182    92.3747     5.0278     1.7469    23.1931     0.0055    33.3782     0.0000     4.7496  -999.2500     0.7120  2574.2222
   5228.5000     0.7110     0.0518     0.1598     0.3266     0.1728     0.0007     0.0000     0.0000     0.0003  1263.8990     0.0010     0.0054     0.0006     0.5005   122.0706     0.0000    -0.2197    67.4343   111.2565    78.9295     3.4509    92.5752     5.1131     1.6557    23.1931     0.0055    33.3782     0.0000     4.7496  -999.2500     0.7120  2574.2222
   5229.0000     0.7110     0.0518     0.1598     0.3266     0.1728     0.0007     0.0000     0.0000     0.0003  1263.8990     0.0010     0.0054     0.0006     0.5005   122.0706     0.0000    -0.2197    71.7520   111.2565    77.7275     3.4294    93.0370     4.8536     1.9002    23.1931     0.0055    33.3782     0.0000     4.7496  -999.2500     0.7120  2574.2222
