~VERSION INFORMATION
VERS.           1.2   :CWLS Log ASCII Standard - VERSION 1.2
WRAP.           NO    :One Line per depth step
PROD.  Schlumberger   :LAS Producer
PROG.  DLIS to ASCII 2.3                               :LAS Program name and version
CREA.        2015/05/30 23:46                          :LAS Creation date {YYYY/MM/DD hh:mm}
DLIS_CREA.  2015-May-30 15:01                          :DLIS Creation date and time {YYYY-MMM-DD hh:mm}
SOURCE.     b43ac578-4029-44ab-a201-dacd5736d378       :DLIS File Name
#--------------------------------------------------
~WELL INFORMATION
#MNEM.UNIT      DATA             DESCRIPTION
#---- ------ --------------   -----------------------------
STRT .F      5200.5000       :START DEPTH     
STOP .F      7212.5000       :STOP DEPTH     
STEP .F       0.5000         :STEP       
NULL .          -999.25      :NULL VALUE
COMP .                 COMPANY:  ADM COMPANY                        
WELL .                    WELL:  CCS#2                              
FLD  .                   FIELD:  WILDCAT                            
LOC  .                LOCATION:  LAT 39.885961                      
CNTY .                  COUNTY:  MACON                              
STAT .                   STATE:  ILLINOIS                           
CTRY .                 COUNTRY:  USA                                
SRVC .         SERVICE COMPANY:  Schlumberger                       
LATI .DEG             LATITUDE:  39.885961 degrees                  
LONG .DEG            LONGITUDE:  -88.888044 degrees                 
API  .              API NUMBER:  12-115-23713-00                    
DATE .                LOG DATE:  29-May-2015
UWI  .          UNIQUE WELL ID:  12-115-23713-00                    
#-----------------------------------------------------------------------------
~PARAMETER INFORMATION
#MNEM.UNIT    VALUE                      DESCRIPTION
#---- -----   --------------------       ------------------------
CN   .        ADM COMPANY                :Company Name
WN   .        CCS#2                      :Well Name
FN   .        WILDCAT                    :Field Name
FL   .        LAT 39.885961              :Field Location
FL1  .        LONG 39.885961             :Field Location, Line 1
COUN .        MACON                      :County or Parish
STAT .        ILLINOIS                   :State or Province
NATI .        USA                        :Nation
DATE .        29-May-2015                :Tools Above Rotary Table Date
APIN .        12-115-23713-00            :API Well Number
SECT .        32                         :Section
TOWN .        17N                        :Township
RANG .        3E                         :Range
DMF  .        KB                         :Drilling Measured From (Name of Drilling Elevation Reference)
LMF  .        KB                         :Logging Measured From (Name of Logging Elevation Reference)
PDAT .        GL                         :Permanent Datum
ENGI .        H. DIMITROV / M. MOHAMMED  :Engineer s Name
WITN .        NICK MALKEWICZ             :Witness s Name
LATI .        39.885961 degrees          :Latitude
LONG .        -88.888044 degrees         :Longitude
LUL  .        BRADFORD                   :Logging Unit Location
LUN  .        3003                       :Logging Unit Number
RUN  .        RUN 3B                     :Run Number
SON  .                                   :Service Order Number
BHT  .DEGF     127.00000                 :Bottom Hole Temperature
BS   .IN        12.25000                 :Bit Size
MDEN .LB/G      22.11532                 :Matrix Density for Density Porosity
DFD  .LB/G       9.20000                 :Drilling Fluid Density
DFV  .S         66.00000                 :Drilling Fluid Viscosity
DFL  .C3         7.60000                 :Drilling Fluid Loss
RMFS .OHMM       0.17000                 :Resistivity of Mud Filtrate Sample
EKB  .F        691.19995                 :Elevation of Kelly Bushing
EGL  .F        675.69995                 :Elevation of Ground Level
BLI  .F       7192.00000                 :Bottom Log Interval
BSAL .PPM     15100.00000                :Borehole Salinity
FLEV .F          8.00000                 :Depth of Drilling Fluid Level to LMF (Log Measured From)
MCST .DEGF      72.50000                 :Mudcake Sample Temperature
MFST .DEGF      72.50000                 :Mud Filtrate Sample Temperature
MRT  .DEGF     127.00000                 :Maximum Recorded Temperature
MST  .DEGF      72.50000                 :Mud Sample Temperature
RMCS .OHMM       0.14000                 :Resistivity of Mud Cake Sample
RMS  .OHMM       0.20000                 :Resistivity of Mud Sample
RW   .OHMM       1.00000                 :Connate Water Resistivity
TDD  .F       7193.00049                 :Driller Total Depth
TDL  .F       7192.00000                 :Logger Total Depth
TLI  .F       5231.00000                 :Top Log Interval
HIDE .        WILDCAT                    :Header Identifier
MATR .        SAND                       :Rock Matrix for Neutron Porosity Corrections
FNUM .           1.00000                 :F-Numerator for Formation Factor Formula
FEXP .           2.00000                 :Exponent "m" for Formation Factor Formula
DFT  .        Fresh Water                :Drilling Fluid Type
DFPH .          11.50000                 :Drilling Fluid pH
MCSS .        Calculated                 :Mudcake Sample Source
MFSS .        Calculated                 :Mud Filtrate Sample Source
FD   .LB/G       8.34540                 :Fluid Density
MSS  .        Active Tank                :Mud Sample Source
OS1  .                                   :Other Services Line 1
OS2  .                                   :Other Services Line 2
OS3  .                                   :Other Services Line 3
OS4  .                                   :Other Services Line 4
OS5  .                                   :Other Services Line 5
R1   .        THANKS FOR CHOOSING SCHLUMBERGER!!! :Remarks Line 1
R2   .        All WELL PROPERTIES PROVIDED BY CLIENT :Remarks Line 2
R3   .        ALL SCALES ON PRESENTATIONS AS PER

CLIENT REQUEST :Remarks Line 3
R4   .        MATRIX  SANDSTONE          :Remarks Line 4
R5   .        MATRIX DENSITY  2.65 G/CC  :Remarks Line 5
R6   .        ALL LOGGING INTERVALS AS PER CLIENT REQUEST :Remarks Line 6
R7   .        MRT = 127 DEGF FROM THE THERMOMETER :Remarks Line 7
R8   .                                   :Remarks Line 8
TCS  .        20 00 00                   :Time Circulation Stopped
TLAB .        11 17 00                   :Time Logger At Bottom
EPD  .C3         675.699951              :Elevation of Permanent Datum above Mean Sea Level
APD  .F          15.500000               :Elevation of Depth Reference (LMF) above Permanent Datum
#-----------------------------------------------------------------------------
~CURVE INFORMATION
#MNEM.UNIT   API CODE                                  DESCRIPTION
#---- -----  --------                                  -----------------------
DEPT .F                                                :DEPTH (BOREHOLE) {F12.4}
C1   .IN                                               :Caliper 1 {F11.4}
C2   .IN                                               :Caliper 2 {F11.4}
CDF  .LBF                                              :Calibrated Downhole Force {F11.4}
CTEM .DEGF                                             :Cartridge Temperature {F11.4}
DCAL .IN                                               :Differential Caliper {F11.4}
DEVI .DEG                                              :Hole Deviation {F11.4}
DEVIM.DEG                                              :Memorized Deviation {F11.4}
DTCO .US/F                                             :Delta-T Compressional {F11.4}
DTSM .US/F                                             :Delta-T Shear {F11.4}
ED   .F                                                :East Departure {F11.4}
GR_EDTC.GAPI                                           :Gamma Ray {F11.4}
GTEM .DEGF                                             :Generalized Borehole Temperature {F11.4}
HAZI .DEG                                              :Hole Azimuth Relative to True North {F11.4}
HAZIM.DEG                                              :Hole Azimuth Relative to True North {F11.4}
ITT  .S                                                :Integrated Transit Time {F11.4}
ND   .F                                                :North Departure {F11.4}
P1AZ .DEG                                              :Pad 1 Azimuth in Horizontal Plane (0 = True North) {F11.4}
PR   .                                                 :Poisson s Ratio {F11.4}
RB   .DEG                                              :Relative Bearing {F11.4}
SDEV .DEG                                              :Sonde Deviation {F11.4}
SDEVM.DEG                                              :Sonde Deviation {F11.4}
SPHI .CFCF                                             :Sonic Porosity {F11.4}
STIT .F                                                :Stuck Tool Indicator, Total {F11.4}
TENS .LBF                                              :Cable Tension {F11.4}
#-----------------------------------------------------------------------------
# 
#      DEPT         C1         C2        CDF        CTEM       DCAL       DEVI      DEVIM       DTCO       DTSM        ED      GR_EDTC      GTEM       HAZI      HAZIM       ITT         ND        P1AZ        PR         RB        SDEV      SDEVM       SPHI       STIT       TENS
#
~A  
# ...
   5867.5000    11.9027    12.0759  1514.3412   126.0235    -0.0572     0.1662     0.1834    64.4635   105.1628   -57.1784    25.8528   116.1302   235.8712   239.5736     0.0902   104.9278    40.5494     0.1990   164.6777     0.1662     0.1834     0.0821     0.0000  3217.5000
   5868.0000    11.8944    12.0759  1516.2075   126.0235    -0.0684     0.1685     0.1836    64.3476   105.1211   -57.1800    26.5336   116.1343   236.7184   240.0052     0.0902   104.9297    39.3625     0.2004   162.6499     0.1685     0.1836     0.0811     0.0000  3191.0000
   5868.5000    11.8944    12.0759  1514.3412   126.0235    -0.0569     0.1706     0.1831    64.3287   104.9675   -57.1815    26.3739   116.1384   237.4044   240.4060     0.0901   104.9315    38.5831     0.1993   161.1759     0.1706     0.1831     0.0809     0.0000  3192.6667
   5869.0000    11.8944    12.0600  1516.6467   126.0235    -0.0469     0.1738     0.1819    64.3694   104.9738   -57.1830    25.1311   116.1425   237.9059   241.2395     0.0901   104.9333    37.5436     0.1987   159.6368     0.1738     0.1819     0.0813     0.0000  3223.3333
   5869.5000    11.9193    12.0680  1517.7760   126.0235    -0.0688     0.1749     0.1799    64.3932   105.5949   -57.1846    26.2024   116.1467   238.0745   241.9682     0.0901   104.9351    36.2245     0.2040   158.1510     0.1749     0.1799     0.0815     0.0000  3264.3335
   5870.0000    11.9234    12.0520  1520.2958   126.0235    -0.0696     0.1761     0.1776    64.3799   104.7660   -57.1861    27.1428   116.1507   238.0452   242.5456     0.0900   104.9368    34.7480     0.1966   156.7066     0.1761     0.1776     0.0814     0.0000  3234.6667
   5870.5000    11.9110    12.0280  1537.2448   126.0235    -0.0456     0.1768     0.1739    64.4686   104.6551   -57.1876    27.7177   116.1548   237.9778   243.4331     0.0900   104.9386    33.3886     0.1942   155.4115     0.1768     0.1739     0.0821     0.0000  3264.0000
   5871.0000    11.9193    12.0440  1549.1135   126.0235    -0.0684     0.1778     0.1695    64.4174   104.5866   -57.1891    28.3351   116.1590   237.6231   243.6474     0.0900   104.9403    31.2925     0.1944   153.6753     0.1778     0.1695     0.0817     0.0000  3299.5000
   5871.5000    11.9317    12.0360  1536.7220   126.0235    -0.0688     0.1775     0.1649    64.5135   104.7630   -57.1907    27.7138   116.1631   237.5908   243.3269     0.0899   104.9421    30.6459     0.1946   153.0519     0.1775     0.1649     0.0825     0.0000  3211.0002
   5872.0000    11.9275    12.0440  1535.4673   126.0235    -0.0575     0.1770     0.1585    64.5487   104.6917   -57.1922    26.0472   116.1672   237.5656   242.7671     0.0899   104.9438    30.1664     0.1934   152.6012     0.1770     0.1585     0.0828     0.0000  3250.5002
   5872.5000    11.9275    12.0440  1541.0037   126.0235    -0.0688     0.1766     0.1521    64.4735   105.0703   -57.1937    25.4944   116.1713   237.6661   241.6540     0.0899   104.9455    28.9720     0.1980   151.3079     0.1766     0.1521     0.0821     0.0000  3239.0000
   5873.0000    11.9275    12.0440  1536.2828   126.0235    -0.0469     0.1761     0.1423    64.5992   104.8983   -57.1952    23.7243   116.1754   237.7644   239.8123     0.0898   104.9472    28.0216     0.1945   150.2633     0.1761     0.1423     0.0832     0.0000  3221.0000
   5873.5000    11.9358    12.0440  1535.4045   126.0235    -0.0456     0.1752     0.1342    64.4922   104.9339   -57.1968    24.7221   116.1795   237.9807   237.7760     0.0898   104.9489    27.3547     0.1965   149.3742     0.1752     0.1342     0.0823     0.0000  3253.0000
   5874.0000    11.9358    12.0440  1537.6265   126.0235    -0.0572     0.1752     0.1260    64.3604   104.9155   -57.1983    25.7820   116.1836   238.0197   235.1192     0.0898   104.9506    26.8556     0.1983   148.8383     0.1752     0.1260     0.0812     0.0000  3187.3333
   5874.5000    11.9234    12.0360  1534.5890   126.0235    -0.0688     0.1769     0.1154    64.2073   104.7922   -57.1998    27.0725   116.1877   238.3298   231.2798     0.0897   104.9523    25.8418     0.1995   147.5116     0.1769     0.1154     0.0799     0.0000  3184.0000
   5875.0000    11.9358    12.0440  1535.2582   126.0235    -0.0456     0.1774     0.1084    64.1609   103.9049   -57.2013    27.0967   116.1918   238.4391   227.9760     0.0897   104.9540    25.0451     0.1919   146.6033     0.1774     0.1084     0.0795     0.0000  3210.6667
   5875.5000    11.9358    12.0520  1537.7466   126.0235    -0.0572     0.1785     0.1029    64.0879   102.5292   -57.2028    25.9722   116.1959   238.7032   224.4611     0.0897   104.9556    24.3008     0.1794   145.6004     0.1785     0.1029     0.0789     0.0000  3177.6667
   5876.0000    11.9193    12.0360  1532.8051   126.0235    -0.0572     0.1796     0.0996    64.0674   102.4229   -57.2043    27.3956   116.2000   238.8210   221.8113     0.0896   104.9572    23.3712     0.1786   144.5454     0.1796     0.0996     0.0787     0.0000  3197.6667
   5876.5000    11.9275    12.0480  1533.7734   126.0235    -0.0688     0.1815     0.0983    63.2803   102.4039   -57.2058    27.0286   116.2041   239.1888   219.8797     0.0896   104.9589    22.0419     0.1911   142.8484     0.1815     0.0983     0.0719     0.0000  3216.3335
   5877.0000    11.9275    12.0360  1531.5568   126.0235    -0.0469     0.1825     0.0985    63.6030   102.4555   -57.2074    25.5526   116.2082   239.3615   218.1204     0.0896   104.9605    21.3547     0.1865   141.9913     0.1825     0.0985     0.0747     0.0000  3190.3333
   5877.5000    11.9358    12.0520  1529.9048   126.0235    -0.0572     0.1834     0.0992    62.6035   101.7785   -57.2089    23.3431   116.2123   239.5736   217.8362     0.0896   104.9622    20.2443     0.1957   140.6732     0.1834     0.0992     0.0659     0.0000  3166.3335
   5878.0000    11.9358    12.0320  1530.7831   126.0235    -0.0567     0.1838     0.1005    62.6298   101.1899   -57.2104    25.3437   116.2164   240.1280   216.6734     0.0895   104.9638    18.6996     0.1895   138.5712     0.1838     0.1005     0.0662     0.0000  3194.0000
   5878.5000    11.9275    12.0520  1529.3192   126.0235    -0.0456     0.1831     0.1008    62.2126   100.8121   -57.2119    25.5288   116.2205   240.5865   216.4496     0.0895   104.9653    17.8432     0.1925   137.2527     0.1831     0.1008     0.0624     0.0000  3178.5000
   5879.0000    11.9110    12.0440  1533.7734   126.0235    -0.0456     0.1819     0.1020    62.1784   100.2497   -57.2134    29.8548   116.2246   241.2395   216.2033     0.0895   104.9669    16.8843     0.1874   135.6444     0.1819     0.1020     0.0621     0.0000  3205.3335
   5879.5000    11.9317    12.0360  1531.5150   126.0235    -0.0456     0.1803     0.1024    61.7604    99.3034   -57.2149    43.2716   116.2287   242.4866   215.2691     0.0894   104.9685    15.4874     0.1846   133.0010     0.1803     0.1024     0.0583     0.0000  3195.0000
   5880.0000    11.9937    12.0879  1524.6559   126.0235    -0.0129     0.1774     0.1032    61.3127    99.0343   -57.2164    62.2066   116.2328   243.0354   214.0138     0.0894   104.9700    14.3940     0.1892   131.3569     0.1774     0.1032     0.0542     0.0000  3175.6667
   5880.5000    11.9358    12.0440  1516.7853   126.0235    -0.0232     0.1739     0.1033    61.1611    98.1732   -57.2179    72.3765   116.2370   243.4331   211.1258     0.0894   104.9715    13.7052     0.1828   130.2684     0.1739     0.1033     0.0527     0.0000  3172.3335
   5881.0000    11.9275    12.0201  1544.0830   126.0235    -0.0344     0.1684     0.1063    60.8741    96.9543   -57.2194    69.0631   116.2411   243.8161   208.6315     0.0893   104.9731    12.5127     0.1746   128.7019     0.1684     0.1063     0.0500     0.0000  3227.5000
   5881.5000    11.9275    12.0201  1592.3682   126.0235    -0.0456     0.1638     0.1101    60.7211    96.0708   -57.2208    53.8075   116.2452   243.5756   205.6143     0.0893   104.9746    11.0123     0.1674   127.4378     0.1638     0.1101     0.0486     0.0000  3305.5000
