~VERSION INFORMATION
VERS.           1.2   :CWLS Log ASCII Standard - VERSION 1.2
WRAP.           NO    :One Line per depth step
PROD.  Schlumberger   :LAS Producer
PROG.  DLIS to ASCII 2.3                               :LAS Program name and version
CREA.        2015/01/14 20:42                          :LAS Creation date {YYYY/MM/DD hh:mm}
DLIS_CREA.  2015-Jan-14 13:26                          :DLIS Creation date and time {YYYY-MMM-DD hh:mm}
SOURCE.     b1232dd5-b707-4891-82b9-d24dcc6cb5d4       :DLIS File Name
#--------------------------------------------------
~WELL INFORMATION
#MNEM.UNIT      DATA             DESCRIPTION
#---- ------ --------------   -----------------------------
STRT .F      -8.0000         :START DEPTH     
STOP .F      352.5000        :STOP DEPTH     
STEP .F       0.5000         :STEP       
NULL .          -999.25      :NULL VALUE
COMP .                 COMPANY:  ADM Company                        
WELL .                    WELL:  CCS#2                              
FLD  .                   FIELD:  Wildcat                            
LOC  .                LOCATION:  Latitude: 39.885961                
CNTY .                  COUNTY:  Macon                              
STAT .                   STATE:  Illinois                           
CTRY .                 COUNTRY:  USA                                
SRVC .         SERVICE COMPANY:  Schlumberger                       
LATI .DEG             LATITUDE:  39° 53' 9.46" N                    
LONG .DEG            LONGITUDE:  88° 53' 16.959" W                  
API  .              API NUMBER:  12-115-23713-00                    
DATE .                LOG DATE:  13-Jan-2015
UWI  .          UNIQUE WELL ID:                                     
#-----------------------------------------------------------------------------
~PARAMETER INFORMATION
#MNEM.UNIT    VALUE                      DESCRIPTION
#---- -----   --------------------       ------------------------
CN   .        ADM Company                :Company Name
WN   .        CCS#2                      :Well Name
FN   .        Wildcat                    :Field Name
FL   .        Latitude  39.885961        :Field Location
FL1  .        Longitude  -88.888044      :Field Location, Line 1
COUN .        Macon                      :County or Parish
STAT .        Illinois                   :State or Province
NATI .        USA                        :Nation
DATE .        13-Jan-2015                :Tools Above Rotary Table Date
APIN .        12-115-23713-00            :API Well Number
SECT .        32                         :Section
TOWN .        17N                        :Township
RANG .        3E                         :Range
DMF  .        KB                         :Drilling Measured From (Name of Drilling Elevation Reference)
LMF  .        KB                         :Logging Measured From (Name of Logging Elevation Reference)
PDAT .        GL                         :Permanent Datum
ENGI .        Devin Arnold               :Engineer s Name
WITN .        Nick Malkewicz             :Witness s Name
LATI .        39° 53' 9.46  N            :Latitude
LONG .        88° 53' 16.959  W          :Longitude
LUL  .        Bradford                   :Logging Unit Location
LUN  .        3095                       :Logging Unit Number
RUN  .        2                          :Run Number
SON  .        D71E-00006                 :Service Order Number
BHT  .DEGF      58.00000                 :Bottom Hole Temperature
BS   .IN        26.00000                 :Bit Size
MDEN .G/C3       2.71000                 :Matrix Density for Density Porosity
DFD  .LB/G      10.10000                 :Drilling Fluid Density
DFV  .S       -999.25000                 :Drilling Fluid Viscosity
DFL  .C3      -999.25000                 :Drilling Fluid Loss
RMFS .OHMM       1.23200                 :Resistivity of Mud Filtrate Sample
EKB  .F        691.19995                 :Elevation of Kelly Bushing
EGL  .F        675.69995                 :Elevation of Ground Level
BLI  .F        345.00000                 :Bottom Log Interval
BSAL .PPM        0.00000                 :Borehole Salinity
FLEV .F          8.00000                 :Depth of Drilling Fluid Level to LMF (Log Measured From)
MCST .DEGF      42.80000                 :Mudcake Sample Temperature
MFST .DEGF      42.80000                 :Mud Filtrate Sample Temperature
MRT  .DEGF      58.00000                 :Maximum Recorded Temperature
MST  .DEGF      42.80000                 :Mud Sample Temperature
RMCS .OHMM       1.84800                 :Resistivity of Mud Cake Sample
RMS  .OHMM       1.54000                 :Resistivity of Mud Sample
RW   .OHMM       1.00000                 :Connate Water Resistivity
TDD  .F        349.00000                 :Driller Total Depth
TDL  .F        349.00000                 :Logger Total Depth
TLI  .F         50.00000                 :Top Log Interval
HIDE .        Wildcat                    :Header Identifier
MATR .        LIME                       :Rock Matrix for Neutron Porosity Corrections
FNUM .           1.00000                 :F-Numerator for Formation Factor Formula
FEXP .           2.00000                 :Exponent "m" for Formation Factor Formula
DFT  .        Fresh Mud                  :Drilling Fluid Type
DFPH .        -999.25000                 :Drilling Fluid pH
MCSS .        Calculated                 :Mudcake Sample Source
MFSS .        Calculated                 :Mud Filtrate Sample Source
FD   .G/C3       1.00000                 :Fluid Density
MSS  .        Active Tank                :Mud Sample Source
OS1  .                                   :Other Services Line 1
OS2  .                                   :Other Services Line 2
OS3  .                                   :Other Services Line 3
OS4  .                                   :Other Services Line 4
OS5  .                                   :Other Services Line 5
R1   .        Matrix Density  Limestone. :Remarks Line 1
R2   .        Mud Sample taken on location. :Remarks Line 2
R3   .        Presentations as per client request. :Remarks Line 3
R4   .        No Chemical Sources ran due to possible potable water zones. :Remarks Line 4
R5   .        Bottom Hole Temperature taken from GM2 temperature log provided by the client. 58degF :Remarks Line 5
R6   .                                   :Remarks Line 6
R7   .                                   :Remarks Line 7
R8   .                                   :Remarks Line 8
TCS  .        19 45 00                   :Time Circulation Stopped
TLAB .        03 30 00                   :Time Logger At Bottom
EPD  .C3         675.699951              :Elevation of Permanent Datum above Mean Sea Level
APD  .F          15.500000               :Elevation of Depth Reference (LMF) above Permanent Datum
#-----------------------------------------------------------------------------
~CURVE INFORMATION
#MNEM.UNIT   API CODE                                  DESCRIPTION
#---- -----  --------                                  -----------------------
DEPT .F                                                :DEPTH (BOREHOLE) {F12.4}
CDF  .LBF                                              :Calibrated Downhole Force {F11.4}
CTEM .DEGF                                             :Cartridge Temperature {F11.4}
DCAL .IN                                               :Differential Caliper {F11.4}
DT   .US/F                                             :Delta-T (also called Slowness or Interval Transit Time) {F11.4}
ED   .F                                                :East Departure {F11.4}
GR_EDTC.GAPI                                           :Gamma Ray {F11.4}
GTEM .DEGF                                             :Generalized Borehole Temperature {F11.4}
HAZI .DEG                                              :Hole Azimuth Relative to True North {F11.4}
HAZIM.DEG                                              :Memorized Hole Azimuth {F11.4}
ITT  .S                                                :Integrated Transit Time {F11.4}
ND   .F                                                :North Departure {F11.4}
P1AZ .DEG                                              :Pad 1 Azimuth in Horizontal Plane (0 = True North) {F11.4}
RB   .DEG                                              :Relative Bearing {F11.4}
SDEV .DEG                                              :Sonde Deviation {F11.4}
SDEVM.DEG                                              :Memorized Sonde Deviation {F11.4}
SPHI .CFCF                                             :Sonic Porosity {F11.4}
STIT .F                                                :Stuck Tool Indicator, Total {F11.4}
TENS .LBF                                              :Cable Tension {F11.4}
#-----------------------------------------------------------------------------
# 
#      DEPT        CDF        CTEM       DCAL        DT         ED      GR_EDTC      GTEM       HAZI      HAZIM       ITT         ND        P1AZ        RB        SDEV      SDEVM       SPHI       STIT       TENS
#
~A  
# ...
    125.0000   650.3111    74.6353    -5.4905   -58.4752     0.3772    39.0916    55.7601   306.4587   257.6646     0.0000     0.1997   257.4840   311.0510     2.4401     2.4628  -999.2500     0.0000   648.5001
    125.5000   652.3425    74.6353    -5.5174  -244.3683     0.3740    39.4018    55.7651   305.7009   257.1203     0.0000     0.2024   256.7324   311.0574     2.4409     2.4635  -999.2500     0.0000   689.2667
    126.0000   652.9113    74.6353    -5.4600   -47.7490     0.3707    41.1325    55.7701   304.9962   256.5598     0.0000     0.2050   256.0850   311.1150     2.4418     2.4645  -999.2500     0.0000   697.3572
    126.5000   652.3933    74.6353    -5.4887   -48.6964     0.3675    43.7276    55.7751   304.4905   255.9911     0.0000     0.2075   255.7172   311.2527     2.4424     2.4653  -999.2500     0.0000   670.3572
    127.0000   651.0390    74.6353    -5.4888   -53.3053     0.3643    43.8834    55.7801   303.8335   255.5618     0.0000     0.2100   255.1927   311.3851     2.4432     2.4658  -999.2500     0.0000   725.0714
    127.5000   651.3522    74.6353    -6.2460   136.6130     0.3609    46.1979    55.7851   303.1881   254.9859     0.0244     0.2124   254.6638   311.5015     2.4439     2.4659     0.6061     0.0000   701.0000
    128.0000   651.9871    74.6353    -6.5460   -64.5983     0.3576    45.7304    55.7901   302.6977   254.4159     0.0000     0.2148   254.1616   311.4899     2.4441     2.4660     0.5890     0.0000   766.5001
    128.5000   651.6315    74.6353    -6.4663   -65.1086     0.3541    47.7354    55.7951   302.0391   253.9940     0.0000     0.2172   253.4488   311.4357     2.4446     2.4660  -999.2500     0.0000   737.2667
    129.0000   653.1043    74.6353    -6.5186   129.8000     0.3505    50.3357    55.8001   301.3668   253.4410     0.0243     0.2196   252.7735   311.4324     2.4451     2.4658     0.5549     0.0000   724.0000
    129.5000   651.7026    74.6353    -6.4913   130.2109     0.3470    54.2802    55.8051   300.8500   252.8959     0.0243     0.2218   252.3241   311.4997     2.4452     2.4656     0.5580     0.0000   727.6429
    130.0000   652.3933    74.6353    -6.4937   136.1377     0.3434    53.2546    55.8101   300.1508   252.4871     0.0242     0.2241   251.7056   311.5805     2.4457     2.4653     0.6025     0.0000   753.8000
    130.5000   651.0627    74.6353    -6.3819   130.4296     0.3396    47.3319    55.8151   299.4392   251.9466     0.0241     0.2264   251.0335   311.6201     2.4460     2.4652     0.5596     0.0000   786.2858
    131.0000   654.1201    74.6353    -6.3277   128.7948     0.3359    43.1313    55.8201   298.7274   251.4049     0.0241     0.2285   250.2749   311.5736     2.4466     2.4649     0.5473     0.0000   804.0715
    131.5000   651.0475    74.6353    -6.3536   121.4191     0.3322    44.9282    55.8251   298.1974   250.8565     0.0240     0.2306   249.6685   311.4973     2.4471     2.4648     0.4919     0.0000   783.7857
    132.0000   651.6789    74.6353    -6.2998   115.2014     0.3285    46.4429    55.8301   297.4958   250.4409     0.0240     0.2327   248.9244   311.4548     2.4478     2.4648     0.4451     0.0000   819.9286
    132.5000   650.9713    74.6353    -6.2741   124.8343     0.3246    44.8957    55.8351   296.8143   249.8809     0.0239     0.2347   248.1671   311.3790     2.4486     2.4649     0.5176     0.0000   843.4286
    133.0000   653.5750    74.6353    -6.3027   126.1453     0.3206    45.4902    55.8401   296.3132   249.3112     0.0238     0.2368   247.6091   311.3220     2.4491     2.4651     0.5274     0.0000   794.5334
    133.5000   651.0221    74.6353    -6.1924   123.7353     0.3166    45.5747    55.8451   295.6646   248.8747     0.0238     0.2388   246.8996   311.2610     2.4497     2.4655     0.5093     0.0000   818.7857
    134.0000   652.0632    74.6353    -6.1394   124.7890     0.3126    52.0670    55.8501   295.0240   248.2828     0.0237     0.2407   246.3151   311.3171     2.4502     2.4657     0.5172     0.0000   806.1429
    134.5000   651.0390    74.6353    -6.1108   123.5301     0.3086    51.9383    55.8551   294.5416   247.6689     0.0236     0.2426   246.1271   311.6118     2.4503     2.4660     0.5077     0.0000   856.6429
    135.0000   650.9967    74.6353    -6.0851   125.3081     0.3045    54.1248    55.8601   293.8868   247.1924     0.0236     0.2444   245.7219   311.8611     2.4502     2.4662     0.5211     0.0000   839.2143
    135.5000   653.9541    74.6353    -6.0294   130.1721     0.3004    53.3709    55.8651   293.2072   246.5316     0.0235     0.2462   244.9897   311.8085     2.4499     2.4664     0.5577     0.0000   817.4286
    136.0000   652.4442    74.6353    -5.7299   134.4964     0.2961    51.2326    55.8701   292.6696   245.8425     0.0235     0.2480   244.2503   311.6063     2.4494     2.4664     0.5902     0.0000   832.4667
    136.5000   653.0789    74.6353    -5.7315   -68.4028     0.2917    48.4247    55.8751   291.9160   245.1216     0.0000     0.2498   243.4082   311.5186     2.4487     2.4663     0.5920     0.0000   882.2143
    137.0000   653.0535    74.6353    -5.7856   -62.0412     0.2874    50.4044    55.8801   291.1079   244.5617     0.0000     0.2514   242.7150   311.6332     2.4478     2.4663  -999.2500     0.0000   889.7143
    137.5000   653.6461    74.6353    -5.5156   -64.1697     0.2831    55.1457    55.8851   290.4689   243.7933     0.0000     0.2530   242.1519   311.7089     2.4471     2.4661  -999.2500     0.0000   860.9286
    138.0000   650.6666    74.6353    -5.5156   -60.9662     0.2788    57.4303    55.8901   289.5754   243.0011     0.0000     0.2546   241.2331   311.6836     2.4463     2.4659  -999.2500     0.0000   821.8572
    138.5000   653.2432    74.6353    -5.5980   -57.4628     0.2745    57.4918    55.8951   288.6448   242.3950     0.0000     0.2562   240.1931   311.5745     2.4457     2.4657  -999.2500     0.0000   848.4286
    139.0000   652.0124    74.6353    -5.7867   -56.1748     0.2700    62.3770    55.9001   287.9216   241.5814     0.0000     0.2577   239.4293   311.5334     2.4451     2.4655  -999.2500     0.0000   879.0667
    139.5000   653.9067    74.6353    -5.8682  -253.2015     0.2655    67.9957    55.9051   286.9378   240.7674     0.0000     0.2592   238.3556   311.4439     2.4448     2.4652  -999.2500     0.0000   853.2143
    140.0000   650.6920    74.6353    -5.7597  -253.8432     0.2612    68.8459    55.9101   285.9394   239.9608     0.0000     0.2607   237.3284   311.4150     2.4446     2.4649  -999.2500     0.0000   805.0715
    140.5000   653.0535    74.6353    -5.7312  -254.2468     0.2568    64.6035    55.9151   285.1862   239.3655     0.0000     0.2621   236.5425   311.3824     2.4443     2.4649  -999.2500     0.0000   831.1429
    141.0000   652.0107    74.6353    -5.6788  -254.4128     0.2525    61.9588    55.9201   284.1837   238.5929     0.0000     0.2634   235.5067   311.3486     2.4443     2.4648  -999.2500     0.0000   867.3571
    141.5000   652.3425    74.6353    -5.5442  -254.5643     0.2481    60.2588    55.9251   283.1855   237.8479     0.0000     0.2647   234.4082   311.2483     2.4442     2.4649  -999.2500     0.0000   887.5715
    142.0000   654.6177    74.6353    -5.5713   -56.3250     0.2438    57.9908    55.9301   282.1966   237.1355     0.0000     0.2660   233.4685   311.2979     2.4440     2.4650  -999.2500     0.0000   855.3571
    142.5000   651.7078    74.6353    -5.5443   -56.8467     0.2393    56.0011    55.9351   281.4579   236.6172     0.0000     0.2673   232.8667   311.4346     2.4441     2.4654  -999.2500     0.0000   829.6000
    143.0000   651.4030    74.6353    -5.5713   -59.5521     0.2347    53.3418    55.9401   280.4774   235.9494     0.0000     0.2685   231.9165   311.4651     2.4441     2.4656  -999.2500     0.0000   849.7143
    143.5000   652.6506    74.6353    -5.5713   -61.4726     0.2303    52.7753    55.9451   279.4970   235.2957     0.0000     0.2697   230.8780   311.4070     2.4442     2.4660  -999.2500     0.0000   881.5714
