~VERSION INFORMATION
VERS.           1.2   :CWLS Log ASCII Standard - VERSION 1.2
WRAP.           NO    :One Line per depth step
PROD.  Schlumberger   :LAS Producer
PROG.  DLIS to ASCII 2.3                               :LAS Program name and version
CREA.        2015/01/14 20:43                          :LAS Creation date {YYYY/MM/DD hh:mm}
DLIS_CREA.  2015-Jan-14 13:25                          :DLIS Creation date and time {YYYY-MMM-DD hh:mm}
SOURCE.     d5fbb1e7-1f44-4e43-b8fb-7fdeb49dde7f       :DLIS File Name
#--------------------------------------------------
~WELL INFORMATION
#MNEM.UNIT      DATA             DESCRIPTION
#---- ------ --------------   -----------------------------
STRT .F       8.0000         :START DEPTH     
STOP .F      353.0000        :STOP DEPTH     
STEP .F       0.5000         :STEP       
NULL .          -999.25      :NULL VALUE
COMP .                 COMPANY:  ADM Company                        
WELL .                    WELL:  CCS#2                              
FLD  .                   FIELD:  Wildcat                            
LOC  .                LOCATION:  Latitude: 39.885961                
CNTY .                  COUNTY:  Macon                              
STAT .                   STATE:  Illinois                           
CTRY .                 COUNTRY:  USA                                
SRVC .         SERVICE COMPANY:  Schlumberger                       
LATI .DEG             LATITUDE:  39° 53' 9.46" N                    
LONG .DEG            LONGITUDE:  88° 53' 16.959" W                  
API  .              API NUMBER:  12-115-23713-00                    
DATE .                LOG DATE:  12-Jan-2015
UWI  .          UNIQUE WELL ID:                                     
#-----------------------------------------------------------------------------
~PARAMETER INFORMATION
#MNEM.UNIT    VALUE                      DESCRIPTION
#---- -----   --------------------       ------------------------
CN   .        ADM Company                :Company Name
WN   .        CCS#2                      :Well Name
FN   .        Wildcat                    :Field Name
FL   .        Latitude  39.885961        :Field Location
FL1  .        Longitude  -88.888044      :Field Location, Line 1
COUN .        Macon                      :County or Parish
STAT .        Illinois                   :State or Province
NATI .        USA                        :Nation
DATE .        12-Jan-2015                :Tools Above Rotary Table Date
APIN .        12-115-23713-00            :API Well Number
SECT .        32                         :Section
TOWN .        17N                        :Township
RANG .        3E                         :Range
DMF  .        KB                         :Drilling Measured From (Name of Drilling Elevation Reference)
LMF  .        KB                         :Logging Measured From (Name of Logging Elevation Reference)
PDAT .        GL                         :Permanent Datum
ENGI .        Devin Arnold               :Engineer s Name
WITN .        Nick Malkewicz             :Witness s Name
LATI .        39° 53' 9.46  N            :Latitude
LONG .        88° 53' 16.959  W          :Longitude
LUL  .        Bradford                   :Logging Unit Location
LUN  .        3095                       :Logging Unit Number
RUN  .        1                          :Run Number
SON  .        D71E-00006                 :Service Order Number
BHT  .DEGF      58.00000                 :Bottom Hole Temperature
BS   .IN        26.00000                 :Bit Size
MDEN .G/C3       2.71000                 :Matrix Density for Density Porosity
DFD  .LB/G      10.10000                 :Drilling Fluid Density
DFV  .S         60.00000                 :Drilling Fluid Viscosity
DFL  .C3      -999.25000                 :Drilling Fluid Loss
RMFS .OHMM       1.23200                 :Resistivity of Mud Filtrate Sample
EKB  .F        691.19995                 :Elevation of Kelly Bushing
EGL  .F        675.69995                 :Elevation of Ground Level
BLI  .F        342.00000                 :Bottom Log Interval
BSAL .PPM        0.00000                 :Borehole Salinity
FLEV .F          8.00000                 :Depth of Drilling Fluid Level to LMF (Log Measured From)
MCST .DEGF      42.80000                 :Mudcake Sample Temperature
MFST .DEGF      42.80000                 :Mud Filtrate Sample Temperature
MRT  .DEGF      58.00000                 :Maximum Recorded Temperature
MST  .DEGF      42.80000                 :Mud Sample Temperature
RMCS .OHMM       1.84800                 :Resistivity of Mud Cake Sample
RMS  .OHMM       1.54000                 :Resistivity of Mud Sample
RW   .OHMM       1.00000                 :Connate Water Resistivity
TDD  .F        349.00000                 :Driller Total Depth
TDL  .F        349.00000                 :Logger Total Depth
TLI  .F         50.00000                 :Top Log Interval
HIDE .        Wildcat                    :Header Identifier
MATR .        LIME                       :Rock Matrix for Neutron Porosity Corrections
FNUM .           1.00000                 :F-Numerator for Formation Factor Formula
FEXP .           2.00000                 :Exponent "m" for Formation Factor Formula
DFT  .        Fresh Mud                  :Drilling Fluid Type
DFPH .        -999.25000                 :Drilling Fluid pH
MCSS .        Calculated                 :Mudcake Sample Source
MFSS .        Calculated                 :Mud Filtrate Sample Source
FD   .G/C3       1.00000                 :Fluid Density
MSS  .        Active Tank                :Mud Sample Source
OS1  .                                   :Other Services Line 1
OS2  .                                   :Other Services Line 2
OS3  .                                   :Other Services Line 3
OS4  .                                   :Other Services Line 4
OS5  .                                   :Other Services Line 5
R1   .        Matrix Density  Limestone. :Remarks Line 1
R2   .        Mud Sample taken on location. :Remarks Line 2
R3   .        Presentations as per client request. :Remarks Line 3
R4   .        No Chemical Sources ran due to possible potable water zones. :Remarks Line 4
R5   .        Bottom Hole Temperature taken from GM2 temperature log provided by the client. 58degF :Remarks Line 5
R6   .                                   :Remarks Line 6
R7   .                                   :Remarks Line 7
R8   .        APS ran outside max bit size range of 20in causing faulty data. :Remarks Line 8
TCS  .        19 45 00                   :Time Circulation Stopped
TLAB .        01 15 00                   :Time Logger At Bottom
NMT  .        NOBARITE                   :HRDD Mud Type for Nuclear Devices
EPD  .C3         675.699951              :Elevation of Permanent Datum above Mean Sea Level
APD  .F          15.500000               :Elevation of Depth Reference (LMF) above Permanent Datum
#-----------------------------------------------------------------------------
~CURVE INFORMATION
#MNEM.UNIT   API CODE                                  DESCRIPTION
#---- -----  --------                                  -----------------------
DEPT .F                                                :DEPTH (BOREHOLE) {F12.4}
AF10 .OHMM                                             :Array Induction Four Foot Resistivity A10 {F11.4}
AF20 .OHMM                                             :Array Induction Four Foot Resistivity A20 {F11.4}
AF30 .OHMM                                             :Array Induction Four Foot Resistivity A30 {F11.4}
AF60 .OHMM                                             :Array Induction Four Foot Resistivity A60 {F11.4}
AF90 .OHMM                                             :Array Induction Four Foot Resistivity A90 {F11.4}
AO10 .OHMM                                             :Array Induction One Foot Resistivity A10 {F11.4}
AO20 .OHMM                                             :Array Induction One Foot Resistivity A20 {F11.4}
AO30 .OHMM                                             :Array Induction One Foot Resistivity A30 {F11.4}
AO60 .OHMM                                             :Array Induction One Foot Resistivity A60 {F11.4}
AO90 .OHMM                                             :Array Induction One Foot Resistivity A90 {F11.4}
AT10 .OHMM                                             :Array Induction Two Foot Resistivity A10 {F11.4}
AT20 .OHMM                                             :Array Induction Two Foot Resistivity A20 {F11.4}
AT30 .OHMM                                             :Array Induction Two Foot Resistivity A30 {F11.4}
AT60 .OHMM                                             :Array Induction Two Foot Resistivity A60 {F11.4}
AT90 .OHMM                                             :Array Induction Two Foot Resistivity A90 {F11.4}
AFEC .HZ                                               :Far Detector Count Rate {F11.4}
ANEC .HZ                                               :Near Detector Count Rate {F11.4}
AORT .OHMM                                             :Array Induction One Foot Rt {F11.4}
AORX .OHMM                                             :Array Induction One Foot Rxo {F11.4}
APDC .CFCF                                             :Near/Array Corrected Dolomite Porosity {F11.4}
APLC .PU                                               :Near/Array Corrected Limestone Porosity {F11.4}
APSC .CFCF                                             :Near/Array Corrected Sandstone Porosity {F11.4}
CDF  .LBF                                              :Calibrated Downhole Force {F11.4}
CTEM .DEGF                                             :Cartridge Temperature {F11.4}
DCAL .IN                                               :Differential Caliper {F11.4}
ED   .F                                                :East Departure {F11.4}
FPLC .CFCF                                             :Near/Far Corrected Limestone Porosity {F11.4}
GR_EDTC.GAPI                                           :Gamma Ray {F11.4}
GTEM .DEGF                                             :Generalized Borehole Temperature {F11.4}
HASC .CFCF                                             :APS High Resolution Near/Array Corrected Sandstone Porosity {F11.4}
HSIG .CU                                               :APS High Resolution Formation Capture Cross Section {F11.4}
HSTO .IN                                               :APS High Resolution Effective Standoff in Limestone {F11.4}
ND   .F                                                :North Departure {F11.4}
QSGF .                                                 :Quality of Formation Sigma {F11.4}
SIGF .CU                                               :Formation Capture Cross Section {F11.4}
SP   .MV                                               :Spontaneous Potential {F11.4}
SPAR .MV                                               :SP, Armor Return Compensated {F11.4}
STIT .F                                                :Stuck Tool Indicator, Total {F11.4}
STOF .IN                                               :Effective Standoff in Limestone {F11.4}
STPC .CFCF                                             :Corrected Standoff Porosity {F11.4}
TENS .LBF                                              :Cable Tension {F11.4}
#-----------------------------------------------------------------------------
# 
#      DEPT        AF10       AF20       AF30       AF60       AF90       AO10       AO20       AO30       AO60       AO90       AT10       AT20       AT30       AT60       AT90       AFEC       ANEC       AORT       AORX       APDC       APLC       APSC       CDF        CTEM       DCAL        ED        FPLC     GR_EDTC      GTEM       HASC       HSIG       HSTO        ND        QSGF       SIGF        SP        SPAR       STIT       STOF       STPC       TENS
#
~A  
# ...
     71.0000     7.3791    12.4158    18.9986    38.8560    40.6142     7.4151    12.5573    19.2833    54.0272    53.8845     7.4169    12.5252    19.4593    40.5471    51.0165   350.5000  2367.4285    61.6213     6.5371     0.8596    86.1253     0.8633   644.7755    90.4471     0.0000     0.3673     1.0233    43.7761    55.2201     0.8526    25.3511    -0.2500    -0.1733     0.2504    24.6189  -372.1987  -370.8608     0.0000    -0.2961     0.7887   680.8929
     71.5000     7.2721    12.2015    18.5870    38.3187    40.3842     7.2177    12.0955    18.8493    48.1516    47.8826     7.2533    12.1689    18.6267    38.5633    50.8648   321.7143  2406.2856    53.7238     6.3812     0.9208    92.1708     0.9225   656.2531    90.4471     0.0000     0.3706     1.2163    44.1735    55.2251     0.9521    23.9793    -0.1055    -0.1707     0.2404    25.3132  -373.7732  -372.2125     0.0000    -0.3074     0.7897   710.3929
     72.0000     7.1800    12.0212    18.1253    37.5391    40.0578     7.0809    11.8200    17.6770    41.8681    41.5779     7.1118    11.8204    17.9214    37.2240    51.1181   329.1429  2425.1428    45.9720     6.2660     0.8913    89.2576     0.8939   645.6802    90.4471     0.0000     0.3738     1.2258    45.3065    55.2301     0.9349    24.1940    -0.2524    -0.1681     0.2656    24.5456  -374.3817  -373.1399     0.0000    -0.3539     0.7892   574.4814
     72.5000     7.1160    11.9038    17.7776    36.7297    39.5131     6.8996    11.3938    16.6182    37.3915    37.0913     6.9792    11.5003    17.2111    35.4946    50.5067   354.8571  2396.5715    40.6165     6.1572     0.9095    91.0550     0.9115   640.9792    90.4471     0.0000     0.3770     0.9354    46.6305    55.2351     0.8755    25.9234    -0.3293    -0.1654     0.2595    24.7127  -374.8403  -373.8043     0.0000    -0.3428     0.7901   593.2593
     73.0000     7.1033    11.9052    17.6184    36.2034    39.0251     6.7439    11.0022    15.6135    32.9748    32.7011     6.9719    11.5175    16.9303    34.9303    51.3000   387.4286  2408.0000    35.4955     6.0743     0.8939    89.5099     0.8964   638.8209    90.4471     0.0000     0.3802     0.7960    44.2371    55.2401     0.9534    26.5566    -0.0707    -0.1627     0.2613    24.7983  -374.6667  -373.9456     0.0000    -0.3553     0.7897   578.0000
     73.5000     7.1413    12.0211    17.6504    35.9921    38.7906     6.9709    11.5639    16.6283    33.3206    33.0533     7.0864    11.8175    17.3087    35.3844    52.8223   358.2857  2425.0000    35.2031     6.1115     0.9349    93.5637     0.9362   632.5234    90.4471     0.0000     0.3834     0.8417    44.9485    55.2451     0.9701    23.9623     0.1546    -0.1599     0.2125    26.1958  -374.1205  -373.6597     0.0000    -0.2299     0.7893   514.6666
     74.0000     7.2177    12.2200    17.8167    36.0084    38.7815     7.5235    12.9411    18.2283    34.7843    34.5483     7.2970    12.4534    18.1717    36.6468    54.6143   343.4286  2393.1428    35.6899     6.1526     0.9148    91.5758     0.9167   636.7513    90.4471     0.0000     0.3865     0.8608    46.6958    55.2501     0.8984    25.1299    -0.3595    -0.1571     0.2355    25.8863  -373.4283  -373.1129     0.0000    -0.3316     0.7904   566.7778
     74.5000     7.3267    12.4945    18.0928    36.1366    38.8654     7.4293    12.7391    17.8430    30.9317    30.7809     7.3887    12.6721    18.2394    36.6465    54.5489   378.8571  2396.5715    31.4929     6.0726     0.9226    92.3485     0.9242   637.1087    90.4471     0.0000     0.3896     0.9726    50.3731    55.2551     0.8876    26.4516    -0.3517    -0.1542     0.2143    26.8421  -372.2338  -372.2156     0.0000    -0.3098     0.7910   544.5186
     75.0000     7.4648    12.8217    18.4134    36.3545    38.8384     7.4327    12.8512    17.5360    27.7967    27.7275     7.4065    12.7960    18.3097    36.3990    53.2056   340.5714  2365.1428    28.2471     5.9773     0.8943    89.5495     0.8968   645.4738    90.4471     0.0000     0.3927     0.8291    50.7576    55.2601     0.8881    26.6929    -0.3527    -0.1513     0.2370    26.1395  -370.9908  -371.1334     0.0000    -0.3563     0.7901   591.9286
     75.5000     7.6313    13.1340    18.7457    36.5752    38.9193     7.5006    13.2463    17.7615    27.2408    27.2364     7.5830    13.1482    18.6441    36.6820    52.1630   370.2857  2462.2856    27.6477     6.0111     0.8757    87.7152     0.8788   651.6950    90.4471     0.0000     0.3958     0.8393    48.6605    55.2651     0.8773    26.0333    -0.3326    -0.1483     0.2307    26.2172  -370.0848  -369.9518     0.0000    -0.3362     0.7902   566.8889
     76.0000     7.8206    13.4671    19.1149    36.7760    38.9000     7.9480    13.5858    18.1659    26.8591    26.9291     7.8937    13.6397    19.2128    37.4116    51.2735   373.1429  2358.8572    27.2773     6.1511     0.8820    88.3378     0.8849   639.2652    90.4471     0.0000     0.3989     0.7467    46.6461    55.2701     0.8075    26.5928    -0.0181    -0.1453     0.2353    26.1205  -368.6898  -368.5916     0.0000    -0.3481     0.7924   552.6667
     76.5000     8.0254    13.8117    19.5096    36.8207    38.7218     8.2259    14.9087    19.5873    28.7107    28.8742     8.1965    14.4292    20.1112    38.5756    50.2999   364.5000  2373.1428    28.9718     6.3259     0.8935    89.4787     0.8961   629.8275    90.4471     0.0000     0.4019     0.8364    45.8822    55.2751     0.8873    25.1913    -0.3509    -0.1422     0.2487    25.5348  -366.9653  -367.1937     0.0000    -0.3589     0.7912   583.7407
     77.0000     8.2649    14.1235    19.8650    36.6352    38.6310     8.4031    14.4807    19.2310    27.3058    27.5503     8.3463    14.3243    19.9787    37.4312    46.3914   351.4286  2444.5715    27.7820     6.5211     0.9197    92.0585     0.9214   630.4792    90.4471     0.0000     0.4048     0.9719    45.4836    55.2801     0.9234    25.3931    -0.3220    -0.1391     0.2510    24.7957  -365.5162  -365.9989     0.0000    -0.3139     0.7900   615.7037
     77.5000     8.5033    14.4448    20.2263    36.3009    38.6178     8.3481    13.8594    17.8505    25.4994    25.8019     8.4614    14.2073    19.6483    35.4641    41.6273   344.0000  2417.1428    25.9615     6.6470     0.9358    93.6487     0.9371   641.6648    90.4471     0.0000     0.4078     1.0931    44.8021    55.2851     0.9996    25.4920     0.7115    -0.1359     0.2241    25.5022  -364.0134  -364.8911     0.0000    -0.2296     0.7898   602.7500
     78.0000     8.7649    14.7529    20.6145    35.9587    38.6044     8.8843    14.5952    19.2216    27.9318    28.3712     8.7782    14.7628    20.4930    35.6652    39.9332   338.2857  2444.0000    28.4793     7.0907     0.9200    92.0946     0.9218   646.1848    90.4471     0.0000     0.4106     0.9263    42.7084    55.2901     0.9429    25.6607    -0.1932    -0.1327     0.2459    25.0153  -363.5463  -364.1324     0.0000    -0.3087     0.7895   647.3704
     78.5000     9.0391    15.0807    21.0093    35.6076    38.7653     9.4279    16.6924    20.8857    31.4973    32.1268     9.2764    15.6426    21.7316    36.4761    38.9651   390.8571  2406.8572    31.9803     7.4423     0.8838    88.5129     0.8866   630.8094    90.4471     0.0000     0.4135     0.8854    42.8015    55.2951     0.9037    26.2738    -0.2748    -0.1295     0.2626    24.6436  -362.0982  -363.2755     0.0000    -0.3494     0.7901   574.0000
     79.0000     9.3003    15.4901    21.5332    35.5075    39.0226     9.9375    16.4045    20.3109    30.7245    31.4277     9.4663    15.6541    21.4523    34.7926    35.1269   350.2857  2340.5715    31.2024     7.7567     0.9117    91.2762     0.9137   631.6600    90.4471     0.0000     0.4162     0.7349    43.5602    55.3001     0.9013    23.9678    -0.2805    -0.1263     0.2616    24.4871  -361.3217  -362.6971     0.0000    -0.3349     0.7896   553.6296
     79.5000     9.5928    16.0095    22.2791    35.9637    39.4030     8.5152    13.2436    16.5042    24.8412    25.4263     9.2896    15.2098    20.6199    32.4043    31.0327   378.8571  2425.5000    25.7792     7.7414     0.8804    88.1852     0.8834   634.8849    90.4471     0.0000     0.4188     0.9317    44.4818    55.3051     0.9459    20.3796     1.2787    -0.1231     0.2668    24.3143  -361.1574  -362.4129     0.0000    -0.3443     0.7893   530.2143
