~VERSION INFORMATION
VERS.           1.2   :CWLS Log ASCII Standard - VERSION 1.2
WRAP.           NO    :One Line per depth step
PROD.  Schlumberger   :LAS Producer
PROG.  DLIS to ASCII 2.3                               :LAS Program name and version
CREA.        2015/05/30 05:44                          :LAS Creation date {YYYY/MM/DD hh:mm}
DLIS_CREA.  2015-May-29 22:59                          :DLIS Creation date and time {YYYY-MMM-DD hh:mm}
SOURCE.     3feb4549-4107-45e4-8f62-928498d876c9       :DLIS File Name
#--------------------------------------------------
~WELL INFORMATION
#MNEM.UNIT      DATA             DESCRIPTION
#---- ------ --------------   -----------------------------
STRT .F      5218.5000       :START DEPTH     
STOP .F      7211.0000       :STOP DEPTH     
STEP .F       0.5000         :STEP       
NULL .          -999.25      :NULL VALUE
COMP .                 COMPANY:  ADM COMPANY                        
WELL .                    WELL:  CCS#2                              
FLD  .                   FIELD:  WILDCAT                            
LOC  .                LOCATION:  LAT 39.885961                      
CNTY .                  COUNTY:  MACON                              
STAT .                   STATE:  ILLINOIS                           
CTRY .                 COUNTRY:  USA                                
SRVC .         SERVICE COMPANY:  Schlumberger                       
LATI .DEG             LATITUDE:  39.885961 degrees                  
LONG .DEG            LONGITUDE:  -88.888044 degrees                 
API  .              API NUMBER:  12-115-23713-00                    
DATE .                LOG DATE:  29-May-2015
UWI  .          UNIQUE WELL ID:  12-115-23713-00                    
#-----------------------------------------------------------------------------
~PARAMETER INFORMATION
#MNEM.UNIT    VALUE                      DESCRIPTION
#---- -----   --------------------       ------------------------
CN   .        ADM COMPANY                :Company Name
WN   .        CCS#2                      :Well Name
FN   .        WILDCAT                    :Field Name
FL   .        LAT 39.885961              :Field Location
FL1  .        LONG 39.885961             :Field Location, Line 1
COUN .        MACON                      :County or Parish
STAT .        ILLINOIS                   :State or Province
NATI .        USA                        :Nation
DATE .        29-May-2015                :Tools Above Rotary Table Date
APIN .        12-115-23713-00            :API Well Number
SECT .        32                         :Section
TOWN .        17N                        :Township
RANG .        3E                         :Range
DMF  .        KB                         :Drilling Measured From (Name of Drilling Elevation Reference)
LMF  .        KB                         :Logging Measured From (Name of Logging Elevation Reference)
PDAT .        GL                         :Permanent Datum
ENGI .        H. DIMITROV / M. MOHAMMED  :Engineer s Name
WITN .        NICK MALKEWICZ             :Witness s Name
LATI .        39.885961 degrees          :Latitude
LONG .        -88.888044 degrees         :Longitude
LUL  .        BRADFORD                   :Logging Unit Location
LUN  .        3003                       :Logging Unit Number
RUN  .        Run 3C                     :Run Number
SON  .                                   :Service Order Number
BHT  .DEGF     127.00000                 :Bottom Hole Temperature
BS   .IN        12.25000                 :Bit Size
DFD  .LB/G       9.20000                 :Drilling Fluid Density
DFV  .S         66.00000                 :Drilling Fluid Viscosity
DFL  .C3         7.60000                 :Drilling Fluid Loss
RMFS .OHMM       0.17000                 :Resistivity of Mud Filtrate Sample
EKB  .F        691.19995                 :Elevation of Kelly Bushing
EGL  .F        675.69995                 :Elevation of Ground Level
BLI  .F       7192.00000                 :Bottom Log Interval
BSAL .PPM     15100.00000                :Borehole Salinity
FLEV .F          8.00000                 :Depth of Drilling Fluid Level to LMF (Log Measured From)
MCST .DEGF      72.50000                 :Mudcake Sample Temperature
MFST .DEGF      72.50000                 :Mud Filtrate Sample Temperature
MRT  .DEGF     127.00000                 :Maximum Recorded Temperature
MST  .DEGF      72.50000                 :Mud Sample Temperature
RMCS .OHMM       0.14000                 :Resistivity of Mud Cake Sample
RMS  .OHMM       0.20000                 :Resistivity of Mud Sample
RW   .OHMM       1.00000                 :Connate Water Resistivity
TDD  .F       7193.00049                 :Driller Total Depth
TDL  .F       7193.00049                 :Logger Total Depth
TLI  .F       5240.00000                 :Top Log Interval
HIDE .        WILDCAT                    :Header Identifier
MATR .        SAND                       :Rock Matrix for Neutron Porosity Corrections
FNUM .           1.00000                 :F-Numerator for Formation Factor Formula
FEXP .           2.00000                 :Exponent "m" for Formation Factor Formula
DFT  .        Fresh Water                :Drilling Fluid Type
DFPH .          11.50000                 :Drilling Fluid pH
MCSS .        Calculated                 :Mudcake Sample Source
MFSS .        Calculated                 :Mud Filtrate Sample Source
FD   .LB/G       8.34540                 :Fluid Density
MSS  .        Active Tank                :Mud Sample Source
OS1  .                                   :Other Services Line 1
OS2  .                                   :Other Services Line 2
OS3  .                                   :Other Services Line 3
OS4  .                                   :Other Services Line 4
OS5  .                                   :Other Services Line 5
R1   .        THANKS FOR CHOOSING SCHLUMBERGER!!! :Remarks Line 1
R2   .        All WELL PROPERTIES PROVIDED BY CLIENT :Remarks Line 2
R3   .        ALL SCALES ON PRESENTATIONS AS PER

CLIENT REQUEST :Remarks Line 3
R4   .        MATRIX  SANDSTONE          :Remarks Line 4
R5   .        MATRIX DENSITY  2.65 G/CC  :Remarks Line 5
R6   .        ALL LOGGING INTERVALS AS PER CLIENT REQUEST :Remarks Line 6
R7   .        MRT = 127 DEGF FROM THE THERMOMETER :Remarks Line 7
R8   .                                   :Remarks Line 8
TCS  .        20 00 00                   :Time Circulation Stopped
TLAB .        14 31 00                   :Time Logger At Bottom
EPD  .C3         675.699951              :Elevation of Permanent Datum above Mean Sea Level
APD  .F          15.500000               :Elevation of Depth Reference (LMF) above Permanent Datum
#-----------------------------------------------------------------------------
~CURVE INFORMATION
#MNEM.UNIT   API CODE                                  DESCRIPTION
#---- -----  --------                                  -----------------------
DEPT .F                                                :DEPTH (BOREHOLE) {F12.4}
BFV  .CFCF                                             :Bound Fluid Volume {F11.4}
CBP1 .CFCF                                             :CMR Bin Porosity 1 {F11.4}
CBP2 .CFCF                                             :CMR Bin Porosity 2 {F11.4}
CBP3 .CFCF                                             :CMR Bin Porosity 3 {F11.4}
CBP4 .CFCF                                             :CMR Bin Porosity 4 {F11.4}
CBP5 .CFCF                                             :CMR Bin Porosity 5 {F11.4}
CBP6 .CFCF                                             :CMR Bin Porosity 6 {F11.4}
CBP7 .CFCF                                             :CMR Bin Porosity 7 {F11.4}
CBP8 .CFCF                                             :CMR Bin Porosity 8 {F11.4}
CDF  .LBF                                              :Calibrated Downhole Force {F11.4}
CMFF .CFCF                                             :CMR Free Fluid {F11.4}
CMFF_SIG.CFCF                                          :Standard Deviation of CMR Free Fluid {F11.4}
CMR_PHI_CONV.                                          :CMR Porosity Conversion factor {F11.4}
CMRP_3MS.CFCF                                          :CMR Porosity with T2 values greater than 3 ms {F11.4}
CTEM .DEGF                                             :Cartridge Temperature {F11.4}
DCAL .IN                                               :Differential Caliper {F11.4}
ED   .F                                                :East Departure {F11.4}
GR_EDTC.GAPI                                           :Gamma Ray {F11.4}
GTEM .DEGF                                             :Generalized Borehole Temperature {F11.4}
HCGR .GAPI                                             :HNGS Computed Gamma Ray {F11.4}
HFK  .%                                                :HNGS Formation Potassium Concentration {F11.4}
HSGR .GAPI                                             :HNGS Standard Gamma-Ray {F11.4}
HTHO .PPM                                              :HNGS Formation Thorium Concentration {F11.4}
HURA .PPM                                              :HNGS Formation Uranium Concentration {F11.4}
KSDR .MD                                               :SDR Permeability {F11.4}
KTIM .MD                                               :Timur/Coates Permeability {F11.4}
ND   .F                                                :North Departure {F11.4}
STIT .F                                                :Stuck Tool Indicator, Total {F11.4}
T2LM .MS                                               :T2 Logarithmic Mean {F11.4}
T2LM_SIG.MS                                            :Standard Deviation of T2 Logarithmic Mean {F11.4}
TCMR .CFCF                                             :Total CMR Porosity {F11.4}
TENS .LBF                                              :Cable Tension {F11.4}
#-----------------------------------------------------------------------------
# 
#      DEPT        BFV        CBP1       CBP2       CBP3       CBP4       CBP5       CBP6       CBP7       CBP8       CDF        CMFF     CMFF_SIG  CMR_PHI_CO  CMRP_3MS     CTEM       DCAL        ED      GR_EDTC      GTEM       HCGR       HFK        HSGR       HTHO       HURA       KSDR       KTIM        ND        STIT       T2LM     T2LM_SIG     TCMR       TENS
#                                                                                                                                                   NV
~A  
# ...
   6670.5000     0.0969     0.0026     0.0096     0.0339     0.0508     0.0553     0.0376     0.0019     0.0006  1197.3940     0.0954     0.0037     0.0006     0.1801   126.0235     0.0000     2.7050    50.2318   122.7261    50.9339     2.1208    55.5617     3.9093     0.6430     4.3932    13.3525    34.7402     0.0000    28.3018  -999.2500     0.1923  2944.3000
   6671.0000     0.0867     0.0006     0.0086     0.0315     0.0459     0.0510     0.0340     0.0007     0.0000  1196.5908     0.0858     0.0036     0.0006     0.1632   126.0235     0.0000     2.7154    50.8824   122.7302    52.1200     2.1641    56.5027     4.0363     0.5706     2.9554     8.9770    34.7387     0.0000    28.2895  -999.2500     0.1725  2938.3000
   6671.5000     0.0782     0.0001     0.0085     0.0274     0.0421     0.0475     0.0273     0.0000     0.0000  1189.6160     0.0747     0.0035     0.0006     0.1443   126.0235     0.0000     2.7261    52.1840   122.7343    54.5612     2.2771    58.6652     4.1571     0.5661     1.6866     5.2409    34.7371     0.0000    27.0410  -999.2500     0.1530  2935.5000
   6672.0000     0.0743     0.0006     0.0099     0.0234     0.0405     0.0443     0.0200     0.0000     0.0000  1186.1368     0.0643     0.0035     0.0006     0.1282   126.0235     0.0000     2.7366    56.6059   122.7384    57.6511     2.3838    61.5125     4.5229     0.5023     0.9119     2.8298    34.7356     0.0000    24.5721  -999.2500     0.1387  2862.7000
   6672.5000     0.0757     0.0018     0.0122     0.0223     0.0394     0.0410     0.0152     0.0000     0.0000  1192.1101     0.0562     0.0036     0.0006     0.1179   126.0235     0.0000     2.7471    58.9379   122.7425    62.4264     2.5541    65.8212     5.0561     0.4682     0.5348     1.6694    34.7341     0.0000    21.0072  -999.2500     0.1319  2918.8181
   6673.0000     0.0822     0.0035     0.0148     0.0250     0.0389     0.0417     0.0100     0.0000     0.0000  1191.0673     0.0518     0.0036     0.0006     0.1157   126.0235     0.0000     2.7577    63.9071   122.7466    64.6352     2.6256    69.3214     5.3457     0.6336     0.3935     1.2893    34.7326     0.0000    17.4388  -999.2500     0.1340  2919.7000
   6673.5000     0.0829     0.0040     0.0184     0.0259     0.0346     0.0402     0.0074     0.0000     0.0000  1189.6365     0.0476     0.0036     0.0006     0.1081   126.0235     0.0000     2.7683    67.4382   122.7507    67.4356     2.7449    72.0373     5.5448     0.6300     0.2693     0.9691    34.7311     0.0000    15.0212  -999.2500     0.1305  2897.8000
   6674.0000     0.0828     0.0047     0.0218     0.0256     0.0308     0.0392     0.0058     0.0000     0.0000  1187.1367     0.0450     0.0036     0.0006     0.1014   126.0235     0.0000     2.7790    68.9058   122.7548    68.4712     2.7976    73.7143     5.5683     0.6826     0.1918     0.7878    34.7296     0.0000    13.3838  -999.2500     0.1278  2926.9001
   6674.5000     0.0862     0.0061     0.0244     0.0255     0.0302     0.0393     0.0048     0.0000     0.0000  1189.7273     0.0441     0.0036     0.0006     0.0998   126.0235     0.0000     2.7896    67.8436   122.7589    67.5974     2.7473    73.5638     5.5827     0.7621     0.1708     0.7536    34.7281     0.0000    12.1956  -999.2500     0.1302  2925.3999
   6675.0000     0.0969     0.0083     0.0265     0.0286     0.0336     0.0387     0.0051     0.0000     0.0000  1191.9862     0.0439     0.0036     0.0006     0.1060   126.0235     0.0000     2.8004    67.4104   122.7630    67.0796     2.7100    72.7750     5.6351     0.7147     0.1959     0.8041    34.7267     0.0000    11.1644  -999.2500     0.1408  2929.3999
   6675.5000     0.1095     0.0091     0.0266     0.0341     0.0396     0.0403     0.0086     0.0000     0.0000  1194.9778     0.0490     0.0037     0.0006     0.1227   126.0235     0.0000     2.8110    68.4276   122.7671    65.8825     2.6659    71.7287     5.5097     0.7209     0.3540     1.2825    34.7252     0.0000    11.6868  -999.2500     0.1585  2963.8000
   6676.0000     0.1182     0.0090     0.0237     0.0385     0.0469     0.0435     0.0135     0.0000     0.0007  1195.1910     0.0577     0.0038     0.0006     0.1431   126.0235     0.0000     2.8217    67.5156   122.7712    65.3095     2.6349    71.1175     5.5073     0.7225     0.7700     2.3961    34.7238     0.0000    13.6310  -999.2500     0.1759  2938.0908
   6676.5000     0.1200     0.0063     0.0194     0.0419     0.0523     0.0489     0.0185     0.0000     0.0007  1191.2644     0.0681     0.0038     0.0006     0.1623   126.0235     0.0000     2.8325    64.8837   122.7753    64.4232     2.6507    70.5737     5.1310     0.8029     1.4462     4.2228    34.7224     0.0000    16.6138  -999.2500     0.1881  2929.2727
   6677.0000     0.1162     0.0024     0.0157     0.0430     0.0552     0.0568     0.0223     0.0000     0.0001  1193.2150     0.0792     0.0038     0.0006     0.1773   126.0235     0.0000     2.8434    62.5261   122.7794    63.3554     2.5802    68.8212     5.2011     0.7482     2.3750     6.9717    34.7210     0.0000    19.9777  -999.2500     0.1954  2940.3999
   6677.5000     0.1127     0.0014     0.0145     0.0390     0.0578     0.0661     0.0239     0.0001     0.0004  1193.7031     0.0905     0.0037     0.0006     0.1873   126.0235     0.0000     2.8541    60.8284   122.7835    60.9457     2.4938    66.7738     4.9345     0.7807     3.5388    10.9826    34.7196     0.0000    22.7906  -999.2500     0.2032  2881.0000
   6678.0000     0.1101     0.0021     0.0161     0.0319     0.0600     0.0763     0.0212     0.0000     0.0001  1195.3608     0.0977     0.0036     0.0006     0.1895   126.0235     0.0000     2.8650    58.6120   122.7876    58.1673     2.4016    64.2482     4.5839     0.7567     4.0709    14.7790    34.7182     0.0000    23.3495  -999.2500     0.2078  2957.2727
   6678.5000     0.1096     0.0022     0.0168     0.0290     0.0616     0.0831     0.0170     0.0000     0.0000  1195.3662     0.1000     0.0036     0.0006     0.1906   126.0235     0.0000     2.8759    58.3246   122.7917    57.4523     2.3896    62.4582     4.4253     0.6080     4.1995    16.0929    34.7168     0.0000    23.3200  -999.2500     0.2096  2944.9092
   6679.0000     0.1116     0.0035     0.0167     0.0281     0.0632     0.0855     0.0117     0.0000     0.0000  1198.6750     0.0972     0.0036     0.0006     0.1885   126.0235     0.0000     2.8869    58.1111   122.7958    57.2751     2.4106    63.0449     4.2454     0.6887     3.7534    14.5599    34.7155     0.0000    22.1502  -999.2500     0.2087  2895.1819
   6679.5000     0.1167     0.0059     0.0165     0.0287     0.0656     0.0825     0.0084     0.0000     0.0000  1201.4814     0.0909     0.0036     0.0006     0.1851   126.0235     0.0000     2.8978    60.3709   122.7999    56.9537     2.3896    62.3309     4.2656     0.6533     3.0315    11.3350    34.7141     0.0000    20.2146  -999.2500     0.2076  2966.0000
   6680.0000     0.1257     0.0076     0.0166     0.0321     0.0695     0.0732     0.0121     0.0000     0.0000  1200.4408     0.0852     0.0036     0.0006     0.1867   126.0235     0.0000     2.9088    58.9721   122.8040    58.7156     2.4519    63.3568     4.4656     0.5834     2.8022     9.0925    34.7128     0.0000    18.8139  -999.2500     0.2109  2947.5457
   6680.5000     0.1239     0.0065     0.0160     0.0334     0.0681     0.0718     0.0119     0.0000     0.0000  1194.7103     0.0837     0.0036     0.0006     0.1851   126.1176     0.0000     2.9197    60.4245   122.8081    58.0765     2.4424    63.4348     4.3159     0.6952     2.6826     8.4643    34.7115     0.0000    19.0069  -999.2500     0.2076  2892.3335
   6681.0000     0.1202     0.0080     0.0148     0.0312     0.0661     0.0710     0.0150     0.0000     0.0000  1211.1057     0.0860     0.0036     0.0006     0.1834   126.0235     0.0000     2.9307    60.3690   122.8122    59.7226     2.5224    65.4265     4.3753     0.7041     2.7603     9.2884    34.7102     0.0000    19.5420  -999.2500     0.2062  2974.0911
