~VERSION INFORMATION
VERS.           1.2   :CWLS Log ASCII Standard - VERSION 1.2
WRAP.           NO    :One Line per depth step
PROD.  Schlumberger   :LAS Producer
PROG.  DLIS to ASCII 2.3                               :LAS Program name and version
CREA.        2015/01/14 20:43                          :LAS Creation date {YYYY/MM/DD hh:mm}
DLIS_CREA.  2015-Jan-14 13:25                          :DLIS Creation date and time {YYYY-MMM-DD hh:mm}
SOURCE.     d5fbb1e7-1f44-4e43-b8fb-7fdeb49dde7f       :DLIS File Name
#--------------------------------------------------
~WELL INFORMATION
#MNEM.UNIT      DATA             DESCRIPTION
#---- ------ --------------   -----------------------------
STRT .F       8.0000         :START DEPTH     
STOP .F      353.0000        :STOP DEPTH     
STEP .F       0.5000         :STEP       
NULL .          -999.25      :NULL VALUE
COMP .                 COMPANY:  ADM Company                        
WELL .                    WELL:  CCS#2                              
FLD  .                   FIELD:  Wildcat                            
LOC  .                LOCATION:  Latitude: 39.885961                
CNTY .                  COUNTY:  Macon                              
STAT .                   STATE:  Illinois                           
CTRY .                 COUNTRY:  USA                                
SRVC .         SERVICE COMPANY:  Schlumberger                       
LATI .DEG             LATITUDE:  39° 53' 9.46" N                    
LONG .DEG            LONGITUDE:  88° 53' 16.959" W                  
API  .              API NUMBER:  12-115-23713-00                    
DATE .                LOG DATE:  12-Jan-2015
UWI  .          UNIQUE WELL ID:                                     
#-----------------------------------------------------------------------------
~PARAMETER INFORMATION
#MNEM.UNIT    VALUE                      DESCRIPTION
#---- -----   --------------------       ------------------------
CN   .        ADM Company                :Company Name
WN   .        CCS#2                      :Well Name
FN   .        Wildcat                    :Field Name
FL   .        Latitude  39.885961        :Field Location
FL1  .        Longitude  -88.888044      :Field Location, Line 1
COUN .        Macon                      :County or Parish
STAT .        Illinois                   :State or Province
NATI .        USA                        :Nation
DATE .        12-Jan-2015                :Tools Above Rotary Table Date
APIN .        12-115-23713-00            :API Well Number
SECT .        32                         :Section
TOWN .        17N                        :Township
RANG .        3E                         :Range
DMF  .        KB                         :Drilling Measured From (Name of Drilling Elevation Reference)
LMF  .        KB                         :Logging Measured From (Name of Logging Elevation Reference)
PDAT .        GL                         :Permanent Datum
ENGI .        Devin Arnold               :Engineer s Name
WITN .        Nick Malkewicz             :Witness s Name
LATI .        39° 53' 9.46  N            :Latitude
LONG .        88° 53' 16.959  W          :Longitude
LUL  .        Bradford                   :Logging Unit Location
LUN  .        3095                       :Logging Unit Number
RUN  .        1                          :Run Number
SON  .        D71E-00006                 :Service Order Number
BHT  .DEGF      58.00000                 :Bottom Hole Temperature
BS   .IN        26.00000                 :Bit Size
MDEN .G/C3       2.71000                 :Matrix Density for Density Porosity
DFD  .LB/G      10.10000                 :Drilling Fluid Density
DFV  .S         60.00000                 :Drilling Fluid Viscosity
DFL  .C3      -999.25000                 :Drilling Fluid Loss
RMFS .OHMM       1.23200                 :Resistivity of Mud Filtrate Sample
EKB  .F        691.19995                 :Elevation of Kelly Bushing
EGL  .F        675.69995                 :Elevation of Ground Level
BLI  .F        342.00000                 :Bottom Log Interval
BSAL .PPM        0.00000                 :Borehole Salinity
FLEV .F          8.00000                 :Depth of Drilling Fluid Level to LMF (Log Measured From)
MCST .DEGF      42.80000                 :Mudcake Sample Temperature
MFST .DEGF      42.80000                 :Mud Filtrate Sample Temperature
MRT  .DEGF      58.00000                 :Maximum Recorded Temperature
MST  .DEGF      42.80000                 :Mud Sample Temperature
RMCS .OHMM       1.84800                 :Resistivity of Mud Cake Sample
RMS  .OHMM       1.54000                 :Resistivity of Mud Sample
RW   .OHMM       1.00000                 :Connate Water Resistivity
TDD  .F        349.00000                 :Driller Total Depth
TDL  .F        349.00000                 :Logger Total Depth
TLI  .F         50.00000                 :Top Log Interval
HIDE .        Wildcat                    :Header Identifier
MATR .        LIME                       :Rock Matrix for Neutron Porosity Corrections
FNUM .           1.00000                 :F-Numerator for Formation Factor Formula
FEXP .           2.00000                 :Exponent "m" for Formation Factor Formula
DFT  .        Fresh Mud                  :Drilling Fluid Type
DFPH .        -999.25000                 :Drilling Fluid pH
MCSS .        Calculated                 :Mudcake Sample Source
MFSS .        Calculated                 :Mud Filtrate Sample Source
FD   .G/C3       1.00000                 :Fluid Density
MSS  .        Active Tank                :Mud Sample Source
OS1  .                                   :Other Services Line 1
OS2  .                                   :Other Services Line 2
OS3  .                                   :Other Services Line 3
OS4  .                                   :Other Services Line 4
OS5  .                                   :Other Services Line 5
R1   .        Matrix Density  Limestone. :Remarks Line 1
R2   .        Mud Sample taken on location. :Remarks Line 2
R3   .        Presentations as per client request. :Remarks Line 3
R4   .        No Chemical Sources ran due to possible potable water zones. :Remarks Line 4
R5   .        Bottom Hole Temperature taken from GM2 temperature log provided by the client. 58degF :Remarks Line 5
R6   .                                   :Remarks Line 6
R7   .                                   :Remarks Line 7
R8   .        APS ran outside max bit size range of 20in causing faulty data. :Remarks Line 8
TCS  .        19 45 00                   :Time Circulation Stopped
TLAB .        01 15 00                   :Time Logger At Bottom
NMT  .        NOBARITE                   :HRDD Mud Type for Nuclear Devices
EPD  .C3         675.699951              :Elevation of Permanent Datum above Mean Sea Level
APD  .F          15.500000               :Elevation of Depth Reference (LMF) above Permanent Datum
#-----------------------------------------------------------------------------
~CURVE INFORMATION
#MNEM.UNIT   API CODE                                  DESCRIPTION
#---- -----  --------                                  -----------------------
DEPT .F                                                :DEPTH (BOREHOLE) {F12.4}
AF10 .OHMM                                             :Array Induction Four Foot Resistivity A10 {F11.4}
AF20 .OHMM                                             :Array Induction Four Foot Resistivity A20 {F11.4}
AF30 .OHMM                                             :Array Induction Four Foot Resistivity A30 {F11.4}
AF60 .OHMM                                             :Array Induction Four Foot Resistivity A60 {F11.4}
AF90 .OHMM                                             :Array Induction Four Foot Resistivity A90 {F11.4}
AO10 .OHMM                                             :Array Induction One Foot Resistivity A10 {F11.4}
AO20 .OHMM                                             :Array Induction One Foot Resistivity A20 {F11.4}
AO30 .OHMM                                             :Array Induction One Foot Resistivity A30 {F11.4}
AO60 .OHMM                                             :Array Induction One Foot Resistivity A60 {F11.4}
AO90 .OHMM                                             :Array Induction One Foot Resistivity A90 {F11.4}
AT10 .OHMM                                             :Array Induction Two Foot Resistivity A10 {F11.4}
AT20 .OHMM                                             :Array Induction Two Foot Resistivity A20 {F11.4}
AT30 .OHMM                                             :Array Induction Two Foot Resistivity A30 {F11.4}
AT60 .OHMM                                             :Array Induction Two Foot Resistivity A60 {F11.4}
AT90 .OHMM                                             :Array Induction Two Foot Resistivity A90 {F11.4}
AFEC .HZ                                               :Far Detector Count Rate {F11.4}
ANEC .HZ                                               :Near Detector Count Rate {F11.4}
AORT .OHMM                                             :Array Induction One Foot Rt {F11.4}
AORX .OHMM                                             :Array Induction One Foot Rxo {F11.4}
APDC .CFCF                                             :Near/Array Corrected Dolomite Porosity {F11.4}
APLC .PU                                               :Near/Array Corrected Limestone Porosity {F11.4}
APSC .CFCF                                             :Near/Array Corrected Sandstone Porosity {F11.4}
CDF  .LBF                                              :Calibrated Downhole Force {F11.4}
CTEM .DEGF                                             :Cartridge Temperature {F11.4}
DCAL .IN                                               :Differential Caliper {F11.4}
ED   .F                                                :East Departure {F11.4}
FPLC .CFCF                                             :Near/Far Corrected Limestone Porosity {F11.4}
GR_EDTC.GAPI                                           :Gamma Ray {F11.4}
GTEM .DEGF                                             :Generalized Borehole Temperature {F11.4}
HASC .CFCF                                             :APS High Resolution Near/Array Corrected Sandstone Porosity {F11.4}
HSIG .CU                                               :APS High Resolution Formation Capture Cross Section {F11.4}
HSTO .IN                                               :APS High Resolution Effective Standoff in Limestone {F11.4}
ND   .F                                                :North Departure {F11.4}
QSGF .                                                 :Quality of Formation Sigma {F11.4}
SIGF .CU                                               :Formation Capture Cross Section {F11.4}
SP   .MV                                               :Spontaneous Potential {F11.4}
SPAR .MV                                               :SP, Armor Return Compensated {F11.4}
STIT .F                                                :Stuck Tool Indicator, Total {F11.4}
STOF .IN                                               :Effective Standoff in Limestone {F11.4}
STPC .CFCF                                             :Corrected Standoff Porosity {F11.4}
TENS .LBF                                              :Cable Tension {F11.4}
#-----------------------------------------------------------------------------
# 
#      DEPT        AF10       AF20       AF30       AF60       AF90       AO10       AO20       AO30       AO60       AO90       AT10       AT20       AT30       AT60       AT90       AFEC       ANEC       AORT       AORX       APDC       APLC       APSC       CDF        CTEM       DCAL        ED        FPLC     GR_EDTC      GTEM       HASC       HSIG       HSTO        ND        QSGF       SIGF        SP        SPAR       STIT       STOF       STPC       TENS
#
~A  
# ...
    161.0000    11.9956    15.5149    17.9618    21.5753    22.8605    11.8024    15.0492    17.0479    21.5647    22.1762    11.7973    15.1163    17.4762    20.7695    22.4602   373.1429  2370.8572    22.7531    11.1482     0.7274    73.0891     0.7373   629.7683    90.4471     0.0000     0.0721     0.5740    56.5239    56.1201     0.7549    25.6519     0.2613     0.2854     0.2290    26.8895  -219.8310  -220.1299     0.0000     0.1416     0.7608   812.4643
    161.5000    11.9389    15.4003    17.7628    21.2687    22.6052    11.9748    15.3387    17.4364    21.4249    22.0457    11.9391    15.3191    17.6805    21.0221    22.6720   417.7143  2407.4285    22.5071    11.1495     0.7167    72.0341     0.7272   630.3015    90.4471     0.0000     0.0674     0.5906    55.1137    56.1251     0.7065    27.2925     0.3962     0.2851     0.2465    27.5688  -218.6094  -218.9988     0.0000     0.2358     0.7676   829.7408
    162.0000    11.9451    15.3723    17.6780    21.1248    22.5061    12.0799    15.6252    17.6777    21.8289    22.4739    11.9799    15.3459    17.7457    21.1564    22.8267   374.2857  2427.5000    22.6643    11.2327     0.7374    74.0762     0.7468   630.8094    90.4471     0.0000     0.0628     0.5932    53.7108    56.1301     0.7607    28.8774    -0.0909     0.2848     0.2059    27.3610  -217.3565  -217.8836     0.0000     0.0691     0.7562   883.4286
    162.5000    11.9533    15.3454    17.5929    21.0307    22.3901    11.9925    15.3912    17.4382    21.6006    22.2545    11.9429    15.2932    17.5947    20.9053    22.5850   372.5714  2423.4285    22.5629    11.2030     0.7741    77.7002     0.7817   634.8441    90.4471     0.0000     0.0581     0.7896    55.8333    56.1351     0.7872    29.2340    -0.0622     0.2845     0.2134    27.3502  -216.5579  -216.9239     0.0000     0.1078     0.7886   919.5926
    163.0000    11.9421    15.3096    17.5376    20.8697    22.2306    11.6440    14.8091    16.8803    21.0963    21.7465    11.9167    15.2173    17.4428    20.6406    22.2685   364.0000  2414.2856    22.2334    11.1463     0.8168    81.9127     0.8224   632.3329    90.4471     0.0000     0.0535     0.7565    57.9820    56.1401     0.8319    27.8833    -0.1603     0.2841     0.1839    27.6366  -215.5692  -215.9850     0.0000    -0.1157     0.7889   869.8519
    163.5000    11.9338    15.2530    17.4577    20.7102    22.0862    11.9906    15.2789    17.3637    21.6136    22.3006    11.9815    15.2664    17.5711    20.7357    22.4320   386.5000  2470.2856    22.6372    11.2799     0.7765    77.9319     0.7839   629.5651    90.4471     0.0000     0.0489     0.6899    59.8373    56.1451     0.8444    26.3333    -0.2135     0.2836     0.2142    27.2617  -214.7106  -215.1496     0.0000     0.1051     0.7898   867.2963
    164.0000    11.8820    15.1911    17.3788    20.5410    21.9263    12.3244    15.8054    17.9322    22.0628    22.7742    12.0922    15.5025    17.7842    20.8681    22.5817   386.8571  2438.2856    22.9769    11.4541     0.7804    78.3191     0.7877   628.1685    90.4471     0.0000     0.0442     0.6179    60.8143    56.1501     0.8083    27.1865    -0.0287     0.2832     0.2327    25.8957  -213.9792  -214.4195     0.0000     0.0842     0.7899   862.1786
    164.5000    11.8118    15.0901    17.2495    20.3261    21.7705    12.0759    15.3588    17.2828    21.0921    21.7775    11.9061    15.2533    17.4440    20.1779    21.9826   386.2857  2398.2856    21.9468    11.1625     0.7647    76.7723     0.7727   630.3674    90.4471     0.0000     0.0395     0.6563    59.8012    56.1550     0.6587    25.0779     0.7142     0.2827     0.2617    25.4185  -213.3103  -213.7963     0.0000     0.1657     0.7895   859.5926
    165.0000    11.7371    15.0003    17.1583    20.1813    21.6686    11.4486    14.6055    16.4166    19.9192    20.5625    11.6171    14.7951    16.8911    19.7399    21.2318   379.4286  2404.5715    20.7242    10.8539     0.7504    75.3532     0.7591   628.1685    90.4471     0.0000     0.0348     0.7094    59.1335    56.1600     0.7006    24.7080     0.4124     0.2821     0.2870    25.3460  -212.6204  -213.3054     0.0000     0.2340     0.7885   826.0741
    165.5000    11.7321    15.0150    17.1987    20.2029    21.7236    11.3601    14.5146    16.1477    19.4424    20.0740    11.4391    14.5191    16.5765    19.4955    20.7494   366.8571  2462.8572    20.1984    10.6205     0.7765    77.9282     0.7839   629.5905    90.4471     0.0000     0.0302     0.6535    61.4135    56.1651     0.8111    24.9677    -0.1659     0.2815     0.2503    25.0991  -212.3657  -213.0398     0.0000     0.1020     0.7894   822.5926
    166.0000    11.8459    15.1688    17.4017    20.4423    22.0249    11.3352    14.4499    16.0032    19.1774    19.8188    11.4160    14.4933    16.6164    19.3413    20.8122   400.5714  2440.5715    19.9875    10.6548     0.8025    80.5014     0.8088   627.8525    90.4471     0.0000     0.0255     0.6439    61.6407    56.1700     0.7961    25.2682     0.0334     0.2809     0.2419    24.3717  -212.5532  -212.8652     0.0000    -0.0298     0.7907   809.5926
    166.5000    12.0371    15.4011    17.6898    20.8028    22.5193    11.2787    14.7561    16.9466    20.7353    21.4579    11.8916    15.1477    17.5531    20.6282    22.0624   389.1429  2445.1428    21.8200    11.1483     0.8504    85.2183     0.8545   630.3015    90.4471     0.0000     0.0209     0.5570    60.4496    56.1750     0.8042    23.3518     0.0010     0.2803     0.2379    24.8754  -212.9051  -212.8042     0.0000    -0.2523     0.7927   812.1111
    167.0000    12.2416    15.7067    18.0756    21.2652    22.9750    13.3744    17.1468    19.4477    24.6768    25.5937    12.7496    16.4547    19.1245    22.4266    24.0556   405.7143  2482.0000    26.0453    12.0319     0.8372    83.9175     0.8419   631.6971    90.4471     0.0000     0.0162     0.6769    58.0518    56.1800     0.8863    24.7893    -0.3508     0.2795     0.2367    24.5708  -213.5347  -212.8648     0.0000    -0.2004     0.7914   840.9260
    167.5000    12.3325    15.7848    18.1637    21.3806    23.0726    13.8053    17.7319    20.2453    26.0277    27.0854    13.1950    17.0038    19.5506    22.7501    24.4574   353.1429  2503.4285    27.7000    12.4011     0.8970    89.8181     0.8994   630.2634    90.4471     0.0000     0.0115     0.6099    56.9530    56.1851     0.9239    24.1216    -0.3153     0.2788     0.2542    25.2900  -213.9722  -212.9025     0.0000    -0.3625     0.7924   821.3704
    168.0000    12.2445    15.6285    17.9829    21.1694    22.7669    12.5651    15.8137    18.4553    24.0869    25.0297    12.6174    15.8971    18.4200    21.6411    23.2082   411.4286  2441.7144    26.0854    11.9097     0.9097    91.0779     0.9118   630.0382    90.4471     0.0000     0.0069     0.6322    57.8740    56.1900     0.9462    24.6014    -0.1913     0.2780     0.2459    25.5631  -213.8611  -212.8416     0.0000    -0.3500     0.7917   844.7407
    168.5000    12.0334    15.3283    17.6404    20.7498    22.2177    11.6206    14.5926    16.8802    21.9321    22.7690    11.8461    14.9917    17.3592    20.3161    21.7712   393.7143  2428.0000    23.8694    11.3631     0.9136    91.4581     0.9155   632.5488    90.4471     0.0000     0.0022     0.5887    56.9763    56.1950     0.8717    26.8688    -0.3170     0.2771     0.2341    26.0906  -213.5972  -212.7284     0.0000    -0.3408     0.7914   883.4643
    169.0000    11.8134    15.0840    17.3043    20.3116    21.6940    11.1326    13.9471    15.8697    20.5473    21.3178    11.4631    14.4902    16.7220    19.4649    20.9507   370.8571  2402.8572    22.4804    10.9449     0.8680    86.9626     0.8715   630.4412    90.4471     0.0000    -0.0023     0.6745    58.2683    56.2001     0.8693    27.0981    -0.3136     0.2762     0.2248    26.3034  -213.2009  -212.5885     0.0000    -0.3163     0.7918   890.2593
    169.5000    11.6449    14.8696    17.0374    20.0395    21.2162    11.9624    15.3091    16.9704    20.9582    21.7192    11.5307    14.7192    16.8309    19.6319    21.0447   377.7143  2496.5715    21.9999    10.9015     0.8263    82.8480     0.8315   631.8124    90.4471     0.0000    -0.0068     0.7349    57.7090    56.2050     0.8717    26.3106    -0.3191     0.2752     0.1902    27.2276  -212.7500  -212.4184     0.0000    -0.1473     0.7917   888.4445
