~VERSION INFORMATION
VERS.           1.2   :CWLS Log ASCII Standard - VERSION 1.2
WRAP.           NO    :One Line per depth step
PROD.  Schlumberger   :LAS Producer
PROG.  DLIS to ASCII 2.3                               :LAS Program name and version
CREA.        2015/05/30 05:44                          :LAS Creation date {YYYY/MM/DD hh:mm}
DLIS_CREA.  2015-May-29 22:59                          :DLIS Creation date and time {YYYY-MMM-DD hh:mm}
SOURCE.     3feb4549-4107-45e4-8f62-928498d876c9       :DLIS File Name
#--------------------------------------------------
~WELL INFORMATION
#MNEM.UNIT      DATA             DESCRIPTION
#---- ------ --------------   -----------------------------
STRT .F      5218.5000       :START DEPTH     
STOP .F      7211.0000       :STOP DEPTH     
STEP .F       0.5000         :STEP       
NULL .          -999.25      :NULL VALUE
COMP .                 COMPANY:  ADM COMPANY                        
WELL .                    WELL:  CCS#2                              
FLD  .                   FIELD:  WILDCAT                            
LOC  .                LOCATION:  LAT 39.885961                      
CNTY .                  COUNTY:  MACON                              
STAT .                   STATE:  ILLINOIS                           
CTRY .                 COUNTRY:  USA                                
SRVC .         SERVICE COMPANY:  Schlumberger                       
LATI .DEG             LATITUDE:  39.885961 degrees                  
LONG .DEG            LONGITUDE:  -88.888044 degrees                 
API  .              API NUMBER:  12-115-23713-00                    
DATE .                LOG DATE:  29-May-2015
UWI  .          UNIQUE WELL ID:  12-115-23713-00                    
#-----------------------------------------------------------------------------
~PARAMETER INFORMATION
#MNEM.UNIT    VALUE                      DESCRIPTION
#---- -----   --------------------       ------------------------
CN   .        ADM COMPANY                :Company Name
WN   .        CCS#2                      :Well Name
FN   .        WILDCAT                    :Field Name
FL   .        LAT 39.885961              :Field Location
FL1  .        LONG 39.885961             :Field Location, Line 1
COUN .        MACON                      :County or Parish
STAT .        ILLINOIS                   :State or Province
NATI .        USA                        :Nation
DATE .        29-May-2015                :Tools Above Rotary Table Date
APIN .        12-115-23713-00            :API Well Number
SECT .        32                         :Section
TOWN .        17N                        :Township
RANG .        3E                         :Range
DMF  .        KB                         :Drilling Measured From (Name of Drilling Elevation Reference)
LMF  .        KB                         :Logging Measured From (Name of Logging Elevation Reference)
PDAT .        GL                         :Permanent Datum
ENGI .        H. DIMITROV / M. MOHAMMED  :Engineer s Name
WITN .        NICK MALKEWICZ             :Witness s Name
LATI .        39.885961 degrees          :Latitude
LONG .        -88.888044 degrees         :Longitude
LUL  .        BRADFORD                   :Logging Unit Location
LUN  .        3003                       :Logging Unit Number
RUN  .        Run 3C                     :Run Number
SON  .                                   :Service Order Number
BHT  .DEGF     127.00000                 :Bottom Hole Temperature
BS   .IN        12.25000                 :Bit Size
DFD  .LB/G       9.20000                 :Drilling Fluid Density
DFV  .S         66.00000                 :Drilling Fluid Viscosity
DFL  .C3         7.60000                 :Drilling Fluid Loss
RMFS .OHMM       0.17000                 :Resistivity of Mud Filtrate Sample
EKB  .F        691.19995                 :Elevation of Kelly Bushing
EGL  .F        675.69995                 :Elevation of Ground Level
BLI  .F       7192.00000                 :Bottom Log Interval
BSAL .PPM     15100.00000                :Borehole Salinity
FLEV .F          8.00000                 :Depth of Drilling Fluid Level to LMF (Log Measured From)
MCST .DEGF      72.50000                 :Mudcake Sample Temperature
MFST .DEGF      72.50000                 :Mud Filtrate Sample Temperature
MRT  .DEGF     127.00000                 :Maximum Recorded Temperature
MST  .DEGF      72.50000                 :Mud Sample Temperature
RMCS .OHMM       0.14000                 :Resistivity of Mud Cake Sample
RMS  .OHMM       0.20000                 :Resistivity of Mud Sample
RW   .OHMM       1.00000                 :Connate Water Resistivity
TDD  .F       7193.00049                 :Driller Total Depth
TDL  .F       7193.00049                 :Logger Total Depth
TLI  .F       5240.00000                 :Top Log Interval
HIDE .        WILDCAT                    :Header Identifier
MATR .        SAND                       :Rock Matrix for Neutron Porosity Corrections
FNUM .           1.00000                 :F-Numerator for Formation Factor Formula
FEXP .           2.00000                 :Exponent "m" for Formation Factor Formula
DFT  .        Fresh Water                :Drilling Fluid Type
DFPH .          11.50000                 :Drilling Fluid pH
MCSS .        Calculated                 :Mudcake Sample Source
MFSS .        Calculated                 :Mud Filtrate Sample Source
FD   .LB/G       8.34540                 :Fluid Density
MSS  .        Active Tank                :Mud Sample Source
OS1  .                                   :Other Services Line 1
OS2  .                                   :Other Services Line 2
OS3  .                                   :Other Services Line 3
OS4  .                                   :Other Services Line 4
OS5  .                                   :Other Services Line 5
R1   .        THANKS FOR CHOOSING SCHLUMBERGER!!! :Remarks Line 1
R2   .        All WELL PROPERTIES PROVIDED BY CLIENT :Remarks Line 2
R3   .        ALL SCALES ON PRESENTATIONS AS PER

CLIENT REQUEST :Remarks Line 3
R4   .        MATRIX  SANDSTONE          :Remarks Line 4
R5   .        MATRIX DENSITY  2.65 G/CC  :Remarks Line 5
R6   .        ALL LOGGING INTERVALS AS PER CLIENT REQUEST :Remarks Line 6
R7   .        MRT = 127 DEGF FROM THE THERMOMETER :Remarks Line 7
R8   .                                   :Remarks Line 8
TCS  .        20 00 00                   :Time Circulation Stopped
TLAB .        14 31 00                   :Time Logger At Bottom
EPD  .C3         675.699951              :Elevation of Permanent Datum above Mean Sea Level
APD  .F          15.500000               :Elevation of Depth Reference (LMF) above Permanent Datum
#-----------------------------------------------------------------------------
~CURVE INFORMATION
#MNEM.UNIT   API CODE                                  DESCRIPTION
#---- -----  --------                                  -----------------------
DEPT .F                                                :DEPTH (BOREHOLE) {F12.4}
BFV  .CFCF                                             :Bound Fluid Volume {F11.4}
CBP1 .CFCF                                             :CMR Bin Porosity 1 {F11.4}
CBP2 .CFCF                                             :CMR Bin Porosity 2 {F11.4}
CBP3 .CFCF                                             :CMR Bin Porosity 3 {F11.4}
CBP4 .CFCF                                             :CMR Bin Porosity 4 {F11.4}
CBP5 .CFCF                                             :CMR Bin Porosity 5 {F11.4}
CBP6 .CFCF                                             :CMR Bin Porosity 6 {F11.4}
CBP7 .CFCF                                             :CMR Bin Porosity 7 {F11.4}
CBP8 .CFCF                                             :CMR Bin Porosity 8 {F11.4}
CDF  .LBF                                              :Calibrated Downhole Force {F11.4}
CMFF .CFCF                                             :CMR Free Fluid {F11.4}
CMFF_SIG.CFCF                                          :Standard Deviation of CMR Free Fluid {F11.4}
CMR_PHI_CONV.                                          :CMR Porosity Conversion factor {F11.4}
CMRP_3MS.CFCF                                          :CMR Porosity with T2 values greater than 3 ms {F11.4}
CTEM .DEGF                                             :Cartridge Temperature {F11.4}
DCAL .IN                                               :Differential Caliper {F11.4}
ED   .F                                                :East Departure {F11.4}
GR_EDTC.GAPI                                           :Gamma Ray {F11.4}
GTEM .DEGF                                             :Generalized Borehole Temperature {F11.4}
HCGR .GAPI                                             :HNGS Computed Gamma Ray {F11.4}
HFK  .%                                                :HNGS Formation Potassium Concentration {F11.4}
HSGR .GAPI                                             :HNGS Standard Gamma-Ray {F11.4}
HTHO .PPM                                              :HNGS Formation Thorium Concentration {F11.4}
HURA .PPM                                              :HNGS Formation Uranium Concentration {F11.4}
KSDR .MD                                               :SDR Permeability {F11.4}
KTIM .MD                                               :Timur/Coates Permeability {F11.4}
ND   .F                                                :North Departure {F11.4}
STIT .F                                                :Stuck Tool Indicator, Total {F11.4}
T2LM .MS                                               :T2 Logarithmic Mean {F11.4}
T2LM_SIG.MS                                            :Standard Deviation of T2 Logarithmic Mean {F11.4}
TCMR .CFCF                                             :Total CMR Porosity {F11.4}
TENS .LBF                                              :Cable Tension {F11.4}
#-----------------------------------------------------------------------------
# 
#      DEPT        BFV        CBP1       CBP2       CBP3       CBP4       CBP5       CBP6       CBP7       CBP8       CDF        CMFF     CMFF_SIG  CMR_PHI_CO  CMRP_3MS     CTEM       DCAL        ED      GR_EDTC      GTEM       HCGR       HFK        HSGR       HTHO       HURA       KSDR       KTIM        ND        STIT       T2LM     T2LM_SIG     TCMR       TENS
#                                                                                                                                                   NV
~A  
# ...
   5482.5000     0.3583     0.0357     0.0689     0.1439     0.1098     0.0049     0.0000     0.0000     0.0000  1232.3523     0.0049     0.0038     0.0006     0.2586   122.0706     0.0000    -0.8966   178.1699   112.9792   169.5213     7.1573   187.7532    12.4319     2.4257     1.8501     0.0321    37.3107     0.0000     5.1571  -999.2500     0.3631  2578.8000
   5483.0000     0.3583     0.0357     0.0689     0.1439     0.1098     0.0049     0.0000     0.0000     0.0000  1230.9742     0.0049     0.0038     0.0006     0.2586   122.0706     0.0000    -0.8981   179.4142   112.9833   168.9986     7.1252   187.0629    12.4520     2.4256     1.8501     0.0321    37.3164     0.0000     5.1571  -999.2500     0.3631  2594.0002
   5483.5000     0.4120     0.0387     0.0785     0.1672     0.1276     0.0050     0.0000     0.0000     0.0000  1228.2130     0.0050     0.0040     0.0006     0.2999   122.0706     0.0000    -0.8995   174.8862   112.9874   167.2220     7.0492   184.9796    12.3279     2.3702     3.5636     0.0465    37.3222     0.0000     5.2336  -999.2500     0.4171  2557.3000
   5484.0000     0.5087     0.0425     0.0962     0.2141     0.1560     0.0036     0.0000     0.0000     0.0000  1232.3695     0.0036     0.0043     0.0006     0.3737   122.0706     0.0000    -0.9010   169.4852   112.9914   166.9435     7.0228   185.3163    12.3933     2.3984     8.6913     0.0363    37.3279     0.0000     5.2893  -999.2500     0.5124  2562.5000
   5484.5000     0.6178     0.0465     0.1177     0.2696     0.1841     0.0013     0.0000     0.0000     0.0000  1225.7813     0.0013     0.0046     0.0006     0.4550   122.0706     0.0000    -0.9025   164.5746   112.9956   167.4440     7.0456   184.2021    12.4200     2.2317    16.5640     0.0069    37.3338     0.0000     5.2670  -999.2500     0.6192  2518.3000
   5485.0000     0.6895     0.0514     0.1367     0.3033     0.1980     0.0013     0.0000     0.0000     0.0000  1242.5425     0.0013     0.0048     0.0006     0.5026   122.0706     0.0000    -0.9040   162.4972   112.9997   168.4283     7.0344   183.9172    12.8010     2.1011    24.1428     0.0079    37.3395     0.0000     5.1491  -999.2500     0.6907  2597.8000
   5485.5000     0.5990     0.0464     0.1261     0.2621     0.1644     0.0010     0.0000     0.0000     0.0006  1245.0543     0.0016     0.0046     0.0006     0.4281   122.0706     0.0000    -0.9056   163.4018   113.0038   165.7283     6.9629   181.5283    12.3543     2.1214    13.5756     0.0088    37.3453     0.0000     4.9879  -999.2500     0.6006  2591.6001
   5486.0000     0.4842     0.0421     0.1109     0.2023     0.1288     0.0024     0.0000     0.0000     0.0018  1238.6379     0.0042     0.0045     0.0006     0.3353   122.0706     0.0000    -0.9071   165.1345   113.0079   167.3010     6.9750   182.1077    12.7875     2.0416     6.2316     0.0424    37.3510     0.0000     4.8542  -999.2500     0.4883  2554.5557
   5486.5000     0.3598     0.0364     0.0902     0.1411     0.0920     0.0077     0.0001     0.0000     0.0020  1233.1348     0.0098     0.0043     0.0006     0.2430   122.0706     0.0000    -0.9087   166.3331   113.0120   167.9272     7.0306   184.5187    12.6623     2.2327     2.0882     0.1273    37.3568     0.0000     4.7936  -999.2500     0.3696  2596.9001
   5487.0000     0.2531     0.0308     0.0684     0.0931     0.0608     0.0156     0.0003     0.0000     0.0009  1231.7434     0.0168     0.0040     0.0006     0.1707   122.0706     0.0000    -0.9103   165.6596   113.0161   170.5372     7.1450   186.6638    12.8295     2.2433     0.5077     0.2314    37.3626     0.0000     4.8020  -999.2500     0.2699  2544.0002
   5487.5000     0.2036     0.0301     0.0556     0.0695     0.0485     0.0210     0.0000     0.0000     0.0000  1255.5313     0.0210     0.0039     0.0006     0.1390   122.0706     0.0000    -0.9119   167.9965   113.0202   170.9810     7.0950   186.2625    13.2645     2.1397     0.2372     0.2722    37.3684     0.0000     4.8258  -999.2500     0.2246  2724.3333
   5488.0000     0.1904     0.0324     0.0500     0.0613     0.0467     0.0232     0.0000     0.0000     0.0000  1264.4899     0.0232     0.0038     0.0006     0.1312   122.0706     0.0000    -0.9136   167.8917   113.0243   170.2734     7.0806   186.3520    13.1223     2.2979     0.1985     0.3087    37.3741     0.0000     4.8744  -999.2500     0.2136  2592.5000
   5488.5000     0.2249     0.0334     0.0539     0.0784     0.0592     0.0226     0.0021     0.0000     0.0000  1231.1440     0.0248     0.0039     0.0006     0.1623   122.0706     0.0000    -0.9152   166.8395   113.0284   170.4033     7.0876   185.4267    13.1229     2.1793     0.4822     0.4850    37.3799     0.0000     5.2096  -999.2500     0.2496  2560.3333
   5489.0000     0.2937     0.0338     0.0644     0.1111     0.0843     0.0224     0.0023     0.0001     0.0007  1245.2985     0.0255     0.0040     0.0006     0.2209   122.0706     0.0000    -0.9169   163.4898   113.0325   172.1273     7.1725   187.4170    13.1785     2.2312     1.6301     0.8027    37.3856     0.0000     5.6180  -999.2500     0.3192  2629.2222
   5489.5000     0.3894     0.0350     0.0808     0.1544     0.1191     0.0225     0.0004     0.0003     0.0014  1220.9115     0.0245     0.0042     0.0006     0.2980   122.0706     0.0000    -0.9186   163.2956   113.0366   170.2831     7.0896   184.6397    13.0725     2.0256     4.5197     1.1408    37.3914     0.0000     5.8700  -999.2500     0.4139  2614.7778
   5490.0000     0.5102     0.0389     0.1048     0.2082     0.1583     0.0201     0.0000     0.0000     0.0002  1220.0096     0.0203     0.0045     0.0006     0.3868   122.0706     0.0000    -0.9203   164.3035   113.0407   169.9919     7.0719   184.7982    13.0832     2.0310    10.3634     1.2555    37.3972     0.0000     5.7190  -999.2500     0.5305  2506.3335
   5490.5000     0.5853     0.0369     0.1183     0.2555     0.1746     0.0112     0.0000     0.0000     0.0000  1222.7996     0.0112     0.0047     0.0006     0.4413   122.0706     0.0000    -0.9220   161.7967   113.0448   163.5278     6.8556   179.9689    12.2774     2.2077    15.9207     0.5002    37.4029     0.0000     5.5728  -999.2500     0.5965  2598.5557
   5491.0000     0.5974     0.0408     0.1235     0.2639     0.1692     0.0070     0.0000     0.0000     0.0005  1222.3606     0.0075     0.0048     0.0006     0.4405   122.0706     0.0000    -0.9238   160.2736   113.0489   161.5671     6.7787   177.3746    12.0989     2.0845    15.1459     0.2169    37.4087     0.0000     5.3056  -999.2500     0.6048  2570.4001
   5491.5000     0.5753     0.0466     0.1221     0.2498     0.1568     0.0057     0.0000     0.0000     0.0009  1219.5369     0.0065     0.0048     0.0006     0.4131   122.0706     0.0000    -0.9256   160.4152   113.0530   159.2480     6.7448   175.7699    11.5540     2.2071    11.8736     0.1476    37.4145     0.0000     5.0498  -999.2500     0.5818  2538.0000
   5492.0000     0.5472     0.0526     0.1188     0.2288     0.1470     0.0062     0.0000     0.0000     0.0010  1233.0723     0.0072     0.0046     0.0006     0.3830   122.0706     0.0000    -0.9274   165.5234   113.0571   160.0306     6.7193   175.3703    11.9542     1.9975     8.9177     0.1667    37.4202     0.0000     4.8565  -999.2500     0.5544  2643.2224
   5492.5000     0.5405     0.0591     0.1221     0.2156     0.1438     0.0086     0.0000     0.0000     0.0009  1228.4066     0.0095     0.0045     0.0006     0.3689   122.0706     0.0000    -0.9292   165.4577   113.0612   160.5666     6.7410   176.6952    11.9991     2.0051     8.0713     0.2813    37.4260     0.0000     4.6955  -999.2500     0.5500  2602.5000
   5493.0000     0.4638     0.0497     0.1099     0.1851     0.1190     0.0067     0.0000     0.0000     0.0023  1225.4567     0.0090     0.0046     0.0006     0.3132   122.0706     0.0000    -0.9310   166.6496   113.0653   159.0445     6.7063   176.4027    11.7144     2.0451     4.5927     0.1930    37.4317     0.0000     4.6916  -999.2500     0.4728  2603.4446
