~VERSION INFORMATION
VERS.           1.2   :CWLS Log ASCII Standard - VERSION 1.2
WRAP.           NO    :One Line per depth step
PROD.  Schlumberger   :LAS Producer
PROG.  DLIS to ASCII 2.3                               :LAS Program name and version
CREA.        2015/05/30 23:46                          :LAS Creation date {YYYY/MM/DD hh:mm}
DLIS_CREA.  2015-May-30 15:01                          :DLIS Creation date and time {YYYY-MMM-DD hh:mm}
SOURCE.     b43ac578-4029-44ab-a201-dacd5736d378       :DLIS File Name
#--------------------------------------------------
~WELL INFORMATION
#MNEM.UNIT      DATA             DESCRIPTION
#---- ------ --------------   -----------------------------
STRT .F      5200.5000       :START DEPTH     
STOP .F      7212.5000       :STOP DEPTH     
STEP .F       0.5000         :STEP       
NULL .          -999.25      :NULL VALUE
COMP .                 COMPANY:  ADM COMPANY                        
WELL .                    WELL:  CCS#2                              
FLD  .                   FIELD:  WILDCAT                            
LOC  .                LOCATION:  LAT 39.885961                      
CNTY .                  COUNTY:  MACON                              
STAT .                   STATE:  ILLINOIS                           
CTRY .                 COUNTRY:  USA                                
SRVC .         SERVICE COMPANY:  Schlumberger                       
LATI .DEG             LATITUDE:  39.885961 degrees                  
LONG .DEG            LONGITUDE:  -88.888044 degrees                 
API  .              API NUMBER:  12-115-23713-00                    
DATE .                LOG DATE:  29-May-2015
UWI  .          UNIQUE WELL ID:  12-115-23713-00                    
#-----------------------------------------------------------------------------
~PARAMETER INFORMATION
#MNEM.UNIT    VALUE                      DESCRIPTION
#---- -----   --------------------       ------------------------
CN   .        ADM COMPANY                :Company Name
WN   .        CCS#2                      :Well Name
FN   .        WILDCAT                    :Field Name
FL   .        LAT 39.885961              :Field Location
FL1  .        LONG 39.885961             :Field Location, Line 1
COUN .        MACON                      :County or Parish
STAT .        ILLINOIS                   :State or Province
NATI .        USA                        :Nation
DATE .        29-May-2015                :Tools Above Rotary Table Date
APIN .        12-115-23713-00            :API Well Number
SECT .        32                         :Section
TOWN .        17N                        :Township
RANG .        3E                         :Range
DMF  .        KB                         :Drilling Measured From (Name of Drilling Elevation Reference)
LMF  .        KB                         :Logging Measured From (Name of Logging Elevation Reference)
PDAT .        GL                         :Permanent Datum
ENGI .        H. DIMITROV / M. MOHAMMED  :Engineer s Name
WITN .        NICK MALKEWICZ             :Witness s Name
LATI .        39.885961 degrees          :Latitude
LONG .        -88.888044 degrees         :Longitude
LUL  .        BRADFORD                   :Logging Unit Location
LUN  .        3003                       :Logging Unit Number
RUN  .        RUN 3B                     :Run Number
SON  .                                   :Service Order Number
BHT  .DEGF     127.00000                 :Bottom Hole Temperature
BS   .IN        12.25000                 :Bit Size
MDEN .LB/G      22.11532                 :Matrix Density for Density Porosity
DFD  .LB/G       9.20000                 :Drilling Fluid Density
DFV  .S         66.00000                 :Drilling Fluid Viscosity
DFL  .C3         7.60000                 :Drilling Fluid Loss
RMFS .OHMM       0.17000                 :Resistivity of Mud Filtrate Sample
EKB  .F        691.19995                 :Elevation of Kelly Bushing
EGL  .F        675.69995                 :Elevation of Ground Level
BLI  .F       7192.00000                 :Bottom Log Interval
BSAL .PPM     15100.00000                :Borehole Salinity
FLEV .F          8.00000                 :Depth of Drilling Fluid Level to LMF (Log Measured From)
MCST .DEGF      72.50000                 :Mudcake Sample Temperature
MFST .DEGF      72.50000                 :Mud Filtrate Sample Temperature
MRT  .DEGF     127.00000                 :Maximum Recorded Temperature
MST  .DEGF      72.50000                 :Mud Sample Temperature
RMCS .OHMM       0.14000                 :Resistivity of Mud Cake Sample
RMS  .OHMM       0.20000                 :Resistivity of Mud Sample
RW   .OHMM       1.00000                 :Connate Water Resistivity
TDD  .F       7193.00049                 :Driller Total Depth
TDL  .F       7192.00000                 :Logger Total Depth
TLI  .F       5231.00000                 :Top Log Interval
HIDE .        WILDCAT                    :Header Identifier
MATR .        SAND                       :Rock Matrix for Neutron Porosity Corrections
FNUM .           1.00000                 :F-Numerator for Formation Factor Formula
FEXP .           2.00000                 :Exponent "m" for Formation Factor Formula
DFT  .        Fresh Water                :Drilling Fluid Type
DFPH .          11.50000                 :Drilling Fluid pH
MCSS .        Calculated                 :Mudcake Sample Source
MFSS .        Calculated                 :Mud Filtrate Sample Source
FD   .LB/G       8.34540                 :Fluid Density
MSS  .        Active Tank                :Mud Sample Source
OS1  .                                   :Other Services Line 1
OS2  .                                   :Other Services Line 2
OS3  .                                   :Other Services Line 3
OS4  .                                   :Other Services Line 4
OS5  .                                   :Other Services Line 5
R1   .        THANKS FOR CHOOSING SCHLUMBERGER!!! :Remarks Line 1
R2   .        All WELL PROPERTIES PROVIDED BY CLIENT :Remarks Line 2
R3   .        ALL SCALES ON PRESENTATIONS AS PER

CLIENT REQUEST :Remarks Line 3
R4   .        MATRIX  SANDSTONE          :Remarks Line 4
R5   .        MATRIX DENSITY  2.65 G/CC  :Remarks Line 5
R6   .        ALL LOGGING INTERVALS AS PER CLIENT REQUEST :Remarks Line 6
R7   .        MRT = 127 DEGF FROM THE THERMOMETER :Remarks Line 7
R8   .                                   :Remarks Line 8
TCS  .        20 00 00                   :Time Circulation Stopped
TLAB .        11 17 00                   :Time Logger At Bottom
EPD  .C3         675.699951              :Elevation of Permanent Datum above Mean Sea Level
APD  .F          15.500000               :Elevation of Depth Reference (LMF) above Permanent Datum
#-----------------------------------------------------------------------------
~CURVE INFORMATION
#MNEM.UNIT   API CODE                                  DESCRIPTION
#---- -----  --------                                  -----------------------
DEPT .F                                                :DEPTH (BOREHOLE) {F12.4}
C1   .IN                                               :Caliper 1 {F11.4}
C2   .IN                                               :Caliper 2 {F11.4}
CDF  .LBF                                              :Calibrated Downhole Force {F11.4}
CTEM .DEGF                                             :Cartridge Temperature {F11.4}
DCAL .IN                                               :Differential Caliper {F11.4}
DEVI .DEG                                              :Hole Deviation {F11.4}
DEVIM.DEG                                              :Memorized Deviation {F11.4}
DTCO .US/F                                             :Delta-T Compressional {F11.4}
DTSM .US/F                                             :Delta-T Shear {F11.4}
ED   .F                                                :East Departure {F11.4}
GR_EDTC.GAPI                                           :Gamma Ray {F11.4}
GTEM .DEGF                                             :Generalized Borehole Temperature {F11.4}
HAZI .DEG                                              :Hole Azimuth Relative to True North {F11.4}
HAZIM.DEG                                              :Hole Azimuth Relative to True North {F11.4}
ITT  .S                                                :Integrated Transit Time {F11.4}
ND   .F                                                :North Departure {F11.4}
P1AZ .DEG                                              :Pad 1 Azimuth in Horizontal Plane (0 = True North) {F11.4}
PR   .                                                 :Poisson s Ratio {F11.4}
RB   .DEG                                              :Relative Bearing {F11.4}
SDEV .DEG                                              :Sonde Deviation {F11.4}
SDEVM.DEG                                              :Sonde Deviation {F11.4}
SPHI .CFCF                                             :Sonic Porosity {F11.4}
STIT .F                                                :Stuck Tool Indicator, Total {F11.4}
TENS .LBF                                              :Cable Tension {F11.4}
#-----------------------------------------------------------------------------
# 
#      DEPT         C1         C2        CDF        CTEM       DCAL       DEVI      DEVIM       DTCO       DTSM        ED      GR_EDTC      GTEM       HAZI      HAZIM       ITT         ND        P1AZ        PR         RB        SDEV      SDEVM       SPHI       STIT       TENS
#
~A  
# ...
   7201.5000     6.5426     7.6053   792.5428   125.2000     0.0000     2.8923     2.9003    98.5709   106.3478   -29.2673    76.5133   127.0779    76.2232    76.2463     0.0000   105.8196   212.0942    -2.5484   135.9075     2.8923     2.9003     0.2699     3.1029  2514.0000
   7202.0000     6.5426     7.6132   747.9326   125.2000     0.0000     2.8925     2.9028    98.5709   106.3478   -29.2429    76.5133   127.0820    76.2314    76.2533     0.0000   105.8256   212.0882    -2.5484   135.8935     2.8925     2.9028     0.2699     2.6218  2413.6667
   7202.5000     6.5467     7.6172   696.3850   125.2000     0.0000     2.8929     2.8984    98.5709   106.3478   -29.2187    76.5133   127.0861    76.2347    76.3556     0.0000   105.8315   212.0883    -2.5484   135.8898     2.8929     2.8984     0.2699     2.5008  2366.3333
   7203.0000     6.5550     7.6212   643.8733   125.2000     0.0000     2.8931     2.8984    98.5709   106.3478   -29.1941    76.5133   127.0902    76.2400    76.3556     0.0000   105.8374   212.0791    -2.5484   135.8757     2.8931     2.8984     0.2699     2.0006  2293.5000
   7203.5000     6.5509     7.6132   606.4184   125.2000     0.0000     2.8929     2.8984    98.5709   106.3478   -29.1692    76.5133   127.0943    76.2391    76.3556     0.0000   105.8435   212.0826    -2.5484   135.8800     2.8929     2.8984     0.2699     1.5005  2192.7500
   7204.0000     6.5467     7.6172   564.9606   125.2000     0.0000     2.8929     2.8984    98.5709   106.3478   -29.1451    76.5133   127.0984    76.2407    76.3556     0.0000   105.8493   212.0976    -2.5484   135.8930     2.8929     2.8984     0.2699     1.0003  2163.7500
   7204.5000     6.5467     7.6092   519.1011   125.2000     0.0000     2.8925     2.8984    98.5709   106.3478   -29.1207    76.5133   127.1025    76.2386    76.3556     0.0000   105.8552   212.1186    -2.5484   135.9168     2.8925     2.8984     0.2699     0.5002  2077.0000
   7205.0000     6.5426     7.5973   476.9194   125.2000     0.0000     2.8921     2.8984    98.5709   106.3478   -29.0957    76.5133   127.1066    76.2327    76.3556     0.0000   105.8613   212.1187    -2.5484   135.9226     2.8921     2.8984     0.2699     0.0000  2027.2500
   7205.5000     6.5426     7.6132   439.0994   125.2000     0.0000     2.8864     2.8984    98.5709   106.3478   -29.0714    76.5133   127.1107    76.1851    76.3556     0.0000   105.8672   212.1859    -2.5484   136.0372     2.8864     2.8984     0.2699     0.0000  2000.2501
   7206.0000     6.5426     7.6053   398.8710   125.2000     0.0000     2.8938     2.8984    98.5709   106.3478   -29.0468    76.5133   127.1148    76.1077    76.3556     0.0000   105.8732   212.1307    -2.5484   136.0597     2.8938     2.8984     0.2699     0.0000  1903.0000
   7206.5000     6.5467     7.6132   359.4105   125.2000     0.0000     2.8893     2.8984    98.5709   106.3478   -29.0222    76.5133   127.1189    76.1649    76.3556     0.0000   105.8792   212.0986    -2.5484   135.9701     2.8893     2.8984     0.2699     0.0000  1898.0000
   7207.0000     6.5385     7.6053   312.2475   125.2000     0.0000     2.8902     2.8984    98.5709   106.3478   -28.9979    76.5133   127.1230    76.2659    76.3556     0.0000   105.8851   212.1373    -2.5484   135.9078     2.8902     2.8984     0.2699     0.0000  1822.5000
   7207.5000     6.5467     7.6053   267.5286   125.2000     0.0000     2.8948     2.8984    98.5709   106.3478   -28.9733    76.5133   127.1271    76.2268    76.3556     0.0000   105.8910   212.1747    -2.5484   135.9842     2.8948     2.8984     0.2699     0.0000  1753.0000
   7208.0000     6.5509     7.6053   234.4199   125.2000     0.0000     2.8968     2.8984    98.5709   106.3478   -28.9487    76.5133   127.1312    76.3747    76.3556     0.0000   105.8970   212.1469    -2.5484   135.8087     2.8968     2.8984     0.2699     0.0000  1717.2501
   7208.5000     6.5467     7.5853   210.7099   125.2000     0.0000     2.8941     2.8984    98.5709   106.3478   -28.9237    76.5133   127.1353    76.2982    76.3556     0.0000   105.9031   212.1245    -2.5484   135.8627     2.8941     2.8984     0.2699     0.0000  1666.2501
   7209.0000     6.5385     7.5693   204.0570   125.2000     0.0000     2.8969     2.8984    98.5709   106.3478   -28.8994    76.5133   127.1394    76.3268    76.3556     0.0000   105.9090   212.1641    -2.5484   135.8739     2.8969     2.8984     0.2699     0.0000  1666.6666
   7209.5000     6.5453     7.5813   203.5830   125.2000     0.0000     2.8967     2.8984    98.5709   106.3478   -28.8747    76.5133   127.1435    76.2315    76.3556     0.0000   105.9150   212.1829    -2.5484   135.9875     2.8967     2.8984     0.2699     0.0000  1694.3334
   7210.0000     6.5233     7.5733   201.5685   125.2000     0.0000     2.8966     2.8984    98.5709   106.3478   -28.8502    76.5133   127.1476    76.3171    76.3556     0.0000   105.9209   212.1768    -2.5484   135.8963     2.8966     2.8984     0.2699     0.0000  1642.5000
   7210.5000     6.4930     7.5414   200.9942   125.2000     0.0000     2.8965     2.8984    98.5709   106.3478   -28.8252    76.5133   127.1517    76.2795    76.3556     0.0000   105.9270   212.1755    -2.5484   135.9327     2.8965     2.8984     0.2699     0.0000  1604.5001
   7211.0000     6.4985     7.5281   203.0013   125.2000     0.0000     2.8960     2.8984    98.5709   106.3478   -28.8007    76.5133   127.1558    76.2555    76.3556     0.0000   105.9329   212.1317    -2.5484   135.9130     2.8960     2.8984     0.2699     0.0000  1513.3334
   7211.5000     6.4888     7.4695   203.8911   125.2000     0.0000 -5787.6439     2.8984    98.5709   106.3478   -28.7773    76.5133   127.1599    76.2673    76.3556     0.0000   105.9386   212.2233    -2.5484   135.9928     2.9005     2.8984     0.2699     0.0000  1426.4000
   7212.0000     6.4888     7.4695   202.6996   125.2000     0.0000  -999.2500     2.8984    98.5709   106.3478   -28.7507    76.5133   127.1640    76.2533    76.3556     0.0000   105.9451   212.1866    -2.5484   135.9704     2.9028     2.8984     0.2699     0.0000  1352.6666
   7212.5000     6.4888     7.4695   200.9049   125.2000     0.0000  -999.2500     2.8984    98.5709   106.3478   -28.7303    76.5133   127.1681    76.3500    76.3556     0.0000   105.9500   212.2102    -2.5484   135.8966     2.8988     2.8984     0.2699     0.0000  1190.5715
