~VERSION INFORMATION
VERS.           1.2   :CWLS Log ASCII Standard - VERSION 1.2
WRAP.           NO    :One Line per depth step
PROD.  Schlumberger   :LAS Producer
PROG.  DLIS to ASCII 2.3                               :LAS Program name and version
CREA.        2015/01/14 20:42                          :LAS Creation date {YYYY/MM/DD hh:mm}
DLIS_CREA.  2015-Jan-14 13:26                          :DLIS Creation date and time {YYYY-MMM-DD hh:mm}
SOURCE.     b1232dd5-b707-4891-82b9-d24dcc6cb5d4       :DLIS File Name
#--------------------------------------------------
~WELL INFORMATION
#MNEM.UNIT      DATA             DESCRIPTION
#---- ------ --------------   -----------------------------
STRT .F      -8.0000         :START DEPTH     
STOP .F      352.5000        :STOP DEPTH     
STEP .F       0.5000         :STEP       
NULL .          -999.25      :NULL VALUE
COMP .                 COMPANY:  ADM Company                        
WELL .                    WELL:  CCS#2                              
FLD  .                   FIELD:  Wildcat                            
LOC  .                LOCATION:  Latitude: 39.885961                
CNTY .                  COUNTY:  Macon                              
STAT .                   STATE:  Illinois                           
CTRY .                 COUNTRY:  USA                                
SRVC .         SERVICE COMPANY:  Schlumberger                       
LATI .DEG             LATITUDE:  39° 53' 9.46" N                    
LONG .DEG            LONGITUDE:  88° 53' 16.959" W                  
API  .              API NUMBER:  12-115-23713-00                    
DATE .                LOG DATE:  13-Jan-2015
UWI  .          UNIQUE WELL ID:                                     
#-----------------------------------------------------------------------------
~PARAMETER INFORMATION
#MNEM.UNIT    VALUE                      DESCRIPTION
#---- -----   --------------------       ------------------------
CN   .        ADM Company                :Company Name
WN   .        CCS#2                      :Well Name
FN   .        Wildcat                    :Field Name
FL   .        Latitude  39.885961        :Field Location
FL1  .        Longitude  -88.888044      :Field Location, Line 1
COUN .        Macon                      :County or Parish
STAT .        Illinois                   :State or Province
NATI .        USA                        :Nation
DATE .        13-Jan-2015                :Tools Above Rotary Table Date
APIN .        12-115-23713-00            :API Well Number
SECT .        32                         :Section
TOWN .        17N                        :Township
RANG .        3E                         :Range
DMF  .        KB                         :Drilling Measured From (Name of Drilling Elevation Reference)
LMF  .        KB                         :Logging Measured From (Name of Logging Elevation Reference)
PDAT .        GL                         :Permanent Datum
ENGI .        Devin Arnold               :Engineer s Name
WITN .        Nick Malkewicz             :Witness s Name
LATI .        39° 53' 9.46  N            :Latitude
LONG .        88° 53' 16.959  W          :Longitude
LUL  .        Bradford                   :Logging Unit Location
LUN  .        3095                       :Logging Unit Number
RUN  .        2                          :Run Number
SON  .        D71E-00006                 :Service Order Number
BHT  .DEGF      58.00000                 :Bottom Hole Temperature
BS   .IN        26.00000                 :Bit Size
MDEN .G/C3       2.71000                 :Matrix Density for Density Porosity
DFD  .LB/G      10.10000                 :Drilling Fluid Density
DFV  .S       -999.25000                 :Drilling Fluid Viscosity
DFL  .C3      -999.25000                 :Drilling Fluid Loss
RMFS .OHMM       1.23200                 :Resistivity of Mud Filtrate Sample
EKB  .F        691.19995                 :Elevation of Kelly Bushing
EGL  .F        675.69995                 :Elevation of Ground Level
BLI  .F        345.00000                 :Bottom Log Interval
BSAL .PPM        0.00000                 :Borehole Salinity
FLEV .F          8.00000                 :Depth of Drilling Fluid Level to LMF (Log Measured From)
MCST .DEGF      42.80000                 :Mudcake Sample Temperature
MFST .DEGF      42.80000                 :Mud Filtrate Sample Temperature
MRT  .DEGF      58.00000                 :Maximum Recorded Temperature
MST  .DEGF      42.80000                 :Mud Sample Temperature
RMCS .OHMM       1.84800                 :Resistivity of Mud Cake Sample
RMS  .OHMM       1.54000                 :Resistivity of Mud Sample
RW   .OHMM       1.00000                 :Connate Water Resistivity
TDD  .F        349.00000                 :Driller Total Depth
TDL  .F        349.00000                 :Logger Total Depth
TLI  .F         50.00000                 :Top Log Interval
HIDE .        Wildcat                    :Header Identifier
MATR .        LIME                       :Rock Matrix for Neutron Porosity Corrections
FNUM .           1.00000                 :F-Numerator for Formation Factor Formula
FEXP .           2.00000                 :Exponent "m" for Formation Factor Formula
DFT  .        Fresh Mud                  :Drilling Fluid Type
DFPH .        -999.25000                 :Drilling Fluid pH
MCSS .        Calculated                 :Mudcake Sample Source
MFSS .        Calculated                 :Mud Filtrate Sample Source
FD   .G/C3       1.00000                 :Fluid Density
MSS  .        Active Tank                :Mud Sample Source
OS1  .                                   :Other Services Line 1
OS2  .                                   :Other Services Line 2
OS3  .                                   :Other Services Line 3
OS4  .                                   :Other Services Line 4
OS5  .                                   :Other Services Line 5
R1   .        Matrix Density  Limestone. :Remarks Line 1
R2   .        Mud Sample taken on location. :Remarks Line 2
R3   .        Presentations as per client request. :Remarks Line 3
R4   .        No Chemical Sources ran due to possible potable water zones. :Remarks Line 4
R5   .        Bottom Hole Temperature taken from GM2 temperature log provided by the client. 58degF :Remarks Line 5
R6   .                                   :Remarks Line 6
R7   .                                   :Remarks Line 7
R8   .                                   :Remarks Line 8
TCS  .        19 45 00                   :Time Circulation Stopped
TLAB .        03 30 00                   :Time Logger At Bottom
EPD  .C3         675.699951              :Elevation of Permanent Datum above Mean Sea Level
APD  .F          15.500000               :Elevation of Depth Reference (LMF) above Permanent Datum
#-----------------------------------------------------------------------------
~CURVE INFORMATION
#MNEM.UNIT   API CODE                                  DESCRIPTION
#---- -----  --------                                  -----------------------
DEPT .F                                                :DEPTH (BOREHOLE) {F12.4}
CDF  .LBF                                              :Calibrated Downhole Force {F11.4}
CTEM .DEGF                                             :Cartridge Temperature {F11.4}
DCAL .IN                                               :Differential Caliper {F11.4}
DT   .US/F                                             :Delta-T (also called Slowness or Interval Transit Time) {F11.4}
ED   .F                                                :East Departure {F11.4}
GR_EDTC.GAPI                                           :Gamma Ray {F11.4}
GTEM .DEGF                                             :Generalized Borehole Temperature {F11.4}
HAZI .DEG                                              :Hole Azimuth Relative to True North {F11.4}
HAZIM.DEG                                              :Memorized Hole Azimuth {F11.4}
ITT  .S                                                :Integrated Transit Time {F11.4}
ND   .F                                                :North Departure {F11.4}
P1AZ .DEG                                              :Pad 1 Azimuth in Horizontal Plane (0 = True North) {F11.4}
RB   .DEG                                              :Relative Bearing {F11.4}
SDEV .DEG                                              :Sonde Deviation {F11.4}
SDEVM.DEG                                              :Memorized Sonde Deviation {F11.4}
SPHI .CFCF                                             :Sonic Porosity {F11.4}
STIT .F                                                :Stuck Tool Indicator, Total {F11.4}
TENS .LBF                                              :Cable Tension {F11.4}
#-----------------------------------------------------------------------------
# 
#      DEPT        CDF        CTEM       DCAL        DT         ED      GR_EDTC      GTEM       HAZI      HAZIM       ITT         ND        P1AZ        RB        SDEV      SDEVM       SPHI       STIT       TENS
#
~A  
# ...
    201.0000   655.8975    72.6588    -5.8678   118.5619    -0.2005    68.6941    56.5200   205.3716   169.0368     0.0172     0.1064   157.4810   312.1363     2.4835     2.4537     0.4704     0.0000   871.7333
    201.5000   655.8975    72.6588    -5.8968   120.4631    -0.2019    67.4613    56.5250   204.6411   168.3258     0.0172     0.1024   156.7168   312.1025     2.4837     2.4540     0.4847     0.0000   865.0715
    202.0000   655.8975    72.6588    -5.8678   121.7121    -0.2032    67.9885    56.5300   204.0872   167.6350     0.0171     0.0986   156.0808   312.0204     2.4836     2.4542     0.4941     0.0000   867.6429
    202.5000   655.5657    72.6588    -5.8678   123.8551    -0.2044    60.8933    56.5350   203.3569   167.1391     0.0171     0.0947   155.3208   311.9906     2.4837     2.4545     0.5102     0.0000   864.2667
    203.0000   658.3860    72.6588    -5.8963   119.9729    -0.2056    54.8477    56.5400   202.6267   166.4988     0.0170     0.0907   154.5025   311.9025     2.4837     2.4544     0.4810     0.0000   901.1429
    203.5000   656.5848    72.6588    -5.8678   112.0554    -0.2067    50.6893    56.5450   201.9146   165.8861     0.0169     0.0867   153.7879   311.9002     2.4837     2.4542     0.4215     0.0000   921.0000
    204.0000   655.8975    72.6588    -5.8678   103.4862    -0.2077    50.2645    56.5500   201.4000   165.2877     0.0169     0.0828   153.2409   311.8675     2.4841     2.4546     0.3570     0.0000   855.1429
    204.5000   656.5611    72.6588    -5.8678   102.1963    -0.2086    55.9267    56.5550   200.7368   164.8309     0.0168     0.0789   152.5294   311.8194     2.4843     2.4545     0.3473     0.0000   839.4286
    205.0000   657.3196    72.6588    -5.8678   108.1529    -0.2094    60.5286    56.5600   200.1095   164.2207     0.0168     0.0751   151.9478   311.8651     2.4845     2.4550     0.3921     0.0000   922.5000
    205.5000   657.8883    72.6588    -5.8407   113.6015    -0.2102    63.6689    56.5650   199.6723   163.5638     0.0167     0.0713   151.4520   311.8063     2.4848     2.4555     0.4331     0.0000   859.6429
    206.0000   657.2247    72.6588    -5.8412   118.2337    -0.2109    64.0053    56.5700   199.1093   162.8375     0.0167     0.0674   151.0129   311.9305     2.4849     2.4556     0.4679     0.0000   919.9333
    206.5000   655.8975    72.6588    -5.8412   115.0472    -0.2115    57.2376    56.5750   198.5858   162.2573     0.0166     0.0635   150.6657   312.1068     2.4849     2.4562     0.4440     0.0000   861.8572
    207.0000   656.6085    72.6588    -5.8407   112.8156    -0.2120    62.1111    56.5800   198.0769   161.3923     0.0166     0.0597   150.1564   312.1063     2.4848     2.4566     0.4272     0.0000   865.9286
    207.5000   658.8363    72.6588    -5.8678   111.3941    -0.2124    61.4665    56.5850   197.7022   160.4310     0.0165     0.0557   149.7221   312.0468     2.4849     2.4570     0.4165     0.0000   921.4667
    208.0000   658.6400    72.6588    -5.8678   111.4254    -0.2128    66.1534    56.5900   197.1976   159.6631     0.0164     0.0518   149.2278   312.0569     2.4846     2.4577     0.4167     0.0000   903.5715
    208.5000   656.8929    72.6588    -5.8412   112.3264    -0.2131    64.5731    56.5950   196.6901   158.5475     0.0164     0.0480   148.8093   312.1460     2.4838     2.4583     0.4235     0.0000   850.0001
    209.0000   654.4755    72.6588    -5.8412   112.9298    -0.2133    61.6632    56.6000   196.2930   157.3596     0.0163     0.0443   148.4677   312.2014     2.4838     2.4590     0.4280     0.0000   891.1429
    209.5000   655.2339    72.6588    -5.8678   113.2308    -0.2134    63.6218    56.6050   195.7564   156.0856     0.0163     0.0405   147.9894   312.2599     2.4831     2.4605     0.4303     0.0000   898.7143
    210.0000   658.0305    72.6588    -5.8412   113.2166    -0.2135    60.6387    56.6100   195.1956   155.1246     0.0162     0.0366   147.4102   312.2415     2.4825     2.4606     0.4302     0.0000   926.9333
    210.5000   654.9022    72.6588    -5.8678   114.9148    -0.2134    64.3260    56.6150   194.7503   153.8030     0.0162     0.0328   146.9587   312.2353     2.4819     2.4625     0.4430     0.0000   879.6429
    211.0000   655.8975    72.6588    -5.8682   116.2913    -0.2133    61.6712    56.6200   194.1534   152.5049     0.0161     0.0290   146.1207   311.9940     2.4813     2.4639     0.4533     0.0000   889.3571
    211.5000   656.8929    72.6588    -5.8412   116.9002    -0.2131    63.1104    56.6250   193.5247   151.2471     0.0160     0.0252   145.5016   312.0035     2.4805     2.4658     0.4579     0.0000   912.4000
    212.0000   656.8692    72.6588    -5.8678   116.8876    -0.2129    60.8395    56.6300   192.8987   150.3508     0.0160     0.0213   144.8802   312.0081     2.4800     2.4673     0.4578     0.0000   914.7857
    212.5000   655.8975    72.6588    -5.8412   116.9256    -0.2125    61.0669    56.6350   192.4203   149.2168     0.0159     0.0176   144.4275   312.0338     2.4797     2.4694     0.4581     0.0000   916.2144
    213.0000   654.3096    72.6588    -5.8678   116.5533    -0.2121    55.8167    56.6400   191.7940   148.1711     0.0159     0.0138   143.7559   311.9886     2.4796     2.4717     0.4553     0.0000   866.9333
    213.5000   655.5421    72.6588    -5.8682   115.9354    -0.2116    54.6297    56.6450   191.1765   147.4361     0.0158     0.0099   143.1114   311.9615     2.4798     2.4731     0.4506     0.0000   843.7857
    214.0000   654.5263    72.6588    -5.8412   115.3055    -0.2110    54.9701    56.6500   190.5848   146.5229     0.0158     0.0062   142.5124   311.9543     2.4798     2.4752     0.4459     0.0000   918.7857
    214.5000   655.8975    72.6588    -5.8682   114.1246    -0.2103    60.5861    56.6550   190.1513   145.6718     0.0157     0.0025   142.1198   311.9951     2.4797     2.4769     0.4370     0.0000   914.7144
    215.0000   656.5612    72.6588    -5.8682   113.1194    -0.2096    61.8234    56.6600   189.5961   144.8628     0.0156    -0.0013   141.5622   311.9928     2.4792     2.4785     0.4295     0.0000   854.8000
    215.5000   654.1708    72.6588    -5.8682   112.1761    -0.2087    58.8094    56.6650   189.0676   144.2894     0.0156    -0.0051   141.0071   311.9663     2.4785     2.4794     0.4224     0.0000   905.2858
    216.0000   654.8310    72.6588    -5.8682   111.4717    -0.2079    58.9310    56.6700   188.6893   143.5459     0.0155    -0.0088   140.6771   312.0144     2.4784     2.4807     0.4171     0.0000   890.5715
    216.5000   654.9022    72.6588    -5.8953   111.8479    -0.2069    57.7469    56.6750   188.2049   142.8336     0.0155    -0.0125   140.2227   312.0445     2.4778     2.4818     0.4199     0.0000   900.5715
    217.0000   654.5703    72.6588    -5.9224   111.9399    -0.2058    61.7620    56.6800   187.7542   142.1364     0.0154    -0.0162   139.6941   311.9666     2.4781     2.4827     0.4206     0.0000   893.8666
    217.5000   656.2531    72.6588    -5.8948   111.7585    -0.2047    58.9213    56.6850   187.3250   141.6311     0.0154    -0.0201   139.3411   312.0428     2.4780     2.4836     0.4192     0.0000   860.2857
    218.0000   656.2293    72.6588    -5.8953   111.8879    -0.2035    58.2537    56.6900   187.0163   140.9685     0.0153    -0.0237   139.0580   312.0684     2.4780     2.4845     0.4202     0.0000   910.3572
    218.5000   655.1865    72.6588    -5.8953   111.8719    -0.2022    54.3754    56.6950   186.6168   140.3253     0.0152    -0.0273   138.6332   312.0430     2.4777     2.4853     0.4201     0.0000   909.5714
    219.0000   656.5612    72.6588    -5.8953   111.9301    -0.2008    54.4121    56.7000   186.2312   139.6881     0.0152    -0.0311   138.2000   311.9954     2.4773     2.4861     0.4205     0.0000   927.8666
    219.5000   654.8818    72.6588    -5.8948   111.9266    -0.1993    55.1044    56.7050   185.9566   139.2208     0.0151    -0.0348   137.9951   312.0652     2.4773     2.4869     0.4205     0.0000   870.2143
