~VERSION INFORMATION
VERS.           1.2   :CWLS Log ASCII Standard - VERSION 1.2
WRAP.           NO    :One Line per depth step
PROD.  Schlumberger   :LAS Producer
PROG.  DLIS to ASCII 2.3                               :LAS Program name and version
CREA.        2015/05/06 16:26                          :LAS Creation date {YYYY/MM/DD hh:mm}
DLIS_CREA.  2015-May-04 11:59                          :DLIS Creation date and time {YYYY-MMM-DD hh:mm}
SOURCE.     301ad50a-0e97-4ef4-9f57-5a70afd84532       :DLIS File Name
#--------------------------------------------------
~WELL INFORMATION
#MNEM.UNIT      DATA             DESCRIPTION
#---- ------ --------------   -----------------------------
STRT .F      23.5000         :START DEPTH     
STOP .F      5264.5000       :STOP DEPTH     
STEP .F       0.5000         :STEP       
NULL .          -999.25      :NULL VALUE
COMP .                 COMPANY:  ADM COMPANY                        
WELL .                    WELL:  CCS#2                              
FLD  .                   FIELD:  WILDCAT                            
LOC  .                LOCATION:  Latitude: 39.885961                
CNTY .                  COUNTY:  MACON                              
STAT .                   STATE:  ILLINOIS                           
CTRY .                 COUNTRY:  USA                                
SRVC .         SERVICE COMPANY:  Schlumberger                       
LATI .DEG             LATITUDE:  39° 53' 9.46" N                    
LONG .DEG            LONGITUDE:  88° 53' 16.958" W                  
API  .              API NUMBER:  12-115-23713-00                    
DATE .                LOG DATE:  03-May-2015
UWI  .          UNIQUE WELL ID:                                     
#-----------------------------------------------------------------------------
~PARAMETER INFORMATION
#MNEM.UNIT    VALUE                      DESCRIPTION
#---- -----   --------------------       ------------------------
CN   .        ADM COMPANY                :Company Name
WN   .        CCS#2                      :Well Name
FN   .        WILDCAT                    :Field Name
FL   .        Latitude  39.885961        :Field Location
FL1  .        Longitude  -88.888044      :Field Location, Line 1
COUN .        MACON                      :County or Parish
STAT .        ILLINOIS                   :State or Province
NATI .        USA                        :Nation
DATE .        03-May-2015                :Tools Above Rotary Table Date
APIN .        12-115-23713-00            :API Well Number
SECT .        32                         :Section
TOWN .        17N                        :Township
RANG .        3E                         :Range
DMF  .        KB                         :Drilling Measured From (Name of Drilling Elevation Reference)
LMF  .        KB                         :Logging Measured From (Name of Logging Elevation Reference)
PDAT .        GL                         :Permanent Datum
ENGI .        Yazan Alhabahbeh           :Engineer s Name
WITN .        Nick Malkewicz             :Witness s Name
LATI .        39° 53' 9.46  N            :Latitude
LONG .        88° 53' 16.958  W          :Longitude
LUL  .        BRADFORD                   :Logging Unit Location
LUN  .        3019                       :Logging Unit Number
RUN  .        2B                         :Run Number
SON  .        D9QJ-00005                 :Service Order Number
BHT  .DEGF     132.00000                 :Bottom Hole Temperature
BS   .IN        17.50000                 :Bit Size
MDEN .G/C3       2.71000                 :Matrix Density for Density Porosity
DFD  .LB/G       9.15000                 :Drilling Fluid Density
DFV  .S         61.00000                 :Drilling Fluid Viscosity
DFL  .C3      -999.25000                 :Drilling Fluid Loss
RMFS .OHMM       0.16000                 :Resistivity of Mud Filtrate Sample
EKB  .F        691.19995                 :Elevation of Kelly Bushing
EGL  .F        675.69995                 :Elevation of Ground Level
BLI  .F       5252.00000                 :Bottom Log Interval
BSAL .PPM     14700.00000                :Borehole Salinity
FLEV .F          8.00000                 :Depth of Drilling Fluid Level to LMF (Log Measured From)
MCST .DEGF      74.30000                 :Mudcake Sample Temperature
MFST .DEGF      72.50000                 :Mud Filtrate Sample Temperature
MRT  .DEGF     135.00000                 :Maximum Recorded Temperature
MST  .DEGF      73.50000                 :Mud Sample Temperature
RMCS .OHMM       0.26600                 :Resistivity of Mud Cake Sample
RMS  .OHMM       0.19000                 :Resistivity of Mud Sample
RW   .OHMM       1.00000                 :Connate Water Resistivity
TDD  .F       5252.00000                 :Driller Total Depth
TDL  .F       5252.00000                 :Logger Total Depth
TLI  .F        200.00000                 :Top Log Interval
HIDE .        WILDCAT                    :Header Identifier
MATR .        LIME                       :Rock Matrix for Neutron Porosity Corrections
FNUM .           1.00000                 :F-Numerator for Formation Factor Formula
FEXP .           2.00000                 :Exponent "m" for Formation Factor Formula
DFT  .        SALT WATER                 :Drilling Fluid Type
DFPH .          11.00000                 :Drilling Fluid pH
MCSS .        Calculated                 :Mudcake Sample Source
MFSS .        Calculated                 :Mud Filtrate Sample Source
FD   .G/C3       1.00000                 :Fluid Density
MSS  .        Active Tank                :Mud Sample Source
OS1  .                                   :Other Services Line 1
OS2  .                                   :Other Services Line 2
OS3  .                                   :Other Services Line 3
OS4  .                                   :Other Services Line 4
OS5  .                                   :Other Services Line 5
R1   .        THANKS FOR CHOOSING

SCHLUMBERGER!!! :Remarks Line 1
R2   .        MATRIX  LIMESTONE          :Remarks Line 2
R3   .        MATRIX DENSITY  2.71 G/CC  :Remarks Line 3
R4   .        All WELL PROPERTIES PROVIDED BY

CLIENT . :Remarks Line 4
R5   .        ALL SCALES ON PRESENTATIONS AS PER

CLIENT REQUEST :Remarks Line 5
R6   .        Temp recorded by sensors inside the tool . :Remarks Line 6
R7   .                                   :Remarks Line 7
R8   .                                   :Remarks Line 8
TCS  .        04 45 00                   :Time Circulation Stopped
TLAB .        22 39 00                   :Time Logger At Bottom
EPD  .C3         675.699951              :Elevation of Permanent Datum above Mean Sea Level
APD  .F          15.500000               :Elevation of Depth Reference (LMF) above Permanent Datum
#-----------------------------------------------------------------------------
~CURVE INFORMATION
#MNEM.UNIT   API CODE                                  DESCRIPTION
#---- -----  --------                                  -----------------------
DEPT .F                                                :DEPTH (BOREHOLE) {F12.4}
C1   .IN                                               :Caliper 1 {F11.4}
C2   .IN                                               :Caliper 2 {F11.4}
CDF  .LBF                                              :Calibrated Downhole Force {F11.4}
CTEM .DEGF                                             :Cartridge Temperature {F11.4}
DCAL .IN                                               :Differential Caliper {F11.4}
DEVI .DEG                                              :Hole Deviation {F11.4}
DEVIM.DEG                                              :Memorized Deviation {F11.4}
DTCO .US/F                                             :Delta-T Compressional {F11.4}
DTSM .US/F                                             :Delta-T Shear {F11.4}
ED   .F                                                :East Departure {F11.4}
GR_EDTC.GAPI                                           :Gamma Ray {F11.4}
GTEM .DEGF                                             :Generalized Borehole Temperature {F11.4}
HAZI .DEG                                              :Hole Azimuth Relative to True North {F11.4}
HAZIM.DEG                                              :Hole Azimuth Relative to True North {F11.4}
ITT  .S                                                :Integrated Transit Time {F11.4}
ND   .F                                                :North Departure {F11.4}
P1AZ .DEG                                              :Pad 1 Azimuth in Horizontal Plane (0 = True North) {F11.4}
PR   .                                                 :Poisson s Ratio {F11.4}
RB   .DEG                                              :Relative Bearing {F11.4}
SDEV .DEG                                              :Sonde Deviation {F11.4}
SDEVM.DEG                                              :Sonde Deviation {F11.4}
SPHI .CFCF                                             :Sonic Porosity {F11.4}
STIT .F                                                :Stuck Tool Indicator, Total {F11.4}
TENS .LBF                                              :Cable Tension {F11.4}
#-----------------------------------------------------------------------------
# 
#      DEPT         C1         C2        CDF        CTEM       DCAL       DEVI      DEVIM       DTCO       DTSM        ED      GR_EDTC      GTEM       HAZI      HAZIM       ITT         ND        P1AZ        PR         RB        SDEV      SDEVM       SPHI       STIT       TENS
#
~A  
# ...
   3155.5000    19.2858    18.1157   237.4579   139.8588     1.1667     0.6670     0.5654    48.8898    81.6293     0.0000    21.1085   106.4524   115.7000   114.7605     0.1140     0.0000   277.6683     0.2203   161.9688     0.6777     0.5730    -0.0535     0.0000  2419.0000
   3156.0000    19.2937    18.1232   240.7074   139.8588     1.1667     0.6646     0.5659    48.9424    81.3607     0.0000    23.1146   106.4585   115.5709   115.0826     0.1140     0.0000   277.6334     0.2165   162.0638     0.6752     0.5736    -0.0531     0.0000  2466.0000
   3156.5000    19.3016    18.1306   241.4653   139.8588     1.1516     0.6617     0.5672    48.8664    82.1872     0.0000    20.5038   106.4646   115.3934   115.4149     0.1140     0.0000   277.5385     0.2266   162.1461     0.6723     0.5749    -0.0536     0.0000  2443.3333
   3157.0000    19.2937    18.1381   240.7705   139.8588     1.1519     0.6568     0.5698    48.8348    83.3169     0.0000    20.2714   106.4707   115.2621   115.8977     0.1140     0.0000   277.6570     0.2383   162.3947     0.6672     0.5776    -0.0539     0.0000  2424.7500
   3157.5000    19.3252    18.1604   239.8655   139.8588     1.1822     0.6520     0.5728    49.1396    82.9491     0.0000    17.5616   106.4768   115.1161   116.3822     0.1139     0.0000   277.7018     0.2296   162.5869     0.6623     0.5807    -0.0516     0.0000  2416.7500
   3158.0000    19.3370    18.1753   243.2393   139.8588     1.1516     0.6468     0.5754    48.9063    80.5500     0.0000    18.8663   106.4829   115.0608   116.7196     0.1139     0.0000   277.7294     0.2081   162.6705     0.6570     0.5834    -0.0533     0.0000  2437.6667
   3158.5000    19.3095    18.1828   241.8585   139.8588     1.2279     0.6398     0.5783    48.8480    75.0320     0.0000    19.1003   106.4890   114.9767   117.0893     0.1139     0.0000   277.8304     0.1322   162.8556     0.6497     0.5864    -0.0538     0.0000  2427.7500
   3159.0000    19.3488    18.1828   239.6393   139.8588     1.1988     0.6325     0.5794    48.9084    76.3715     0.0000    18.1458   106.4950   115.0323   117.2954     0.1139     0.0000   277.6750     0.1524   162.6441     0.6422     0.5876    -0.0533     0.0000  2441.3333
   3159.5000    19.3567    18.1828   239.1869   139.8588     1.2138     0.6264     0.5802    48.9005    83.9279     0.0000    18.4750   106.5011   115.0018   117.4508     0.1138     0.0000   277.5554     0.2430   162.5540     0.6359     0.5884    -0.0534     0.0000  2371.0000
   3160.0000    19.3567    18.1902   240.5442   139.8588     1.2111     0.6195     0.5800    49.0534    83.9050     0.0000    19.7621   106.5072   115.0214   117.4858     0.1138     0.0000   277.3683     0.2404   162.3487     0.6288     0.5881    -0.0522     0.0000  2410.0002
   3160.5000    19.3449    18.1753   243.0327   139.8588     1.1981     0.6137     0.5790    49.4517    84.7128     0.0000    22.3547   106.5133   115.0558   117.4274     0.1138     0.0000   277.2211     0.2415   162.1657     0.6228     0.5870    -0.0492     0.0000  2438.3333
   3161.0000    19.3528    18.1791   242.3540   139.8588     1.2580     0.6078     0.5786    49.5328    83.3261     0.0000    20.8545   106.5194   115.0877   117.5443     0.1138     0.0000   276.9680     0.2268   161.8813     0.6167     0.5867    -0.0486     0.0000  2394.7500
   3161.5000    19.3606    18.3951   242.5803   139.8588     1.3751     0.6021     0.5771    49.7831    75.8998     0.0000    19.2544   106.5255   115.0638   117.4172     0.1137     0.0000   276.7251     0.1225   161.6621     0.6109     0.5852    -0.0467     0.0000  2431.2500
   3162.0000    19.3528    18.2759   239.4454   139.8588     1.2260     0.5965     0.5754    49.9696    73.3991     0.0000    19.3535   106.5316   115.0254   117.4850     0.1137     0.0000   276.4689     0.0681   161.4447     0.6051     0.5834    -0.0453     0.0000  2372.0000
   3162.5000    19.3528    18.1679   245.9252   139.8588     1.1962     0.5904     0.5742    50.2470    85.2460     0.0000    18.8092   106.5377   114.9240   117.4603     0.1137     0.0000   276.1136     0.2338   161.1907     0.5988     0.5821    -0.0433     0.0000  2458.7500
   3163.0000    19.3488    18.1753   242.3540   139.8588     1.2260     0.5840     0.5716    50.4274    87.7725     0.0000    19.8808   106.5438   114.6537   117.4205     0.1137     0.0000   275.6494     0.2536   160.9976     0.5922     0.5795    -0.0419     0.0000  2412.0000
   3163.5000    19.3961    18.1828   242.3540   139.8588     1.2260     0.5787     0.5699    50.8765    89.8547     0.0000    20.1910   106.5499   114.6721   117.5717     0.1136     0.0000   275.3527     0.2641   160.6806     0.5868     0.5778    -0.0385     0.0000  2435.0000
   3164.0000    19.4118    18.1939   240.3503   139.8588     1.2287     0.5735     0.5671    51.6462    88.7182     0.0000    20.9705   106.5560   114.4471   117.5115     0.1136     0.0000   275.7285     0.2437   161.2817     0.5815     0.5749    -0.0327     0.0000  2419.2500
   3164.5000    19.4000    18.1791   243.0327   139.8588     1.2285     0.5693     0.5645    52.0470    86.4307     0.0000    22.6847   106.5621   114.5493   117.6891     0.1136     0.0000   275.7265     0.2155   161.1777     0.5772     0.5722    -0.0297     0.0000  2475.3333
   3165.0000    19.3921    18.1753   241.9178   139.8588     1.2271     0.5669     0.5615    52.2362    85.8170     0.0000    24.6512   106.5682   114.5441   117.5850     0.1136     0.0000   275.5826     0.2057   161.0387     0.5746     0.5691    -0.0283     0.0000  2432.2500
   3165.5000    19.4040    18.1865   242.1278   139.8588     1.2572     0.5653     0.5581    52.2546    88.3257     0.0000    31.3185   106.5743   114.8332   117.7835     0.1135     0.0000   275.5211     0.2308   160.6878     0.5730     0.5656    -0.0282     0.0000  2473.2500
   3166.0000    19.4000    18.1977   240.9967   139.8588     1.2118     0.5659     0.5557    52.1626    90.1136     0.0000    42.2173   106.5804   115.0826   117.6141     0.1135     0.0000   275.6578     0.2480   160.5758     0.5736     0.5631    -0.0289     0.0000  2419.6667
   3166.5000    19.3961    18.1828   243.4852   139.8588     1.1989     0.5671     0.5519    51.9420    89.1154     0.0000    51.5494   106.5864   115.5492   117.7125     0.1135     0.0000   276.0822     0.2427   160.5345     0.5749     0.5592    -0.0305     0.0000  2422.0000
   3167.0000    19.3725    18.2051   241.2918   139.8588     1.2260     0.5697     0.5482    51.6718    88.5243     0.0000    55.9310   106.5925   116.0134   117.5638     0.1134     0.0000   276.0955     0.2416   160.0833     0.5776     0.5554    -0.0325     0.0000  2417.0000
   3167.5000    19.3961    18.1791   240.6904   139.8588     1.2583     0.5728     0.5456    51.2881    88.2012     0.0000    46.4737   106.5986   116.3822   117.4762     0.1134     0.0000   276.1686     0.2446   159.7871     0.5807     0.5528    -0.0354     0.0000  2420.6667
   3168.0000    19.4197    18.1791   240.7705   139.8588     1.2879     0.5755     0.5420    50.7849    85.3213     0.0000    34.5306   106.6047   116.7717   117.1424     0.1134     0.0000   276.3573     0.2257   159.5874     0.5835     0.5491    -0.0392     0.0000  2408.6667
   3168.5000    19.4158    18.1828   241.4491   139.8588     1.2730     0.5772     0.5403    49.9213    84.9552     0.0000    26.4419   106.6108   117.0712   117.0454     0.1134     0.0000   276.5273     0.2363   159.4570     0.5853     0.5473    -0.0457     0.0000  2419.0000
   3169.0000    19.4433    18.1865   240.7705   139.8588     1.2724     0.5794     0.5371    49.7140    82.8464     0.0000    23.5633   106.6169   117.2954   116.7123     0.1133     0.0000   276.5037     0.2186   159.2095     0.5876     0.5440    -0.0473     0.0000  2377.0000
   3169.5000    19.4630    18.2275   243.4852   139.8588     1.2860     0.5791     0.5361    49.4759    82.8001     0.0000    24.3833   106.6230   117.3829   116.7302     0.1133     0.0000   276.3708     0.2223   158.9873     0.5872     0.5431    -0.0491     0.0000  2409.3335
