~VERSION INFORMATION
VERS.           1.2   :CWLS Log ASCII Standard - VERSION 1.2
WRAP.           NO    :One Line per depth step
PROD.  Schlumberger   :LAS Producer
PROG.  DLIS to ASCII 2.3                               :LAS Program name and version
CREA.        2015/05/30 05:44                          :LAS Creation date {YYYY/MM/DD hh:mm}
DLIS_CREA.  2015-May-29 22:59                          :DLIS Creation date and time {YYYY-MMM-DD hh:mm}
SOURCE.     3feb4549-4107-45e4-8f62-928498d876c9       :DLIS File Name
#--------------------------------------------------
~WELL INFORMATION
#MNEM.UNIT      DATA             DESCRIPTION
#---- ------ --------------   -----------------------------
STRT .F      5218.5000       :START DEPTH     
STOP .F      7211.0000       :STOP DEPTH     
STEP .F       0.5000         :STEP       
NULL .          -999.25      :NULL VALUE
COMP .                 COMPANY:  ADM COMPANY                        
WELL .                    WELL:  CCS#2                              
FLD  .                   FIELD:  WILDCAT                            
LOC  .                LOCATION:  LAT 39.885961                      
CNTY .                  COUNTY:  MACON                              
STAT .                   STATE:  ILLINOIS                           
CTRY .                 COUNTRY:  USA                                
SRVC .         SERVICE COMPANY:  Schlumberger                       
LATI .DEG             LATITUDE:  39.885961 degrees                  
LONG .DEG            LONGITUDE:  -88.888044 degrees                 
API  .              API NUMBER:  12-115-23713-00                    
DATE .                LOG DATE:  29-May-2015
UWI  .          UNIQUE WELL ID:  12-115-23713-00                    
#-----------------------------------------------------------------------------
~PARAMETER INFORMATION
#MNEM.UNIT    VALUE                      DESCRIPTION
#---- -----   --------------------       ------------------------
CN   .        ADM COMPANY                :Company Name
WN   .        CCS#2                      :Well Name
FN   .        WILDCAT                    :Field Name
FL   .        LAT 39.885961              :Field Location
FL1  .        LONG 39.885961             :Field Location, Line 1
COUN .        MACON                      :County or Parish
STAT .        ILLINOIS                   :State or Province
NATI .        USA                        :Nation
DATE .        29-May-2015                :Tools Above Rotary Table Date
APIN .        12-115-23713-00            :API Well Number
SECT .        32                         :Section
TOWN .        17N                        :Township
RANG .        3E                         :Range
DMF  .        KB                         :Drilling Measured From (Name of Drilling Elevation Reference)
LMF  .        KB                         :Logging Measured From (Name of Logging Elevation Reference)
PDAT .        GL                         :Permanent Datum
ENGI .        H. DIMITROV / M. MOHAMMED  :Engineer s Name
WITN .        NICK MALKEWICZ             :Witness s Name
LATI .        39.885961 degrees          :Latitude
LONG .        -88.888044 degrees         :Longitude
LUL  .        BRADFORD                   :Logging Unit Location
LUN  .        3003                       :Logging Unit Number
RUN  .        Run 3C                     :Run Number
SON  .                                   :Service Order Number
BHT  .DEGF     127.00000                 :Bottom Hole Temperature
BS   .IN        12.25000                 :Bit Size
DFD  .LB/G       9.20000                 :Drilling Fluid Density
DFV  .S         66.00000                 :Drilling Fluid Viscosity
DFL  .C3         7.60000                 :Drilling Fluid Loss
RMFS .OHMM       0.17000                 :Resistivity of Mud Filtrate Sample
EKB  .F        691.19995                 :Elevation of Kelly Bushing
EGL  .F        675.69995                 :Elevation of Ground Level
BLI  .F       7192.00000                 :Bottom Log Interval
BSAL .PPM     15100.00000                :Borehole Salinity
FLEV .F          8.00000                 :Depth of Drilling Fluid Level to LMF (Log Measured From)
MCST .DEGF      72.50000                 :Mudcake Sample Temperature
MFST .DEGF      72.50000                 :Mud Filtrate Sample Temperature
MRT  .DEGF     127.00000                 :Maximum Recorded Temperature
MST  .DEGF      72.50000                 :Mud Sample Temperature
RMCS .OHMM       0.14000                 :Resistivity of Mud Cake Sample
RMS  .OHMM       0.20000                 :Resistivity of Mud Sample
RW   .OHMM       1.00000                 :Connate Water Resistivity
TDD  .F       7193.00049                 :Driller Total Depth
TDL  .F       7193.00049                 :Logger Total Depth
TLI  .F       5240.00000                 :Top Log Interval
HIDE .        WILDCAT                    :Header Identifier
MATR .        SAND                       :Rock Matrix for Neutron Porosity Corrections
FNUM .           1.00000                 :F-Numerator for Formation Factor Formula
FEXP .           2.00000                 :Exponent "m" for Formation Factor Formula
DFT  .        Fresh Water                :Drilling Fluid Type
DFPH .          11.50000                 :Drilling Fluid pH
MCSS .        Calculated                 :Mudcake Sample Source
MFSS .        Calculated                 :Mud Filtrate Sample Source
FD   .LB/G       8.34540                 :Fluid Density
MSS  .        Active Tank                :Mud Sample Source
OS1  .                                   :Other Services Line 1
OS2  .                                   :Other Services Line 2
OS3  .                                   :Other Services Line 3
OS4  .                                   :Other Services Line 4
OS5  .                                   :Other Services Line 5
R1   .        THANKS FOR CHOOSING SCHLUMBERGER!!! :Remarks Line 1
R2   .        All WELL PROPERTIES PROVIDED BY CLIENT :Remarks Line 2
R3   .        ALL SCALES ON PRESENTATIONS AS PER

CLIENT REQUEST :Remarks Line 3
R4   .        MATRIX  SANDSTONE          :Remarks Line 4
R5   .        MATRIX DENSITY  2.65 G/CC  :Remarks Line 5
R6   .        ALL LOGGING INTERVALS AS PER CLIENT REQUEST :Remarks Line 6
R7   .        MRT = 127 DEGF FROM THE THERMOMETER :Remarks Line 7
R8   .                                   :Remarks Line 8
TCS  .        20 00 00                   :Time Circulation Stopped
TLAB .        14 31 00                   :Time Logger At Bottom
EPD  .C3         675.699951              :Elevation of Permanent Datum above Mean Sea Level
APD  .F          15.500000               :Elevation of Depth Reference (LMF) above Permanent Datum
#-----------------------------------------------------------------------------
~CURVE INFORMATION
#MNEM.UNIT   API CODE                                  DESCRIPTION
#---- -----  --------                                  -----------------------
DEPT .F                                                :DEPTH (BOREHOLE) {F12.4}
BFV  .CFCF                                             :Bound Fluid Volume {F11.4}
CBP1 .CFCF                                             :CMR Bin Porosity 1 {F11.4}
CBP2 .CFCF                                             :CMR Bin Porosity 2 {F11.4}
CBP3 .CFCF                                             :CMR Bin Porosity 3 {F11.4}
CBP4 .CFCF                                             :CMR Bin Porosity 4 {F11.4}
CBP5 .CFCF                                             :CMR Bin Porosity 5 {F11.4}
CBP6 .CFCF                                             :CMR Bin Porosity 6 {F11.4}
CBP7 .CFCF                                             :CMR Bin Porosity 7 {F11.4}
CBP8 .CFCF                                             :CMR Bin Porosity 8 {F11.4}
CDF  .LBF                                              :Calibrated Downhole Force {F11.4}
CMFF .CFCF                                             :CMR Free Fluid {F11.4}
CMFF_SIG.CFCF                                          :Standard Deviation of CMR Free Fluid {F11.4}
CMR_PHI_CONV.                                          :CMR Porosity Conversion factor {F11.4}
CMRP_3MS.CFCF                                          :CMR Porosity with T2 values greater than 3 ms {F11.4}
CTEM .DEGF                                             :Cartridge Temperature {F11.4}
DCAL .IN                                               :Differential Caliper {F11.4}
ED   .F                                                :East Departure {F11.4}
GR_EDTC.GAPI                                           :Gamma Ray {F11.4}
GTEM .DEGF                                             :Generalized Borehole Temperature {F11.4}
HCGR .GAPI                                             :HNGS Computed Gamma Ray {F11.4}
HFK  .%                                                :HNGS Formation Potassium Concentration {F11.4}
HSGR .GAPI                                             :HNGS Standard Gamma-Ray {F11.4}
HTHO .PPM                                              :HNGS Formation Thorium Concentration {F11.4}
HURA .PPM                                              :HNGS Formation Uranium Concentration {F11.4}
KSDR .MD                                               :SDR Permeability {F11.4}
KTIM .MD                                               :Timur/Coates Permeability {F11.4}
ND   .F                                                :North Departure {F11.4}
STIT .F                                                :Stuck Tool Indicator, Total {F11.4}
T2LM .MS                                               :T2 Logarithmic Mean {F11.4}
T2LM_SIG.MS                                            :Standard Deviation of T2 Logarithmic Mean {F11.4}
TCMR .CFCF                                             :Total CMR Porosity {F11.4}
TENS .LBF                                              :Cable Tension {F11.4}
#-----------------------------------------------------------------------------
# 
#      DEPT        BFV        CBP1       CBP2       CBP3       CBP4       CBP5       CBP6       CBP7       CBP8       CDF        CMFF     CMFF_SIG  CMR_PHI_CO  CMRP_3MS     CTEM       DCAL        ED      GR_EDTC      GTEM       HCGR       HFK        HSGR       HTHO       HURA       KSDR       KTIM        ND        STIT       T2LM     T2LM_SIG     TCMR       TENS
#                                                                                                                                                   NV
~A  
# ...
   6406.5000     0.0987     0.0195     0.0280     0.0271     0.0241     0.0224     0.0007     0.0000     0.0042  1214.4769     0.0274     0.0040     0.0006     0.0785   125.0353     0.0000    -1.2779    79.2994   120.5603    78.3254     2.8593    85.3510     8.3574     0.8366     0.0570     0.2213    35.9278     0.0000     6.9985  -999.2500     0.1261  2826.0911
   6407.0000     0.1130     0.0224     0.0310     0.0316     0.0280     0.0276     0.0008     0.0000     0.0053  1200.6124     0.0338     0.0043     0.0006     0.0934   125.0934     0.0000    -1.2749    67.9457   120.5643    68.1872     2.4906    73.7586     7.2671     0.6714     0.1039     0.4186    35.9239     0.0000     7.4589  -999.2500     0.1468  2800.3999
   6407.5000     0.1144     0.0214     0.0283     0.0363     0.0284     0.0325     0.0022     0.0000     0.0028  1214.9752     0.0375     0.0036     0.0006     0.1022   125.0210     0.0000    -1.2719    60.9515   120.5685    62.5795     2.3256    67.3323     6.4366     0.5555     0.1280     0.5706    35.9201     0.0000     7.7530  -999.2500     0.1519  2826.5454
   6408.0000     0.1120     0.0207     0.0254     0.0357     0.0302     0.0294     0.0092     0.0000     0.0006  1199.8019     0.0391     0.0036     0.0006     0.1050   125.0496     0.0000    -1.2688    58.9849   120.5726    59.7274     2.2584    65.0468     5.9157     0.6388     0.1410     0.6356    35.9162     0.0000     8.2213  -999.2500     0.1511  2787.1001
   6408.5000     0.1046     0.0205     0.0245     0.0305     0.0290     0.0225     0.0130     0.0001     0.0002  1200.1681     0.0357     0.0035     0.0006     0.0953   125.0210     0.0000    -1.2657    58.4099   120.5767    60.5459     2.3075    66.1164     5.8910     0.6343     0.1067     0.4687    35.9124     0.0000     8.1631  -999.2500     0.1403  2817.1001
   6409.0000     0.0985     0.0194     0.0240     0.0274     0.0277     0.0140     0.0126     0.0012     0.0004  1205.7849     0.0283     0.0035     0.0006     0.0834   125.0635     0.0000    -1.2626    61.5927   120.5808    65.0830     2.4596    70.2391     6.4540     0.5682     0.0646     0.2435    35.9086     0.0000     7.7137  -999.2500     0.1268  2813.9001
   6409.5000     0.0957     0.0169     0.0232     0.0285     0.0270     0.0065     0.0091     0.0034     0.0006  1205.5717     0.0195     0.0035     0.0006     0.0750   125.0644     0.0000    -1.2594    72.3408   120.5849    75.3002     2.8331    80.9800     7.5415     0.6277     0.0363     0.0769    35.9049     0.0000     7.1400  -999.2500     0.1152  2753.0000
   6410.0000     0.0936     0.0137     0.0223     0.0316     0.0259     0.0031     0.0053     0.0055     0.0001  1216.3489     0.0140     0.0035     0.0006     0.0715   125.0210     0.0000    -1.2563    79.8768   120.5890    84.3289     3.1858    91.4449     8.3693     0.8131     0.0251     0.0300    35.9012     0.0000     6.8405  -999.2500     0.1076  2804.8000
   6410.5000     0.0961     0.0119     0.0215     0.0332     0.0295     0.0056     0.0052     0.0057     0.0000  1202.0947     0.0165     0.0032     0.0006     0.0793   125.0644     0.0000    -1.2531    80.6220   120.5931    85.5646     3.2140    93.2811     8.6003     0.8914     0.0396     0.0484    35.8974     0.0000     7.7772  -999.2500     0.1126  2781.8999
   6411.0000     0.0956     0.0117     0.0221     0.0306     0.0312     0.0097     0.0081     0.0040     0.0000  1204.7255     0.0218     0.0033     0.0006     0.0837   125.0644     0.0000    -1.2498    74.7633   120.5972    79.1187     2.9657    85.6223     7.9883     0.7083     0.0576     0.1065    35.8937     0.0000     8.6195  -999.2500     0.1175  2782.2000
   6411.5000     0.0946     0.0130     0.0228     0.0274     0.0314     0.0141     0.0111     0.0026     0.0000  1205.3607     0.0277     0.0037     0.0006     0.0864   125.0500     0.0000    -1.2465    71.6854   120.6013    72.6947     2.7038    78.7926     7.4635     0.6937     0.0764     0.1999    35.8901     0.0000     9.2069  -999.2500     0.1223  2801.6001
   6412.0000     0.0919     0.0151     0.0222     0.0249     0.0297     0.0174     0.0133     0.0025     0.0000  1207.1791     0.0332     0.0039     0.0006     0.0878   125.0353     0.0000    -1.2432    71.8423   120.6054    71.0208     2.6161    76.2342     7.4405     0.6090     0.0938     0.3252    35.8864     0.0000     9.7990  -999.2500     0.1251  2773.0000
   6412.5000     0.0830     0.0167     0.0189     0.0220     0.0253     0.0190     0.0160     0.0038     0.0000  1208.2222     0.0388     0.0035     0.0006     0.0861   125.0500     0.0000    -1.2399    70.0908   120.6095    69.2347     2.5716    74.3577     7.1286     0.5983     0.1077     0.4794    35.8828     0.0000    11.0751  -999.2500     0.1217  2783.4001
   6413.0000     0.0767     0.0197     0.0163     0.0179     0.0228     0.0208     0.0161     0.0068     0.0000  1206.7566     0.0437     0.0035     0.0006     0.0844   125.0205     0.0000    -1.2365    66.0694   120.6136    64.7845     2.3916    68.8757     6.7566     0.4549     0.1257     0.6913    35.8793     0.0000    12.2286  -999.2500     0.1204  2793.9001
   6413.5000     0.0736     0.0206     0.0145     0.0163     0.0222     0.0187     0.0196     0.0050     0.0000  1201.7183     0.0433     0.0035     0.0006     0.0819   125.0505     0.0000    -1.2331    61.6035   120.6177    62.3832     2.2920    64.6616     6.5701     0.2262     0.1146     0.6503    35.8757     0.0000    12.3465  -999.2500     0.1169  2724.5000
   6414.0000     0.0746     0.0191     0.0132     0.0179     0.0244     0.0142     0.0231     0.0027     0.0000  1206.8767     0.0400     0.0035     0.0006     0.0822   125.0505     0.0000    -1.2296    56.8251   120.6218    59.2981     2.1922    60.8076     6.1660     0.1924     0.1074     0.5039    35.8722     0.0000    12.4872  -999.2500     0.1146  2793.1001
   6414.5000     0.0777     0.0163     0.0120     0.0213     0.0281     0.0090     0.0250     0.0020     0.0000  1212.3353     0.0360     0.0036     0.0006     0.0854   125.0053     0.0000    -1.2262    52.1963   120.6259    56.3395     2.1241    57.9552     5.6170     0.2235     0.1135     0.3605    35.8686     0.0000    13.0396  -999.2500     0.1137  2795.5000
   6415.0000     0.0784     0.0147     0.0097     0.0238     0.0302     0.0056     0.0260     0.0020     0.0000  1210.5609     0.0336     0.0036     0.0006     0.0876   125.0201     0.0000    -1.2227    48.3616   120.6300    52.5590     2.0028    53.6737     5.1158     0.1594     0.1186     0.2896    35.8652     0.0000    13.7232  -999.2500     0.1120  2763.3638
   6415.5000     0.0790     0.0162     0.0085     0.0222     0.0321     0.0060     0.0284     0.0008     0.0000  1212.8169     0.0353     0.0037     0.0006     0.0896   125.0353     0.0000    -1.2192    47.4055   120.6341    51.5160     1.9610    52.2334     5.0260     0.1012     0.1329     0.3403    35.8617     0.0000    13.9566  -999.2500     0.1142  2788.2002
   6416.0000     0.0755     0.0168     0.0091     0.0204     0.0293     0.0144     0.0220     0.0002     0.0000  1207.4586     0.0365     0.0036     0.0006     0.0862   125.0505     0.0000    -1.2156    47.7630   120.6382    50.9439     1.9831    51.8488     4.7138     0.0995     0.1045     0.3696    35.8583     0.0000    12.7252  -999.2500     0.1121  2758.1001
   6416.5000     0.0740     0.0155     0.0112     0.0200     0.0273     0.0258     0.0110     0.0000     0.0000  1210.5206     0.0368     0.0034     0.0006     0.0841   125.0505     0.0000    -1.2120    49.9664   120.6423    52.2061     2.0608    53.6193     4.6631     0.1933     0.0779     0.3742    35.8549     0.0000    11.3522  -999.2500     0.1109  2803.6001
   6417.0000     0.0736     0.0118     0.0132     0.0224     0.0263     0.0333     0.0032     0.0000     0.0000  1208.5702     0.0365     0.0034     0.0006     0.0851   125.0505     0.0000    -1.2084    51.5796   120.6464    53.5909     2.1198    54.8406     4.7611     0.1698     0.0732     0.3622    35.8515     0.0000    11.1986  -999.2500     0.1102  2786.5000
