~VERSION INFORMATION
VERS.           1.2   :CWLS Log ASCII Standard - VERSION 1.2
WRAP.           NO    :One Line per depth step
PROD.  Schlumberger   :LAS Producer
PROG.  DLIS to ASCII 2.3                               :LAS Program name and version
CREA.        2015/05/30 05:44                          :LAS Creation date {YYYY/MM/DD hh:mm}
DLIS_CREA.  2015-May-29 22:59                          :DLIS Creation date and time {YYYY-MMM-DD hh:mm}
SOURCE.     3feb4549-4107-45e4-8f62-928498d876c9       :DLIS File Name
#--------------------------------------------------
~WELL INFORMATION
#MNEM.UNIT      DATA             DESCRIPTION
#---- ------ --------------   -----------------------------
STRT .F      5218.5000       :START DEPTH     
STOP .F      7211.0000       :STOP DEPTH     
STEP .F       0.5000         :STEP       
NULL .          -999.25      :NULL VALUE
COMP .                 COMPANY:  ADM COMPANY                        
WELL .                    WELL:  CCS#2                              
FLD  .                   FIELD:  WILDCAT                            
LOC  .                LOCATION:  LAT 39.885961                      
CNTY .                  COUNTY:  MACON                              
STAT .                   STATE:  ILLINOIS                           
CTRY .                 COUNTRY:  USA                                
SRVC .         SERVICE COMPANY:  Schlumberger                       
LATI .DEG             LATITUDE:  39.885961 degrees                  
LONG .DEG            LONGITUDE:  -88.888044 degrees                 
API  .              API NUMBER:  12-115-23713-00                    
DATE .                LOG DATE:  29-May-2015
UWI  .          UNIQUE WELL ID:  12-115-23713-00                    
#-----------------------------------------------------------------------------
~PARAMETER INFORMATION
#MNEM.UNIT    VALUE                      DESCRIPTION
#---- -----   --------------------       ------------------------
CN   .        ADM COMPANY                :Company Name
WN   .        CCS#2                      :Well Name
FN   .        WILDCAT                    :Field Name
FL   .        LAT 39.885961              :Field Location
FL1  .        LONG 39.885961             :Field Location, Line 1
COUN .        MACON                      :County or Parish
STAT .        ILLINOIS                   :State or Province
NATI .        USA                        :Nation
DATE .        29-May-2015                :Tools Above Rotary Table Date
APIN .        12-115-23713-00            :API Well Number
SECT .        32                         :Section
TOWN .        17N                        :Township
RANG .        3E                         :Range
DMF  .        KB                         :Drilling Measured From (Name of Drilling Elevation Reference)
LMF  .        KB                         :Logging Measured From (Name of Logging Elevation Reference)
PDAT .        GL                         :Permanent Datum
ENGI .        H. DIMITROV / M. MOHAMMED  :Engineer s Name
WITN .        NICK MALKEWICZ             :Witness s Name
LATI .        39.885961 degrees          :Latitude
LONG .        -88.888044 degrees         :Longitude
LUL  .        BRADFORD                   :Logging Unit Location
LUN  .        3003                       :Logging Unit Number
RUN  .        Run 3C                     :Run Number
SON  .                                   :Service Order Number
BHT  .DEGF     127.00000                 :Bottom Hole Temperature
BS   .IN        12.25000                 :Bit Size
DFD  .LB/G       9.20000                 :Drilling Fluid Density
DFV  .S         66.00000                 :Drilling Fluid Viscosity
DFL  .C3         7.60000                 :Drilling Fluid Loss
RMFS .OHMM       0.17000                 :Resistivity of Mud Filtrate Sample
EKB  .F        691.19995                 :Elevation of Kelly Bushing
EGL  .F        675.69995                 :Elevation of Ground Level
BLI  .F       7192.00000                 :Bottom Log Interval
BSAL .PPM     15100.00000                :Borehole Salinity
FLEV .F          8.00000                 :Depth of Drilling Fluid Level to LMF (Log Measured From)
MCST .DEGF      72.50000                 :Mudcake Sample Temperature
MFST .DEGF      72.50000                 :Mud Filtrate Sample Temperature
MRT  .DEGF     127.00000                 :Maximum Recorded Temperature
MST  .DEGF      72.50000                 :Mud Sample Temperature
RMCS .OHMM       0.14000                 :Resistivity of Mud Cake Sample
RMS  .OHMM       0.20000                 :Resistivity of Mud Sample
RW   .OHMM       1.00000                 :Connate Water Resistivity
TDD  .F       7193.00049                 :Driller Total Depth
TDL  .F       7193.00049                 :Logger Total Depth
TLI  .F       5240.00000                 :Top Log Interval
HIDE .        WILDCAT                    :Header Identifier
MATR .        SAND                       :Rock Matrix for Neutron Porosity Corrections
FNUM .           1.00000                 :F-Numerator for Formation Factor Formula
FEXP .           2.00000                 :Exponent "m" for Formation Factor Formula
DFT  .        Fresh Water                :Drilling Fluid Type
DFPH .          11.50000                 :Drilling Fluid pH
MCSS .        Calculated                 :Mudcake Sample Source
MFSS .        Calculated                 :Mud Filtrate Sample Source
FD   .LB/G       8.34540                 :Fluid Density
MSS  .        Active Tank                :Mud Sample Source
OS1  .                                   :Other Services Line 1
OS2  .                                   :Other Services Line 2
OS3  .                                   :Other Services Line 3
OS4  .                                   :Other Services Line 4
OS5  .                                   :Other Services Line 5
R1   .        THANKS FOR CHOOSING SCHLUMBERGER!!! :Remarks Line 1
R2   .        All WELL PROPERTIES PROVIDED BY CLIENT :Remarks Line 2
R3   .        ALL SCALES ON PRESENTATIONS AS PER

CLIENT REQUEST :Remarks Line 3
R4   .        MATRIX  SANDSTONE          :Remarks Line 4
R5   .        MATRIX DENSITY  2.65 G/CC  :Remarks Line 5
R6   .        ALL LOGGING INTERVALS AS PER CLIENT REQUEST :Remarks Line 6
R7   .        MRT = 127 DEGF FROM THE THERMOMETER :Remarks Line 7
R8   .                                   :Remarks Line 8
TCS  .        20 00 00                   :Time Circulation Stopped
TLAB .        14 31 00                   :Time Logger At Bottom
EPD  .C3         675.699951              :Elevation of Permanent Datum above Mean Sea Level
APD  .F          15.500000               :Elevation of Depth Reference (LMF) above Permanent Datum
#-----------------------------------------------------------------------------
~CURVE INFORMATION
#MNEM.UNIT   API CODE                                  DESCRIPTION
#---- -----  --------                                  -----------------------
DEPT .F                                                :DEPTH (BOREHOLE) {F12.4}
BFV  .CFCF                                             :Bound Fluid Volume {F11.4}
CBP1 .CFCF                                             :CMR Bin Porosity 1 {F11.4}
CBP2 .CFCF                                             :CMR Bin Porosity 2 {F11.4}
CBP3 .CFCF                                             :CMR Bin Porosity 3 {F11.4}
CBP4 .CFCF                                             :CMR Bin Porosity 4 {F11.4}
CBP5 .CFCF                                             :CMR Bin Porosity 5 {F11.4}
CBP6 .CFCF                                             :CMR Bin Porosity 6 {F11.4}
CBP7 .CFCF                                             :CMR Bin Porosity 7 {F11.4}
CBP8 .CFCF                                             :CMR Bin Porosity 8 {F11.4}
CDF  .LBF                                              :Calibrated Downhole Force {F11.4}
CMFF .CFCF                                             :CMR Free Fluid {F11.4}
CMFF_SIG.CFCF                                          :Standard Deviation of CMR Free Fluid {F11.4}
CMR_PHI_CONV.                                          :CMR Porosity Conversion factor {F11.4}
CMRP_3MS.CFCF                                          :CMR Porosity with T2 values greater than 3 ms {F11.4}
CTEM .DEGF                                             :Cartridge Temperature {F11.4}
DCAL .IN                                               :Differential Caliper {F11.4}
ED   .F                                                :East Departure {F11.4}
GR_EDTC.GAPI                                           :Gamma Ray {F11.4}
GTEM .DEGF                                             :Generalized Borehole Temperature {F11.4}
HCGR .GAPI                                             :HNGS Computed Gamma Ray {F11.4}
HFK  .%                                                :HNGS Formation Potassium Concentration {F11.4}
HSGR .GAPI                                             :HNGS Standard Gamma-Ray {F11.4}
HTHO .PPM                                              :HNGS Formation Thorium Concentration {F11.4}
HURA .PPM                                              :HNGS Formation Uranium Concentration {F11.4}
KSDR .MD                                               :SDR Permeability {F11.4}
KTIM .MD                                               :Timur/Coates Permeability {F11.4}
ND   .F                                                :North Departure {F11.4}
STIT .F                                                :Stuck Tool Indicator, Total {F11.4}
T2LM .MS                                               :T2 Logarithmic Mean {F11.4}
T2LM_SIG.MS                                            :Standard Deviation of T2 Logarithmic Mean {F11.4}
TCMR .CFCF                                             :Total CMR Porosity {F11.4}
TENS .LBF                                              :Cable Tension {F11.4}
#-----------------------------------------------------------------------------
# 
#      DEPT        BFV        CBP1       CBP2       CBP3       CBP4       CBP5       CBP6       CBP7       CBP8       CDF        CMFF     CMFF_SIG  CMR_PHI_CO  CMRP_3MS     CTEM       DCAL        ED      GR_EDTC      GTEM       HCGR       HFK        HSGR       HTHO       HURA       KSDR       KTIM        ND        STIT       T2LM     T2LM_SIG     TCMR       TENS
#                                                                                                                                                   NV
~A  
# ...
   6274.5000     0.0675     0.0068     0.0122     0.0282     0.0203     0.0040     0.0080     0.0020     0.0006  1234.0900     0.0146     0.0036     0.0006     0.0631   124.0471     0.0000    -1.9035    61.4068   119.4772    58.6491     1.9525    64.9143     7.3689     0.8483     0.0160     0.0216    36.8700     0.0000     9.3353  -999.2500     0.0821  2792.0000
   6275.0000     0.0706     0.0113     0.0128     0.0257     0.0208     0.0037     0.0055     0.0023     0.0002  1218.1000     0.0117     0.0035     0.0006     0.0582   124.0471     0.0000    -1.9029    75.7594   119.4813    73.4246     2.4469    81.0275     9.2110     1.0311     0.0093     0.0125    36.8657     0.0000     7.1169  -999.2500     0.0823  2800.5457
   6275.5000     0.0780     0.0162     0.0182     0.0244     0.0192     0.0050     0.0026     0.0013     0.0009  1207.9944     0.0098     0.0034     0.0006     0.0534   124.0471     0.0000    -1.9024    80.4243   119.4854    82.8304     2.7970    91.5223    10.1774     1.1371     0.0065     0.0095    36.8615     0.0000     5.2650  -999.2500     0.0878  2752.0000
   6276.0000     0.0823     0.0177     0.0232     0.0243     0.0171     0.0069     0.0012     0.0004     0.0012  1216.4680     0.0097     0.0033     0.0006     0.0511   124.0471     0.0000    -1.9018    80.5912   119.4895    81.0732     2.7269    89.2488    10.0246     1.0257     0.0057     0.0100    36.8573     0.0000     4.4679  -999.2500     0.0920  2768.6001
   6276.5000     0.0791     0.0155     0.0248     0.0232     0.0157     0.0083     0.0004     0.0000     0.0013  1198.5603     0.0100     0.0032     0.0006     0.0489   124.0471     0.0000    -1.9012    71.7219   119.4936    72.6673     2.4181    80.2912     9.1384     0.9589     0.0051     0.0101    36.8531     0.0000     4.5327  -999.2500     0.0892  2730.5000
   6277.0000     0.0679     0.0105     0.0218     0.0205     0.0152     0.0103     0.0000     0.0000     0.0014  1200.3350     0.0117     0.0032     0.0006     0.0474   124.0471     0.0000    -1.9005    73.4644   119.4978    69.5008     2.2696    76.5623     8.9928     0.9200     0.0054     0.0130    36.8490     0.0000     5.8932  -999.2500     0.0797  2765.3000
   6277.5000     0.0526     0.0044     0.0151     0.0176     0.0154     0.0159     0.0002     0.0000     0.0017  1210.9053     0.0178     0.0032     0.0006     0.0508   124.0471     0.0000    -1.8999    74.8776   119.5018    70.4047     2.2925    77.8306     9.1491     0.9674     0.0091     0.0282    36.8449     0.0000     9.6105  -999.2500     0.0704  2763.8999
   6278.0000     0.0455     0.0026     0.0114     0.0162     0.0153     0.0207     0.0012     0.0000     0.0018  1202.3230     0.0238     0.0032     0.0006     0.0552   124.0471     0.0000    -1.8992    74.4685   119.5060    69.6546     2.2642    77.7893     9.0745     1.0587     0.0181     0.0659    36.8409     0.0000    13.9362  -999.2500     0.0692  2782.0911
   6278.5000     0.0469     0.0040     0.0098     0.0174     0.0157     0.0201     0.0024     0.0020     0.0010  1198.7183     0.0255     0.0032     0.0006     0.0587   124.0471     0.0000    -1.8984    72.7692   119.5101    71.1807     2.3530    79.7433     9.0441     1.1419     0.0224     0.0815    36.8369     0.0000    14.2904  -999.2500     0.0724  2734.0002
   6279.0000     0.0529     0.0065     0.0097     0.0205     0.0163     0.0166     0.0039     0.0035     0.0005  1205.0630     0.0244     0.0033     0.0006     0.0612   124.0471     0.0000    -1.8976    73.2330   119.5142    69.1302     2.3055    78.3354     8.6646     1.2468     0.0227     0.0772    36.8330     0.0000    12.6742  -999.2500     0.0773  2775.2002
   6279.5000     0.0595     0.0081     0.0100     0.0239     0.0173     0.0124     0.0050     0.0040     0.0005  1201.0104     0.0219     0.0033     0.0006     0.0631   124.0471     0.0000    -1.8968    72.4052   119.5183    67.6536     2.2593    77.5577     8.4614     1.3548     0.0212     0.0598    36.8290     0.0000    11.0001  -999.2500     0.0813  2781.8999
   6280.0000     0.0631     0.0073     0.0091     0.0263     0.0204     0.0095     0.0042     0.0045     0.0008  1192.7360     0.0190     0.0034     0.0006     0.0657   124.0471     0.0000    -1.8960    70.6839   119.5224    63.0397     2.0793    71.9417     8.0361     1.1712     0.0223     0.0410    36.8251     0.0000    11.0925  -999.2500     0.0821  2736.1001
   6280.5000     0.0633     0.0052     0.0088     0.0262     0.0231     0.0093     0.0027     0.0055     0.0005  1199.2516     0.0180     0.0034     0.0006     0.0672   124.0471     0.0000    -1.8951    65.8451   119.5265    58.5597     1.9293    67.6889     7.4782     1.2236     0.0253     0.0352    36.8213     0.0000    12.0269  -999.2500     0.0813  2793.3638
   6281.0000     0.0632     0.0064     0.0108     0.0223     0.0237     0.0103     0.0014     0.0061     0.0002  1185.7480     0.0181     0.0035     0.0006     0.0640   124.0471     0.0000    -1.8942    61.4456   119.5306    54.2697     1.8388    62.7167     6.6325     1.1581     0.0224     0.0356    36.8175     0.0000    11.3187  -999.2500     0.0813  2756.6001
   6281.5000     0.0639     0.0100     0.0128     0.0177     0.0234     0.0107     0.0009     0.0058     0.0002  1188.1075     0.0176     0.0035     0.0006     0.0586   124.0471     0.0000    -1.8933    59.2589   119.5347    53.5854     1.8574    62.4942     6.3042     1.1847     0.0166     0.0336    36.8137     0.0000     9.6276  -999.2500     0.0815  2733.6365
   6282.0000     0.0659     0.0145     0.0144     0.0145     0.0225     0.0096     0.0020     0.0043     0.0004  1189.9753     0.0162     0.0035     0.0006     0.0532   124.0471     0.0000    -1.8923    59.7082   119.5388    53.6803     1.9399    63.5115     5.8516     1.2711     0.0107     0.0276    36.8100     0.0000     7.6689  -999.2500     0.0821  2761.7002
   6282.5000     0.0688     0.0176     0.0165     0.0139     0.0208     0.0078     0.0050     0.0013     0.0008  1191.1190     0.0150     0.0035     0.0006     0.0497   124.0471     0.0000    -1.8913    61.5937   119.5429    55.8301     2.0953    66.1265     5.6316     1.3166     0.0076     0.0233    36.8063     0.0000     6.2135  -999.2500     0.0838  2763.0908
   6283.0000     0.0722     0.0186     0.0197     0.0157     0.0183     0.0068     0.0048     0.0008     0.0005  1188.4154     0.0129     0.0034     0.0006     0.0468   124.0471     0.0000    -1.8903    66.4551   119.5470    60.7322     2.3297    70.7045     5.8308     1.2647     0.0055     0.0168    36.8027     0.0000     5.1261  -999.2500     0.0851  2731.0000
   6283.5000     0.0763     0.0181     0.0216     0.0192     0.0175     0.0067     0.0039     0.0004     0.0004  1194.3634     0.0113     0.0033     0.0006     0.0480   124.0471     0.0000    -1.8892    73.2076   119.5511    66.4879     2.5529    76.3660     6.3692     1.2399     0.0051     0.0131    36.7990     0.0000     4.6683  -999.2500     0.0876  2773.6001
   6284.0000     0.0800     0.0176     0.0213     0.0237     0.0174     0.0071     0.0022     0.0001     0.0007  1194.1838     0.0101     0.0033     0.0006     0.0513   124.0471     0.0000    -1.8882    73.0449   119.5552    65.7470     2.5322    75.8995     6.2529     1.2899     0.0054     0.0106    36.7955     0.0000     4.5321  -999.2500     0.0901  2763.0000
   6284.5000     0.0811     0.0169     0.0190     0.0280     0.0173     0.0077     0.0007     0.0000     0.0012  1194.3507     0.0096     0.0033     0.0006     0.0549   124.0471     0.0000    -1.8870    68.0630   119.5593    60.8528     2.3618    70.2220     5.6811     1.1897     0.0060     0.0094    36.7919     0.0000     4.6987  -999.2500     0.0907  2779.4546
   6285.0000     0.0760     0.0141     0.0158     0.0293     0.0169     0.0082     0.0010     0.0000     0.0015  1194.4208     0.0107     0.0034     0.0006     0.0568   124.0471     0.0000    -1.8859    63.0156   119.5634    58.7799     2.2803    67.6948     5.4941     1.0892     0.0067     0.0111    36.7884     0.0000     5.4387  -999.2500     0.0867  2760.0908
