~VERSION INFORMATION
VERS.           1.2   :CWLS Log ASCII Standard - VERSION 1.2
WRAP.           NO    :One Line per depth step
PROD.  Schlumberger   :LAS Producer
PROG.  DLIS to ASCII 2.3                               :LAS Program name and version
CREA.        2015/01/14 20:43                          :LAS Creation date {YYYY/MM/DD hh:mm}
DLIS_CREA.  2015-Jan-14 13:25                          :DLIS Creation date and time {YYYY-MMM-DD hh:mm}
SOURCE.     d5fbb1e7-1f44-4e43-b8fb-7fdeb49dde7f       :DLIS File Name
#--------------------------------------------------
~WELL INFORMATION
#MNEM.UNIT      DATA             DESCRIPTION
#---- ------ --------------   -----------------------------
STRT .F       8.0000         :START DEPTH     
STOP .F      353.0000        :STOP DEPTH     
STEP .F       0.5000         :STEP       
NULL .          -999.25      :NULL VALUE
COMP .                 COMPANY:  ADM Company                        
WELL .                    WELL:  CCS#2                              
FLD  .                   FIELD:  Wildcat                            
LOC  .                LOCATION:  Latitude: 39.885961                
CNTY .                  COUNTY:  Macon                              
STAT .                   STATE:  Illinois                           
CTRY .                 COUNTRY:  USA                                
SRVC .         SERVICE COMPANY:  Schlumberger                       
LATI .DEG             LATITUDE:  39° 53' 9.46" N                    
LONG .DEG            LONGITUDE:  88° 53' 16.959" W                  
API  .              API NUMBER:  12-115-23713-00                    
DATE .                LOG DATE:  12-Jan-2015
UWI  .          UNIQUE WELL ID:                                     
#-----------------------------------------------------------------------------
~PARAMETER INFORMATION
#MNEM.UNIT    VALUE                      DESCRIPTION
#---- -----   --------------------       ------------------------
CN   .        ADM Company                :Company Name
WN   .        CCS#2                      :Well Name
FN   .        Wildcat                    :Field Name
FL   .        Latitude  39.885961        :Field Location
FL1  .        Longitude  -88.888044      :Field Location, Line 1
COUN .        Macon                      :County or Parish
STAT .        Illinois                   :State or Province
NATI .        USA                        :Nation
DATE .        12-Jan-2015                :Tools Above Rotary Table Date
APIN .        12-115-23713-00            :API Well Number
SECT .        32                         :Section
TOWN .        17N                        :Township
RANG .        3E                         :Range
DMF  .        KB                         :Drilling Measured From (Name of Drilling Elevation Reference)
LMF  .        KB                         :Logging Measured From (Name of Logging Elevation Reference)
PDAT .        GL                         :Permanent Datum
ENGI .        Devin Arnold               :Engineer s Name
WITN .        Nick Malkewicz             :Witness s Name
LATI .        39° 53' 9.46  N            :Latitude
LONG .        88° 53' 16.959  W          :Longitude
LUL  .        Bradford                   :Logging Unit Location
LUN  .        3095                       :Logging Unit Number
RUN  .        1                          :Run Number
SON  .        D71E-00006                 :Service Order Number
BHT  .DEGF      58.00000                 :Bottom Hole Temperature
BS   .IN        26.00000                 :Bit Size
MDEN .G/C3       2.71000                 :Matrix Density for Density Porosity
DFD  .LB/G      10.10000                 :Drilling Fluid Density
DFV  .S         60.00000                 :Drilling Fluid Viscosity
DFL  .C3      -999.25000                 :Drilling Fluid Loss
RMFS .OHMM       1.23200                 :Resistivity of Mud Filtrate Sample
EKB  .F        691.19995                 :Elevation of Kelly Bushing
EGL  .F        675.69995                 :Elevation of Ground Level
BLI  .F        342.00000                 :Bottom Log Interval
BSAL .PPM        0.00000                 :Borehole Salinity
FLEV .F          8.00000                 :Depth of Drilling Fluid Level to LMF (Log Measured From)
MCST .DEGF      42.80000                 :Mudcake Sample Temperature
MFST .DEGF      42.80000                 :Mud Filtrate Sample Temperature
MRT  .DEGF      58.00000                 :Maximum Recorded Temperature
MST  .DEGF      42.80000                 :Mud Sample Temperature
RMCS .OHMM       1.84800                 :Resistivity of Mud Cake Sample
RMS  .OHMM       1.54000                 :Resistivity of Mud Sample
RW   .OHMM       1.00000                 :Connate Water Resistivity
TDD  .F        349.00000                 :Driller Total Depth
TDL  .F        349.00000                 :Logger Total Depth
TLI  .F         50.00000                 :Top Log Interval
HIDE .        Wildcat                    :Header Identifier
MATR .        LIME                       :Rock Matrix for Neutron Porosity Corrections
FNUM .           1.00000                 :F-Numerator for Formation Factor Formula
FEXP .           2.00000                 :Exponent "m" for Formation Factor Formula
DFT  .        Fresh Mud                  :Drilling Fluid Type
DFPH .        -999.25000                 :Drilling Fluid pH
MCSS .        Calculated                 :Mudcake Sample Source
MFSS .        Calculated                 :Mud Filtrate Sample Source
FD   .G/C3       1.00000                 :Fluid Density
MSS  .        Active Tank                :Mud Sample Source
OS1  .                                   :Other Services Line 1
OS2  .                                   :Other Services Line 2
OS3  .                                   :Other Services Line 3
OS4  .                                   :Other Services Line 4
OS5  .                                   :Other Services Line 5
R1   .        Matrix Density  Limestone. :Remarks Line 1
R2   .        Mud Sample taken on location. :Remarks Line 2
R3   .        Presentations as per client request. :Remarks Line 3
R4   .        No Chemical Sources ran due to possible potable water zones. :Remarks Line 4
R5   .        Bottom Hole Temperature taken from GM2 temperature log provided by the client. 58degF :Remarks Line 5
R6   .                                   :Remarks Line 6
R7   .                                   :Remarks Line 7
R8   .        APS ran outside max bit size range of 20in causing faulty data. :Remarks Line 8
TCS  .        19 45 00                   :Time Circulation Stopped
TLAB .        01 15 00                   :Time Logger At Bottom
NMT  .        NOBARITE                   :HRDD Mud Type for Nuclear Devices
EPD  .C3         675.699951              :Elevation of Permanent Datum above Mean Sea Level
APD  .F          15.500000               :Elevation of Depth Reference (LMF) above Permanent Datum
#-----------------------------------------------------------------------------
~CURVE INFORMATION
#MNEM.UNIT   API CODE                                  DESCRIPTION
#---- -----  --------                                  -----------------------
DEPT .F                                                :DEPTH (BOREHOLE) {F12.4}
AF10 .OHMM                                             :Array Induction Four Foot Resistivity A10 {F11.4}
AF20 .OHMM                                             :Array Induction Four Foot Resistivity A20 {F11.4}
AF30 .OHMM                                             :Array Induction Four Foot Resistivity A30 {F11.4}
AF60 .OHMM                                             :Array Induction Four Foot Resistivity A60 {F11.4}
AF90 .OHMM                                             :Array Induction Four Foot Resistivity A90 {F11.4}
AO10 .OHMM                                             :Array Induction One Foot Resistivity A10 {F11.4}
AO20 .OHMM                                             :Array Induction One Foot Resistivity A20 {F11.4}
AO30 .OHMM                                             :Array Induction One Foot Resistivity A30 {F11.4}
AO60 .OHMM                                             :Array Induction One Foot Resistivity A60 {F11.4}
AO90 .OHMM                                             :Array Induction One Foot Resistivity A90 {F11.4}
AT10 .OHMM                                             :Array Induction Two Foot Resistivity A10 {F11.4}
AT20 .OHMM                                             :Array Induction Two Foot Resistivity A20 {F11.4}
AT30 .OHMM                                             :Array Induction Two Foot Resistivity A30 {F11.4}
AT60 .OHMM                                             :Array Induction Two Foot Resistivity A60 {F11.4}
AT90 .OHMM                                             :Array Induction Two Foot Resistivity A90 {F11.4}
AFEC .HZ                                               :Far Detector Count Rate {F11.4}
ANEC .HZ                                               :Near Detector Count Rate {F11.4}
AORT .OHMM                                             :Array Induction One Foot Rt {F11.4}
AORX .OHMM                                             :Array Induction One Foot Rxo {F11.4}
APDC .CFCF                                             :Near/Array Corrected Dolomite Porosity {F11.4}
APLC .PU                                               :Near/Array Corrected Limestone Porosity {F11.4}
APSC .CFCF                                             :Near/Array Corrected Sandstone Porosity {F11.4}
CDF  .LBF                                              :Calibrated Downhole Force {F11.4}
CTEM .DEGF                                             :Cartridge Temperature {F11.4}
DCAL .IN                                               :Differential Caliper {F11.4}
ED   .F                                                :East Departure {F11.4}
FPLC .CFCF                                             :Near/Far Corrected Limestone Porosity {F11.4}
GR_EDTC.GAPI                                           :Gamma Ray {F11.4}
GTEM .DEGF                                             :Generalized Borehole Temperature {F11.4}
HASC .CFCF                                             :APS High Resolution Near/Array Corrected Sandstone Porosity {F11.4}
HSIG .CU                                               :APS High Resolution Formation Capture Cross Section {F11.4}
HSTO .IN                                               :APS High Resolution Effective Standoff in Limestone {F11.4}
ND   .F                                                :North Departure {F11.4}
QSGF .                                                 :Quality of Formation Sigma {F11.4}
SIGF .CU                                               :Formation Capture Cross Section {F11.4}
SP   .MV                                               :Spontaneous Potential {F11.4}
SPAR .MV                                               :SP, Armor Return Compensated {F11.4}
STIT .F                                                :Stuck Tool Indicator, Total {F11.4}
STOF .IN                                               :Effective Standoff in Limestone {F11.4}
STPC .CFCF                                             :Corrected Standoff Porosity {F11.4}
TENS .LBF                                              :Cable Tension {F11.4}
#-----------------------------------------------------------------------------
# 
#      DEPT        AF10       AF20       AF30       AF60       AF90       AO10       AO20       AO30       AO60       AO90       AT10       AT20       AT30       AT60       AT90       AFEC       ANEC       AORT       AORX       APDC       APLC       APSC       CDF        CTEM       DCAL        ED        FPLC     GR_EDTC      GTEM       HASC       HSIG       HSTO        ND        QSGF       SIGF        SP        SPAR       STIT       STOF       STPC       TENS
#
~A  
# ...
    296.0000     5.2559     5.6850     5.9730     6.4372     6.6425     4.8475     5.2902     5.4885     6.0062     6.0739     5.0251     5.3867     5.6327     6.0257     6.2526   391.4286  2423.4285     6.2463     4.8115     0.8407    84.2658     0.8453   633.1963    88.4706     0.0000     0.3848     0.7783    66.4471    57.4700     0.7746    24.0690     0.1721    -0.1804     0.2475    23.9918  -148.7545  -150.0217     0.0000    -0.2187     0.7908   853.0741
    296.5000     5.5469     5.9936     6.3289     6.8670     7.0981     5.4883     5.9436     6.2673     7.1549     7.2529     5.5608     5.9589     6.2840     6.8014     7.0482   397.1429  2493.1428     7.5486     5.3988     0.8677    86.9315     0.8712   633.0186    88.4706     0.0000     0.3882     0.6507    65.2964    57.4750     0.8976    23.6403    -0.3586    -0.1794     0.2473    25.0347  -150.6875  -151.4191     0.0000    -0.3165     0.7911   848.2500
    297.0000     5.8103     6.3581     6.7651     7.3965     7.6708     6.5556     7.0126     7.6086     9.1365     9.2980     6.1150     6.6576     7.1535     7.8434     8.1747   401.7143  2535.0000     9.8141     6.2228     0.8615    86.3193     0.8652   631.8505    88.4706     0.0000     0.3915     0.6838    63.2339    57.4800     0.9175    23.3727    -0.3294    -0.1783     0.2513    24.5818  -152.9838  -153.0332     0.0000    -0.2975     0.7912   841.4286
    297.5000     6.1111     6.7069     7.1984     7.9323     8.2601     6.4858     6.9628     7.7578     9.6193     9.8004     6.5201     6.9866     7.5522     8.3503     8.8026   376.5714  2510.2856    10.4627     6.3198     0.9287    92.9461     0.9301   632.7139    88.4706     0.0000     0.3947     0.6878    62.1484    57.4850     0.9028    24.2491    -0.3623    -0.1773     0.2261    25.7374  -154.1540  -154.6004     0.0000    -0.2714     0.7896   897.4075
    298.0000     6.3133     6.9799     7.5601     8.3840     8.7682     6.4326     7.0863     7.9905     9.9820    10.1786     6.5205     7.1254     7.8164     8.6741     9.2315   403.4286  2450.8572    10.9343     6.2727     0.9409    94.1518     0.9420   635.9895    88.4706     0.0000     0.3979     0.7664    60.5902    57.4900     0.9492    26.5327    -0.1226    -0.1763     0.2056    26.4421  -154.8795  -156.0094     0.0000    -0.2023     0.7906   891.2143
    298.5000     6.3655     7.1460     7.7972     8.6797     9.1097     6.3835     7.3188     8.1849    10.1135    10.3155     6.4615     7.2535     8.0445     8.9503     9.5957   382.0000  2512.5715    10.9635     6.1597     0.9049    90.5976     0.9071   634.5802    88.4706     0.0000     0.4010     0.6822    59.5405    57.4950     0.9102    28.3797    -0.3403    -0.1753     0.2344    26.2915  -156.0290  -157.4243     0.0000    -0.3569     0.7916   947.7857
    299.0000     6.3405     7.2165     7.9082     8.8133     9.2682     6.3990     7.2960     8.1433     9.8289    10.0204     6.3890     7.2656     8.0652     8.9565     9.6161   401.1429  2537.5000    10.5737     6.1734     0.8389    84.0902     0.8435   632.3120    88.4706     0.0000     0.4039     0.7771    61.1344    57.5000     0.8282    26.3965    -0.1317    -0.1743     0.2036    26.6283  -157.5134  -158.8099     0.0000    -0.2135     0.7901   929.9286
    299.5000     6.2845     7.2288     7.9350     8.8375     9.2987     6.3230     7.2488     8.0281     9.4268     9.6015     6.3064     7.2449     8.0054     8.8932     9.5440   376.0000  2540.5715    10.0375     6.0993     0.8551    85.6902     0.8591   631.6854    88.4706     0.0000     0.4069     0.8450    62.0264    57.5050     0.8561    25.3480    -0.2610    -0.1734     0.2175    26.3128  -158.8241  -160.1514     0.0000    -0.2784     0.7901   932.7143
    300.0000     6.2090     7.2126     7.9166     8.8045     9.2580     6.2918     7.2353     7.8879     9.1096     9.2702     6.2285     7.1873     7.9193     8.7811     9.4073   370.5000  2505.1428     9.5572     6.0023     0.8399    84.1875     0.8445   631.1649    88.4706     0.0000     0.4098     0.9199    63.4314    57.5100     0.8325    24.4182    -0.1660    -0.1725     0.2234    25.4271  -160.1094  -161.4260     0.0000    -0.2126     0.7914   906.0714
    300.5000     6.1897     7.1781     7.8634     8.7338     9.1749     6.0597     7.0459     7.6416     8.7134     8.8577     6.1440     7.1880     7.8315     8.6343     9.2193   378.8571  2533.0000     9.0508     5.8972     0.8580    85.9750     0.8619   631.8505    88.4706     0.0000     0.4125     0.8450    65.6043    57.5150     0.8686    25.0328    -0.3109    -0.1716     0.2344    25.4070  -161.8549  -162.6497     0.0000    -0.2861     0.7911   874.4815
    301.0000     6.1484     7.1422     7.8029     8.6451     9.0722     6.1699     7.5611     7.1933     8.4372     8.5688     6.1410     7.1383     7.7933     8.5641     9.1294   396.5714  2454.8572     8.7691     5.9094     0.8465    84.8359     0.8508   633.3994    88.4706     0.0000     0.4151     0.7635    64.9825    57.5200     0.9035    25.7889    -0.3558    -0.1708     0.2151    26.1551  -163.9420  -163.7650     0.0000    -0.2454     0.7901   877.9643
    301.5000     6.1138     7.1021     7.7422     8.5677     8.9816     6.0724     6.6096     8.3211     8.9556     9.1006     6.0817     7.0272     7.8040     8.5651     9.1069   387.0000  2529.1428     9.1693     5.7482     0.8708    87.2386     0.8742   632.7139    88.4706     0.0000     0.4177     0.7300    65.4858    57.5250     0.8613    25.8245    -0.2837    -0.1699     0.2247    26.4047  -165.9676  -164.7355     0.0000    -0.3240     0.7918   871.9286
    302.0000     6.0906     7.0781     7.7127     8.5299     8.9300     6.1138     7.0663     7.6147     9.0211     9.1658     6.0955     7.0442     7.6245     8.3650     8.8993   388.0000  2504.5715     9.1907     5.9683     0.7975    80.0053     0.8040   631.7235    88.4706     0.0000     0.4202     0.7779    64.2247    57.5300     0.8327    26.4814    -0.1628    -0.1691     0.1906    27.7979  -167.0580  -165.4148     0.0000     0.0019     0.7913   824.2963
    302.5000     6.1219     7.0877     7.7283     8.5501     8.9400     6.0597     6.9268     7.3977     8.2613     8.3798     6.0833     6.9617     7.6027     8.3208     8.8286   375.4286  2530.0000     8.5995     5.8645     0.7688    77.1750     0.7766   635.7811    88.4706     0.0000     0.4226     0.8258    64.7008    57.5350     0.8124    29.4956    -0.0647    -0.1684     0.2264    27.5524  -167.1786  -165.7578     0.0000     0.1732     0.7931   858.2500
    303.0000     6.1554     7.1330     7.7848     8.6274     9.0117     5.9958     6.6981     7.2078     8.2502     8.3659     6.1029     6.9595     7.5506     8.2640     8.7448   372.5714  2444.5715     8.7208     5.8476     0.7154    71.8990     0.7259   633.0313    88.4706     0.0000     0.4250     0.8529    64.3579    57.5400     0.7172    26.8888     0.4595    -0.1676     0.3545    26.9400  -167.4306  -165.9828     0.0000     0.4397     0.7920   860.1429
    303.5000     6.2095     7.2042     7.8686     8.7437     9.1322     6.2191     7.1832     7.8728     9.2625     9.4055     6.2315     7.1931     7.8321     8.6156     9.1434   379.4286  2430.2856     9.5946     6.0150     0.7518    75.4959     0.7605   636.4339    88.4706     0.0000     0.4272     0.9023    62.8972    57.5450     0.7113    25.3259     0.5041    -0.1669     0.2677    26.7816  -167.4911  -166.0308     0.0000     0.2540     0.7918   872.5555
    304.0000     6.2772     7.2799     7.9589     8.8744     9.2424     6.2796     7.4234     8.1298     9.4768     9.6235     6.3222     7.3938     8.1438     8.9527     9.5836   366.8571  2505.7144     9.8449     6.0374     0.7428    74.6070     0.7519   635.2531    88.4706     0.0000     0.4294     0.7248    61.8704    57.5500     0.7705    26.0932     0.1879    -0.1662     0.2861    26.8797  -166.8393  -165.8307     0.0000     0.3036     0.7920   903.4643
    304.5000     6.3043     7.3276     8.0162     8.9653     9.3163     6.3591     7.4077     8.2222     9.5964     9.7442     6.4067     7.4425     8.1677     9.0647     9.5916   412.5000  2559.4285    10.0045     6.1114     0.7803    78.3104     0.7876   634.0597    88.4706     0.0000     0.4315     0.7235    63.0337    57.5550     0.7911    25.7555     0.0711    -0.1655     0.2334    25.8983  -166.6389  -165.5633     0.0000     0.0878     0.7903   892.5715
