~VERSION INFORMATION
VERS.           1.2   :CWLS Log ASCII Standard - VERSION 1.2
WRAP.           NO    :One Line per depth step
PROD.  Schlumberger   :LAS Producer
PROG.  DLIS to ASCII 2.3                               :LAS Program name and version
CREA.        2015/01/14 20:42                          :LAS Creation date {YYYY/MM/DD hh:mm}
DLIS_CREA.  2015-Jan-14 13:26                          :DLIS Creation date and time {YYYY-MMM-DD hh:mm}
SOURCE.     b1232dd5-b707-4891-82b9-d24dcc6cb5d4       :DLIS File Name
#--------------------------------------------------
~WELL INFORMATION
#MNEM.UNIT      DATA             DESCRIPTION
#---- ------ --------------   -----------------------------
STRT .F      -8.0000         :START DEPTH     
STOP .F      352.5000        :STOP DEPTH     
STEP .F       0.5000         :STEP       
NULL .          -999.25      :NULL VALUE
COMP .                 COMPANY:  ADM Company                        
WELL .                    WELL:  CCS#2                              
FLD  .                   FIELD:  Wildcat                            
LOC  .                LOCATION:  Latitude: 39.885961                
CNTY .                  COUNTY:  Macon                              
STAT .                   STATE:  Illinois                           
CTRY .                 COUNTRY:  USA                                
SRVC .         SERVICE COMPANY:  Schlumberger                       
LATI .DEG             LATITUDE:  39° 53' 9.46" N                    
LONG .DEG            LONGITUDE:  88° 53' 16.959" W                  
API  .              API NUMBER:  12-115-23713-00                    
DATE .                LOG DATE:  13-Jan-2015
UWI  .          UNIQUE WELL ID:                                     
#-----------------------------------------------------------------------------
~PARAMETER INFORMATION
#MNEM.UNIT    VALUE                      DESCRIPTION
#---- -----   --------------------       ------------------------
CN   .        ADM Company                :Company Name
WN   .        CCS#2                      :Well Name
FN   .        Wildcat                    :Field Name
FL   .        Latitude  39.885961        :Field Location
FL1  .        Longitude  -88.888044      :Field Location, Line 1
COUN .        Macon                      :County or Parish
STAT .        Illinois                   :State or Province
NATI .        USA                        :Nation
DATE .        13-Jan-2015                :Tools Above Rotary Table Date
APIN .        12-115-23713-00            :API Well Number
SECT .        32                         :Section
TOWN .        17N                        :Township
RANG .        3E                         :Range
DMF  .        KB                         :Drilling Measured From (Name of Drilling Elevation Reference)
LMF  .        KB                         :Logging Measured From (Name of Logging Elevation Reference)
PDAT .        GL                         :Permanent Datum
ENGI .        Devin Arnold               :Engineer s Name
WITN .        Nick Malkewicz             :Witness s Name
LATI .        39° 53' 9.46  N            :Latitude
LONG .        88° 53' 16.959  W          :Longitude
LUL  .        Bradford                   :Logging Unit Location
LUN  .        3095                       :Logging Unit Number
RUN  .        2                          :Run Number
SON  .        D71E-00006                 :Service Order Number
BHT  .DEGF      58.00000                 :Bottom Hole Temperature
BS   .IN        26.00000                 :Bit Size
MDEN .G/C3       2.71000                 :Matrix Density for Density Porosity
DFD  .LB/G      10.10000                 :Drilling Fluid Density
DFV  .S       -999.25000                 :Drilling Fluid Viscosity
DFL  .C3      -999.25000                 :Drilling Fluid Loss
RMFS .OHMM       1.23200                 :Resistivity of Mud Filtrate Sample
EKB  .F        691.19995                 :Elevation of Kelly Bushing
EGL  .F        675.69995                 :Elevation of Ground Level
BLI  .F        345.00000                 :Bottom Log Interval
BSAL .PPM        0.00000                 :Borehole Salinity
FLEV .F          8.00000                 :Depth of Drilling Fluid Level to LMF (Log Measured From)
MCST .DEGF      42.80000                 :Mudcake Sample Temperature
MFST .DEGF      42.80000                 :Mud Filtrate Sample Temperature
MRT  .DEGF      58.00000                 :Maximum Recorded Temperature
MST  .DEGF      42.80000                 :Mud Sample Temperature
RMCS .OHMM       1.84800                 :Resistivity of Mud Cake Sample
RMS  .OHMM       1.54000                 :Resistivity of Mud Sample
RW   .OHMM       1.00000                 :Connate Water Resistivity
TDD  .F        349.00000                 :Driller Total Depth
TDL  .F        349.00000                 :Logger Total Depth
TLI  .F         50.00000                 :Top Log Interval
HIDE .        Wildcat                    :Header Identifier
MATR .        LIME                       :Rock Matrix for Neutron Porosity Corrections
FNUM .           1.00000                 :F-Numerator for Formation Factor Formula
FEXP .           2.00000                 :Exponent "m" for Formation Factor Formula
DFT  .        Fresh Mud                  :Drilling Fluid Type
DFPH .        -999.25000                 :Drilling Fluid pH
MCSS .        Calculated                 :Mudcake Sample Source
MFSS .        Calculated                 :Mud Filtrate Sample Source
FD   .G/C3       1.00000                 :Fluid Density
MSS  .        Active Tank                :Mud Sample Source
OS1  .                                   :Other Services Line 1
OS2  .                                   :Other Services Line 2
OS3  .                                   :Other Services Line 3
OS4  .                                   :Other Services Line 4
OS5  .                                   :Other Services Line 5
R1   .        Matrix Density  Limestone. :Remarks Line 1
R2   .        Mud Sample taken on location. :Remarks Line 2
R3   .        Presentations as per client request. :Remarks Line 3
R4   .        No Chemical Sources ran due to possible potable water zones. :Remarks Line 4
R5   .        Bottom Hole Temperature taken from GM2 temperature log provided by the client. 58degF :Remarks Line 5
R6   .                                   :Remarks Line 6
R7   .                                   :Remarks Line 7
R8   .                                   :Remarks Line 8
TCS  .        19 45 00                   :Time Circulation Stopped
TLAB .        03 30 00                   :Time Logger At Bottom
EPD  .C3         675.699951              :Elevation of Permanent Datum above Mean Sea Level
APD  .F          15.500000               :Elevation of Depth Reference (LMF) above Permanent Datum
#-----------------------------------------------------------------------------
~CURVE INFORMATION
#MNEM.UNIT   API CODE                                  DESCRIPTION
#---- -----  --------                                  -----------------------
DEPT .F                                                :DEPTH (BOREHOLE) {F12.4}
CDF  .LBF                                              :Calibrated Downhole Force {F11.4}
CTEM .DEGF                                             :Cartridge Temperature {F11.4}
DCAL .IN                                               :Differential Caliper {F11.4}
DT   .US/F                                             :Delta-T (also called Slowness or Interval Transit Time) {F11.4}
ED   .F                                                :East Departure {F11.4}
GR_EDTC.GAPI                                           :Gamma Ray {F11.4}
GTEM .DEGF                                             :Generalized Borehole Temperature {F11.4}
HAZI .DEG                                              :Hole Azimuth Relative to True North {F11.4}
HAZIM.DEG                                              :Memorized Hole Azimuth {F11.4}
ITT  .S                                                :Integrated Transit Time {F11.4}
ND   .F                                                :North Departure {F11.4}
P1AZ .DEG                                              :Pad 1 Azimuth in Horizontal Plane (0 = True North) {F11.4}
RB   .DEG                                              :Relative Bearing {F11.4}
SDEV .DEG                                              :Sonde Deviation {F11.4}
SDEVM.DEG                                              :Memorized Sonde Deviation {F11.4}
SPHI .CFCF                                             :Sonic Porosity {F11.4}
STIT .F                                                :Stuck Tool Indicator, Total {F11.4}
TENS .LBF                                              :Cable Tension {F11.4}
#-----------------------------------------------------------------------------
# 
#      DEPT        CDF        CTEM       DCAL        DT         ED      GR_EDTC      GTEM       HAZI      HAZIM       ITT         ND        P1AZ        RB        SDEV      SDEVM       SPHI       STIT       TENS
#
~A  
     -8.0000   793.7078    82.5412   -23.7903  -251.9868     0.0000    48.0500    54.5101   246.6735   114.0615     0.0000    -0.0000   193.3921   306.7453     2.5226     2.3784  -999.2500     0.0000   804.1818
     -7.5000   793.7078    82.5412   -23.7903  -251.9868     0.0000    48.3025    54.5101   246.6735   113.8748     0.0000    -0.0000   193.3921   306.7453     2.5226     2.3840  -999.2500     0.0000   804.1818
     -6.5000   793.7078    82.5412   -23.7903  -251.9868     0.0000    44.6456    54.5101   246.6735   113.4782     0.0000    -0.0000   193.3921   306.7453     2.5226     2.3766  -999.2500     0.0000   804.1818
     -6.5000   793.7078    82.5412   -23.7903  -251.9868     0.0000    44.6906    54.5101   246.6735   112.3449     0.0000    -0.0000   193.3921   306.7453     2.5226     2.3792  -999.2500     0.0000   804.1818
     -6.0000   793.7078    82.5412   -23.7903  -252.6879     0.0000    44.1260    54.5101   246.6735   110.5683     0.0000    -0.0000   193.3921   306.7453     2.5226     2.3792  -999.2500     0.0000   804.1818
     -5.5000   793.7078    82.5412   -23.7903  -251.6225     0.0000    48.7178    54.5101   246.6735   107.9869     0.0000    -0.0000   193.3921   306.7453     2.5226     2.3811  -999.2500     0.0000   804.1818
     -5.0000   793.7078    82.5412   -23.7903  -252.1387     0.0000    51.7358    54.5101   246.6735   106.3845     0.0000    -0.0000   193.3921   306.7453     2.5226     2.3824  -999.2500     0.0000   804.1818
     -4.5000   793.7078    82.5412   -23.7903  -252.7812     0.0000    51.0179    54.5101   246.6735   104.5889     0.0000    -0.0000   193.3921   306.7453     2.5226     2.3840  -999.2500     0.0000   804.1818
     -4.0000   793.7078    82.5412   -23.7903  -232.2621     0.0000    47.7458    54.5101   246.6735   102.6256     0.0000    -0.0000   193.3921   306.7453     2.5226     2.3856  -999.2500     0.0000   804.1818
     -3.0000   793.7078    82.5412   -23.7903  -253.0972     0.0000    43.6131    54.5101   246.6735   100.4970     0.0000    -0.0000   193.3921   306.7453     2.5226     2.3862  -999.2500     0.0000   804.1818
     -3.0000   793.7078    82.5412   -23.7903  -253.2572     0.0000    44.2348    54.5101   246.6735    98.2002     0.0000    -0.0000   193.3921   306.7453     2.5226     2.3865  -999.2500     0.0000   804.1818
     -2.5000   793.7078    82.5412   -23.7903  -252.8951     0.0000    45.9156    54.5101   246.6735    97.0194     0.0000    -0.0000   193.3921   306.7453     2.5226     2.4080  -999.2500     0.0000   804.1818
     -2.0000   793.7078    82.5412   -23.7903  -253.0545     0.0000    47.8812    54.5101   246.6735    94.2653     0.0000    -0.0000   193.3921   306.7453     2.5226     2.4099  -999.2500     0.0000   804.1818
     -1.5000   793.7078    82.5412   -23.7903  -253.2585     0.0000    45.8865    54.5101   246.6735    91.0601     0.0000    -0.0000   193.3921   306.7453     2.5226     2.4175  -999.2500     0.0000   804.1818
     -1.0000   793.7078    82.5412   -23.7903  -253.5330     0.0000    45.6328    54.5101   246.6735    87.8988     0.0000    -0.0000   193.3921   306.7453     2.5226     2.4186  -999.2500     0.0000   804.1818
     -0.5000   793.7078    82.5412   -23.7903  -252.7920     0.0000    41.3204    54.5101   246.6735    84.6603     0.0000    -0.0000   193.3921   306.7453     2.5226     2.4188  -999.2500     0.0000   804.1818
      0.0000   793.7078    82.5412   -23.7903  -252.7920     0.0000    41.3204    54.5101   246.6735    84.6603     0.0000    -0.0000   193.3921   306.7453     2.5226     2.4188  -999.2500     0.0000   804.1818
      0.5000   798.4086    82.5412   -23.7903  -253.3902     0.0000    42.1591    54.5151   242.6932    78.0863     0.0000    -0.0001   193.0841   310.4157     2.3985     2.4256  -999.2500     0.0000   779.6522
      1.0000   773.9854    82.5412   -23.7903  -253.4324     0.0001    46.1441    54.5201   236.3851    74.5929     0.0000    -0.0003   192.5471   316.1831     2.1979     2.4200  -999.2500     0.0000   661.5652
      1.5000   763.7234    82.5412   -23.7903  -253.5068     0.0001    44.4309    54.5251   242.7714    64.5247     0.0000    -0.0007   191.9413   309.1982     2.5725     2.4510  -999.2500     0.0000   713.8462
      2.0000   759.2113    82.5412   -23.7903  -253.5716     0.0002    45.6247    54.5301   240.5571    57.2703     0.0000    -0.0012   185.4118   304.8825     2.6032     2.4239  -999.2500     0.0000   720.7692
      2.5000   749.3380    82.5412   -23.7903  -253.5196     0.0003    45.1690    54.5351   229.3057    46.7527     0.0000    -0.0018   181.4970   312.2151     2.3439     2.4314  -999.2500     0.0000   788.0944
      3.0000   760.6420    82.5412   -23.7903  -253.5216     0.0005    47.2264    54.5401   234.5828    35.4467     0.0000    -0.0027   176.1634   301.6088     2.6872     2.4379  -999.2500     0.0000   659.7083
      3.5000   750.8604    82.5412   -23.7903  -253.6376     0.0007    45.9556    54.5451   226.3112    22.4296     0.0000    -0.0037   171.1916   304.9052     2.4644     2.4516  -999.2500     0.0000   555.3334
      4.0000   747.1046    82.5412   -23.7903  -253.5236     0.0009    48.7177    54.5501   216.1908    11.9439     0.0000    -0.0048   165.8506   309.6883     2.5744     2.4611  -999.2500     0.0000   618.7084
      4.5000   742.7284    82.5412   -23.7903  -253.6310     0.0011    47.7065    54.5551   219.1511     4.4648     0.0000    -0.0061   161.4940   302.3669     2.4674     2.4426  -999.2500     0.0000   572.7500
      5.0000   739.1699    82.5412   -23.7903  -253.6850     0.0014    48.5584    54.5601   218.0308     3.2216     0.0000    -0.0075   157.3175   299.3094     2.4646     2.4640  -999.2500     0.0000   639.6667
      5.5000   737.4996    82.5412   -23.7903  -253.4749     0.0017    45.3622    54.5651   217.3318     3.1948     0.0000    -0.0091   153.8191   296.5083     2.4602     2.4626  -999.2500     0.0000   540.8334
      6.0000   734.8777    82.5412   -23.7903  -253.7005     0.0020    45.3469    54.5701   217.1254     5.9581     0.0000    -0.0108   151.2305   294.1247     2.4561     2.4365  -999.2500     0.0000   567.4167
      6.5000   732.1594    82.5412   -23.7903  -253.5754     0.0023    44.0784    54.5751   217.4553     4.7944     0.0000    -0.0127   151.2151   293.7792     2.4523     2.4493  -999.2500     0.0000   644.3600
      7.0000   728.9824    82.5412   -23.7903  -253.6346     0.0027    43.9777    54.5801   217.3865     4.0456     0.0000    -0.0147   153.7028   296.3372     2.4493     2.4570  -999.2500     0.0000   518.8696
      7.5000   727.5308    82.5412   -23.7903  -253.9151     0.0031    45.5317    54.5851   218.9322     3.3755     0.0000    -0.0169   158.4481   299.5380     2.4446     2.4627  -999.2500     0.0000   599.8750
      8.0000   724.4806    82.5412   -23.7903  -253.6458     0.0035    44.8481    54.5901   220.7348     3.2508     0.0000    -0.0192   165.0143   304.3037     2.4430     2.4634  -999.2500     0.0000   555.3750
      8.5000   722.2872    82.5412   -23.7903  -253.7757     0.0039    42.8982    54.5951   221.9629     3.2034     0.0000    -0.0217   170.2636   308.3261     2.4390     2.4636  -999.2500     0.0000   560.2084
      9.0000   719.4893    82.5412   -23.7903  -254.6943     0.0044    40.9819    54.6001   222.4745     3.1975     0.0000    -0.0243   174.2781   311.8293     2.4284     2.4637  -999.2500     0.0000   603.0000
      9.5000   717.8878    82.5412   -23.7903  -255.2464     0.0049    43.2203    54.6051   221.7940     3.1993     0.0000    -0.0272   176.6269   314.8584     2.4042     2.4637  -999.2500     0.0000   596.1250
     10.0000   713.8014    82.5412   -23.7903  -254.6430     0.0055    45.7978    54.6101   219.1046     3.2004     0.0000    -0.0301   177.0596   317.9788     2.3505     2.4636  -999.2500     0.0000   584.5417
     10.5000   712.6069    82.5412   -23.7903  -253.8613     0.0060    48.0169    54.6151   214.8981     3.2004     0.0000    -0.0331   175.1204   320.2446     2.2779     2.4635  -999.2500     0.0000   691.9167
