~VERSION INFORMATION
VERS.           1.2   :CWLS Log ASCII Standard - VERSION 1.2
WRAP.           NO    :One Line per depth step
PROD.  Schlumberger   :LAS Producer
PROG.  DLIS to ASCII 2.3                               :LAS Program name and version
CREA.        2015/05/06 16:26                          :LAS Creation date {YYYY/MM/DD hh:mm}
DLIS_CREA.  2015-May-04 11:59                          :DLIS Creation date and time {YYYY-MMM-DD hh:mm}
SOURCE.     301ad50a-0e97-4ef4-9f57-5a70afd84532       :DLIS File Name
#--------------------------------------------------
~WELL INFORMATION
#MNEM.UNIT      DATA             DESCRIPTION
#---- ------ --------------   -----------------------------
STRT .F      23.5000         :START DEPTH     
STOP .F      5264.5000       :STOP DEPTH     
STEP .F       0.5000         :STEP       
NULL .          -999.25      :NULL VALUE
COMP .                 COMPANY:  ADM COMPANY                        
WELL .                    WELL:  CCS#2                              
FLD  .                   FIELD:  WILDCAT                            
LOC  .                LOCATION:  Latitude: 39.885961                
CNTY .                  COUNTY:  MACON                              
STAT .                   STATE:  ILLINOIS                           
CTRY .                 COUNTRY:  USA                                
SRVC .         SERVICE COMPANY:  Schlumberger                       
LATI .DEG             LATITUDE:  39° 53' 9.46" N                    
LONG .DEG            LONGITUDE:  88° 53' 16.958" W                  
API  .              API NUMBER:  12-115-23713-00                    
DATE .                LOG DATE:  03-May-2015
UWI  .          UNIQUE WELL ID:                                     
#-----------------------------------------------------------------------------
~PARAMETER INFORMATION
#MNEM.UNIT    VALUE                      DESCRIPTION
#---- -----   --------------------       ------------------------
CN   .        ADM COMPANY                :Company Name
WN   .        CCS#2                      :Well Name
FN   .        WILDCAT                    :Field Name
FL   .        Latitude  39.885961        :Field Location
FL1  .        Longitude  -88.888044      :Field Location, Line 1
COUN .        MACON                      :County or Parish
STAT .        ILLINOIS                   :State or Province
NATI .        USA                        :Nation
DATE .        03-May-2015                :Tools Above Rotary Table Date
APIN .        12-115-23713-00            :API Well Number
SECT .        32                         :Section
TOWN .        17N                        :Township
RANG .        3E                         :Range
DMF  .        KB                         :Drilling Measured From (Name of Drilling Elevation Reference)
LMF  .        KB                         :Logging Measured From (Name of Logging Elevation Reference)
PDAT .        GL                         :Permanent Datum
ENGI .        Yazan Alhabahbeh           :Engineer s Name
WITN .        Nick Malkewicz             :Witness s Name
LATI .        39° 53' 9.46  N            :Latitude
LONG .        88° 53' 16.958  W          :Longitude
LUL  .        BRADFORD                   :Logging Unit Location
LUN  .        3019                       :Logging Unit Number
RUN  .        2B                         :Run Number
SON  .        D9QJ-00005                 :Service Order Number
BHT  .DEGF     132.00000                 :Bottom Hole Temperature
BS   .IN        17.50000                 :Bit Size
MDEN .G/C3       2.71000                 :Matrix Density for Density Porosity
DFD  .LB/G       9.15000                 :Drilling Fluid Density
DFV  .S         61.00000                 :Drilling Fluid Viscosity
DFL  .C3      -999.25000                 :Drilling Fluid Loss
RMFS .OHMM       0.16000                 :Resistivity of Mud Filtrate Sample
EKB  .F        691.19995                 :Elevation of Kelly Bushing
EGL  .F        675.69995                 :Elevation of Ground Level
BLI  .F       5252.00000                 :Bottom Log Interval
BSAL .PPM     14700.00000                :Borehole Salinity
FLEV .F          8.00000                 :Depth of Drilling Fluid Level to LMF (Log Measured From)
MCST .DEGF      74.30000                 :Mudcake Sample Temperature
MFST .DEGF      72.50000                 :Mud Filtrate Sample Temperature
MRT  .DEGF     135.00000                 :Maximum Recorded Temperature
MST  .DEGF      73.50000                 :Mud Sample Temperature
RMCS .OHMM       0.26600                 :Resistivity of Mud Cake Sample
RMS  .OHMM       0.19000                 :Resistivity of Mud Sample
RW   .OHMM       1.00000                 :Connate Water Resistivity
TDD  .F       5252.00000                 :Driller Total Depth
TDL  .F       5252.00000                 :Logger Total Depth
TLI  .F        200.00000                 :Top Log Interval
HIDE .        WILDCAT                    :Header Identifier
MATR .        LIME                       :Rock Matrix for Neutron Porosity Corrections
FNUM .           1.00000                 :F-Numerator for Formation Factor Formula
FEXP .           2.00000                 :Exponent "m" for Formation Factor Formula
DFT  .        SALT WATER                 :Drilling Fluid Type
DFPH .          11.00000                 :Drilling Fluid pH
MCSS .        Calculated                 :Mudcake Sample Source
MFSS .        Calculated                 :Mud Filtrate Sample Source
FD   .G/C3       1.00000                 :Fluid Density
MSS  .        Active Tank                :Mud Sample Source
OS1  .                                   :Other Services Line 1
OS2  .                                   :Other Services Line 2
OS3  .                                   :Other Services Line 3
OS4  .                                   :Other Services Line 4
OS5  .                                   :Other Services Line 5
R1   .        THANKS FOR CHOOSING

SCHLUMBERGER!!! :Remarks Line 1
R2   .        MATRIX  LIMESTONE          :Remarks Line 2
R3   .        MATRIX DENSITY  2.71 G/CC  :Remarks Line 3
R4   .        All WELL PROPERTIES PROVIDED BY

CLIENT . :Remarks Line 4
R5   .        ALL SCALES ON PRESENTATIONS AS PER

CLIENT REQUEST :Remarks Line 5
R6   .        Temp recorded by sensors inside the tool . :Remarks Line 6
R7   .                                   :Remarks Line 7
R8   .                                   :Remarks Line 8
TCS  .        04 45 00                   :Time Circulation Stopped
TLAB .        22 39 00                   :Time Logger At Bottom
EPD  .C3         675.699951              :Elevation of Permanent Datum above Mean Sea Level
APD  .F          15.500000               :Elevation of Depth Reference (LMF) above Permanent Datum
#-----------------------------------------------------------------------------
~CURVE INFORMATION
#MNEM.UNIT   API CODE                                  DESCRIPTION
#---- -----  --------                                  -----------------------
DEPT .F                                                :DEPTH (BOREHOLE) {F12.4}
C1   .IN                                               :Caliper 1 {F11.4}
C2   .IN                                               :Caliper 2 {F11.4}
CDF  .LBF                                              :Calibrated Downhole Force {F11.4}
CTEM .DEGF                                             :Cartridge Temperature {F11.4}
DCAL .IN                                               :Differential Caliper {F11.4}
DEVI .DEG                                              :Hole Deviation {F11.4}
DEVIM.DEG                                              :Memorized Deviation {F11.4}
DTCO .US/F                                             :Delta-T Compressional {F11.4}
DTSM .US/F                                             :Delta-T Shear {F11.4}
ED   .F                                                :East Departure {F11.4}
GR_EDTC.GAPI                                           :Gamma Ray {F11.4}
GTEM .DEGF                                             :Generalized Borehole Temperature {F11.4}
HAZI .DEG                                              :Hole Azimuth Relative to True North {F11.4}
HAZIM.DEG                                              :Hole Azimuth Relative to True North {F11.4}
ITT  .S                                                :Integrated Transit Time {F11.4}
ND   .F                                                :North Departure {F11.4}
P1AZ .DEG                                              :Pad 1 Azimuth in Horizontal Plane (0 = True North) {F11.4}
PR   .                                                 :Poisson s Ratio {F11.4}
RB   .DEG                                              :Relative Bearing {F11.4}
SDEV .DEG                                              :Sonde Deviation {F11.4}
SDEVM.DEG                                              :Sonde Deviation {F11.4}
SPHI .CFCF                                             :Sonic Porosity {F11.4}
STIT .F                                                :Stuck Tool Indicator, Total {F11.4}
TENS .LBF                                              :Cable Tension {F11.4}
#-----------------------------------------------------------------------------
# 
#      DEPT         C1         C2        CDF        CTEM       DCAL       DEVI      DEVIM       DTCO       DTSM        ED      GR_EDTC      GTEM       HAZI      HAZIM       ITT         ND        P1AZ        PR         RB        SDEV      SDEVM       SPHI       STIT       TENS
#
~A  
# ...
   1067.5000    18.9236    19.6651   228.0371   134.0192     1.6458     0.3189     0.3434    96.4456   202.3642     0.0000    88.7314    81.0084     9.4123     6.1973     0.2473     0.0000    70.7758     0.3531    61.3626     0.3214     0.3463     0.3041     0.0000  1827.0000
   1068.0000    19.0102    19.7061   225.3385   134.0153     1.6614     0.3165     0.3418    96.2987   202.0519     0.0000    88.7907    81.0145     9.8560     5.2597     0.2472     0.0000    71.1310     0.3530    61.2749     0.3190     0.3446     0.3030     0.0000  1739.0000
   1068.5000    18.9827    19.7732   224.7083   134.1091     1.6317     0.3155     0.3426    95.7385   204.3430     0.0000    85.1965    81.0205    10.6836     3.6391     0.2472     0.0000    71.4094     0.3594    60.7257     0.3179     0.3455     0.2988     0.0000  1727.7500
   1069.0000    18.9512    19.6689   225.8816   134.1091     1.6485     0.3141     0.3409    95.9487   202.0531     0.0000    82.1212    81.0266    11.3290     2.0097     0.2471     0.0000    71.5302     0.3544    60.2006     0.3165     0.3437     0.3004     0.0000  1729.3334
   1069.5000    18.9275    19.5758   226.4373   133.9294     1.6471     0.3152     0.3398    95.9242   202.8755     0.0000    81.7471    81.0327    11.6153     0.1429     0.2471     0.0000    71.4935     0.3560    59.8772     0.3176     0.3426     0.3002     0.0000  1823.7500
   1070.0000    18.9945    19.5683   228.0048   134.0192     1.6317     0.3150     0.3382    95.8115   201.1791     0.0000    82.1235    81.0388    11.9118   358.0422     0.2470     0.0000    71.5330     0.3533    59.6203     0.3174     0.3410     0.2993     0.0000  1866.0001
   1070.5000    19.0496    19.5758   225.3385   134.1091     1.6184     0.3178     0.3339    95.8901   201.5868     0.0000    77.5663    81.0449    11.8917   355.4931     0.2470     0.0000    71.6185     0.3538    59.7262     0.3203     0.3366     0.2999     0.0000  1804.0000
   1071.0000    19.0968    19.6540   229.7500   134.1091     1.6171     0.3185     0.3312    96.3177   203.3548     0.0000    73.8697    81.0510    11.8932   353.4543     0.2469     0.0000    71.5339     0.3554    59.6406     0.3209     0.3339     0.3031     0.0000  1781.7501
   1071.5000    19.0850    19.6800   229.4984   134.0153     1.6184     0.3202     0.3289    97.2249   203.4307     0.0000    76.3865    81.0571    11.6851   351.6954     0.2469     0.0000    71.6581     0.3520    59.9729     0.3227     0.3316     0.3100     0.0000  1768.3334
   1072.0000    19.0535    19.5758   224.9022   133.9294     1.6340     0.3216     0.3265    96.9578   207.2509     0.0000    76.5200    81.0632    11.6115   349.8504     0.2468     0.0000    71.7444     0.3599    60.1330     0.3241     0.3291     0.3080     0.0000  1736.3334
   1072.5000    19.0575    19.5832   224.7083   134.1013     1.6198     0.3230     0.3239    97.3238   203.5139     0.0000    78.6821    81.0693    11.0349   348.2466     0.2468     0.0000    71.6851     0.3518    60.6491     0.3255     0.3265     0.3107     0.0000  1751.6667
   1073.0000    19.0890    19.6726   227.3423   134.1091     1.6351     0.3253     0.3219    97.3453   211.3609     0.0000    73.2676    81.0754    10.9148   347.0596     0.2467     0.0000    71.8728     0.3654    60.9581     0.3279     0.3245     0.3109     0.0000  1817.7500
   1073.5000    19.1126    19.6912   229.0874   134.0153     1.6189     0.3275     0.3184    97.6617   210.1850     0.0000    74.4699    81.0815    10.1425   345.9795     0.2467     0.0000    72.2067     0.3623    62.0645     0.3301     0.3209     0.3132     0.0000  1832.0000
   1074.0000    19.1047    19.5758   225.8662   134.0192     1.6040     0.3307     0.3150    97.6185   209.9517     0.0000    75.8382    81.0876     9.7213   345.1066     0.2466     0.0000    72.4949     0.3621    62.7729     0.3334     0.3174     0.3129     0.0000  1786.2501
   1074.5000    19.1087    19.5683   221.0533   134.1091     1.6175     0.3330     0.3120    97.5574   204.6991     0.0000    80.1009    81.0937     9.2709   344.6626     0.2466     0.0000    72.5728     0.3531    63.3017     0.3357     0.3144     0.3125     0.0000  1714.2500
   1075.0000    19.1520    19.5758   226.1444   134.1989     1.6182     0.3356     0.3088    96.4598   206.7817     0.0000    85.3876    81.0998     8.8183   344.2067     0.2465     0.0000    72.6827     0.3609    63.8643     0.3383     0.3111     0.3042     0.0000  1684.6666
   1075.5000    19.1047    19.4901   229.1198   134.0192     1.6198     0.3379     0.3037    96.0956   204.1166     0.0000    82.3531    81.1059     8.4205   344.4230     0.2465     0.0000    72.8768     0.3576    64.4565     0.3406     0.3060     0.3015     0.0000  1810.7500
   1076.0000    18.9984    19.4640   226.1289   134.3591     1.6198     0.3394     0.2987    95.6641   198.6894     0.0000    80.7237    81.1119     8.0787   344.3494     0.2464     0.0000    73.0974     0.3491    65.0184     0.3421     0.3008     0.2982     0.0000  1789.5000
   1076.5000    18.9866    19.4603   224.5144   134.1013     1.5911     0.3416     0.2903    95.6395   196.5697     0.0000    76.4604    81.1180     7.6204   344.8164     0.2464     0.0000    73.3205     0.3449    65.6994     0.3444     0.2923     0.2980     0.0000  1800.6667
   1077.0000    18.9984    19.4081   222.0421   134.1989     1.5755     0.3423     0.2834    95.4423   194.5608     0.0000    76.1313    81.1241     6.9352   345.3940     0.2463     0.0000    73.3992     0.3415    66.4642     0.3451     0.2854     0.2966     0.0000  1765.2501
   1077.5000    18.9866    19.4044   223.6095   134.1872     1.5611     0.3435     0.2743    95.2231   194.1343     0.0000    77.7324    81.1302     6.1973   346.2571     0.2463     0.0000    73.3412     0.3416    67.1442     0.3463     0.2761     0.2949     0.0000  1747.7501
   1078.0000    19.0023    19.1810   225.3708   133.9294     1.5764     0.3423     0.2671    95.2576   194.3347     0.0000    77.7022    81.1363     5.0428   347.2376     0.2463     0.0000    73.3418     0.3419    68.2989     0.3451     0.2688     0.2952     0.0000  1747.3334
   1078.5000    18.9905    19.1661   226.0172   134.0192     1.5766     0.3413     0.2617    95.4404   194.1509     0.0000    78.5457    81.1424     3.3390   348.5499     0.2462     0.0000    73.3273     0.3407    69.9881     0.3441     0.2633     0.2965     0.0000  1795.7500
   1079.0000    18.9905    19.1623   226.6636   134.1872     1.5766     0.3409     0.2588    95.5878   195.8323     0.0000    77.5446    81.1485     2.0097   350.3363     0.2462     0.0000    73.4251     0.3436    71.4149     0.3437     0.2603     0.2977     0.0000  1803.7500
   1079.5000    18.9905    19.1288   225.2788   134.2888     1.5610     0.3384     0.2595    95.6484   197.8609     0.0000    76.8348    81.1546   359.6501   352.3748     0.2461     0.0000    73.2036     0.3475    73.5533     0.3411     0.2611     0.2981     0.0000  1777.7500
   1080.0000    18.9945    19.1661   227.7785   134.0192     1.6042     0.3365     0.2666    95.8432   198.2810     0.0000    77.6305    81.1607   357.5414   354.4347     0.2461     0.0000    72.8819     0.3476    75.3403     0.3392     0.2682     0.2996     0.0000  1779.0000
   1080.5000    18.9945    19.1735   230.4771   134.2731     1.6042     0.3340     0.2746    96.0495   201.1259     0.0000    79.3450    81.1668   355.4931   356.6849     0.2460     0.0000    72.8757     0.3523    77.3823     0.3366     0.2764     0.3011     0.0000  1795.0001
   1081.0000    18.9905    19.1735   230.2671   134.0192     1.6175     0.3313     0.2884    96.2319   207.3846     0.0000    75.3819    81.1729   353.4543   358.7908     0.2460     0.0000    72.9315     0.3628    79.4768     0.3339     0.2904     0.3025     0.0000  1784.0000
   1081.5000    18.9905    19.1735   228.6483   134.1091     1.6340     0.3288     0.3052    96.3786   208.7874     0.0000    77.2676    81.1790   351.3546     0.8104     0.2459     0.0000    73.0936     0.3646    81.7389     0.3314     0.3074     0.3036     0.0000  1796.3334
