~VERSION INFORMATION
VERS.           1.2   :CWLS Log ASCII Standard - VERSION 1.2
WRAP.           NO    :One Line per depth step
PROD.  Schlumberger   :LAS Producer
PROG.  DLIS to ASCII 2.3                               :LAS Program name and version
CREA.        2015/05/30 23:46                          :LAS Creation date {YYYY/MM/DD hh:mm}
DLIS_CREA.  2015-May-30 15:01                          :DLIS Creation date and time {YYYY-MMM-DD hh:mm}
SOURCE.     b43ac578-4029-44ab-a201-dacd5736d378       :DLIS File Name
#--------------------------------------------------
~WELL INFORMATION
#MNEM.UNIT      DATA             DESCRIPTION
#---- ------ --------------   -----------------------------
STRT .F      5200.5000       :START DEPTH     
STOP .F      7212.5000       :STOP DEPTH     
STEP .F       0.5000         :STEP       
NULL .          -999.25      :NULL VALUE
COMP .                 COMPANY:  ADM COMPANY                        
WELL .                    WELL:  CCS#2                              
FLD  .                   FIELD:  WILDCAT                            
LOC  .                LOCATION:  LAT 39.885961                      
CNTY .                  COUNTY:  MACON                              
STAT .                   STATE:  ILLINOIS                           
CTRY .                 COUNTRY:  USA                                
SRVC .         SERVICE COMPANY:  Schlumberger                       
LATI .DEG             LATITUDE:  39.885961 degrees                  
LONG .DEG            LONGITUDE:  -88.888044 degrees                 
API  .              API NUMBER:  12-115-23713-00                    
DATE .                LOG DATE:  29-May-2015
UWI  .          UNIQUE WELL ID:  12-115-23713-00                    
#-----------------------------------------------------------------------------
~PARAMETER INFORMATION
#MNEM.UNIT    VALUE                      DESCRIPTION
#---- -----   --------------------       ------------------------
CN   .        ADM COMPANY                :Company Name
WN   .        CCS#2                      :Well Name
FN   .        WILDCAT                    :Field Name
FL   .        LAT 39.885961              :Field Location
FL1  .        LONG 39.885961             :Field Location, Line 1
COUN .        MACON                      :County or Parish
STAT .        ILLINOIS                   :State or Province
NATI .        USA                        :Nation
DATE .        29-May-2015                :Tools Above Rotary Table Date
APIN .        12-115-23713-00            :API Well Number
SECT .        32                         :Section
TOWN .        17N                        :Township
RANG .        3E                         :Range
DMF  .        KB                         :Drilling Measured From (Name of Drilling Elevation Reference)
LMF  .        KB                         :Logging Measured From (Name of Logging Elevation Reference)
PDAT .        GL                         :Permanent Datum
ENGI .        H. DIMITROV / M. MOHAMMED  :Engineer s Name
WITN .        NICK MALKEWICZ             :Witness s Name
LATI .        39.885961 degrees          :Latitude
LONG .        -88.888044 degrees         :Longitude
LUL  .        BRADFORD                   :Logging Unit Location
LUN  .        3003                       :Logging Unit Number
RUN  .        RUN 3B                     :Run Number
SON  .                                   :Service Order Number
BHT  .DEGF     127.00000                 :Bottom Hole Temperature
BS   .IN        12.25000                 :Bit Size
MDEN .LB/G      22.11532                 :Matrix Density for Density Porosity
DFD  .LB/G       9.20000                 :Drilling Fluid Density
DFV  .S         66.00000                 :Drilling Fluid Viscosity
DFL  .C3         7.60000                 :Drilling Fluid Loss
RMFS .OHMM       0.17000                 :Resistivity of Mud Filtrate Sample
EKB  .F        691.19995                 :Elevation of Kelly Bushing
EGL  .F        675.69995                 :Elevation of Ground Level
BLI  .F       7192.00000                 :Bottom Log Interval
BSAL .PPM     15100.00000                :Borehole Salinity
FLEV .F          8.00000                 :Depth of Drilling Fluid Level to LMF (Log Measured From)
MCST .DEGF      72.50000                 :Mudcake Sample Temperature
MFST .DEGF      72.50000                 :Mud Filtrate Sample Temperature
MRT  .DEGF     127.00000                 :Maximum Recorded Temperature
MST  .DEGF      72.50000                 :Mud Sample Temperature
RMCS .OHMM       0.14000                 :Resistivity of Mud Cake Sample
RMS  .OHMM       0.20000                 :Resistivity of Mud Sample
RW   .OHMM       1.00000                 :Connate Water Resistivity
TDD  .F       7193.00049                 :Driller Total Depth
TDL  .F       7192.00000                 :Logger Total Depth
TLI  .F       5231.00000                 :Top Log Interval
HIDE .        WILDCAT                    :Header Identifier
MATR .        SAND                       :Rock Matrix for Neutron Porosity Corrections
FNUM .           1.00000                 :F-Numerator for Formation Factor Formula
FEXP .           2.00000                 :Exponent "m" for Formation Factor Formula
DFT  .        Fresh Water                :Drilling Fluid Type
DFPH .          11.50000                 :Drilling Fluid pH
MCSS .        Calculated                 :Mudcake Sample Source
MFSS .        Calculated                 :Mud Filtrate Sample Source
FD   .LB/G       8.34540                 :Fluid Density
MSS  .        Active Tank                :Mud Sample Source
OS1  .                                   :Other Services Line 1
OS2  .                                   :Other Services Line 2
OS3  .                                   :Other Services Line 3
OS4  .                                   :Other Services Line 4
OS5  .                                   :Other Services Line 5
R1   .        THANKS FOR CHOOSING SCHLUMBERGER!!! :Remarks Line 1
R2   .        All WELL PROPERTIES PROVIDED BY CLIENT :Remarks Line 2
R3   .        ALL SCALES ON PRESENTATIONS AS PER

CLIENT REQUEST :Remarks Line 3
R4   .        MATRIX  SANDSTONE          :Remarks Line 4
R5   .        MATRIX DENSITY  2.65 G/CC  :Remarks Line 5
R6   .        ALL LOGGING INTERVALS AS PER CLIENT REQUEST :Remarks Line 6
R7   .        MRT = 127 DEGF FROM THE THERMOMETER :Remarks Line 7
R8   .                                   :Remarks Line 8
TCS  .        20 00 00                   :Time Circulation Stopped
TLAB .        11 17 00                   :Time Logger At Bottom
EPD  .C3         675.699951              :Elevation of Permanent Datum above Mean Sea Level
APD  .F          15.500000               :Elevation of Depth Reference (LMF) above Permanent Datum
#-----------------------------------------------------------------------------
~CURVE INFORMATION
#MNEM.UNIT   API CODE                                  DESCRIPTION
#---- -----  --------                                  -----------------------
DEPT .F                                                :DEPTH (BOREHOLE) {F12.4}
C1   .IN                                               :Caliper 1 {F11.4}
C2   .IN                                               :Caliper 2 {F11.4}
CDF  .LBF                                              :Calibrated Downhole Force {F11.4}
CTEM .DEGF                                             :Cartridge Temperature {F11.4}
DCAL .IN                                               :Differential Caliper {F11.4}
DEVI .DEG                                              :Hole Deviation {F11.4}
DEVIM.DEG                                              :Memorized Deviation {F11.4}
DTCO .US/F                                             :Delta-T Compressional {F11.4}
DTSM .US/F                                             :Delta-T Shear {F11.4}
ED   .F                                                :East Departure {F11.4}
GR_EDTC.GAPI                                           :Gamma Ray {F11.4}
GTEM .DEGF                                             :Generalized Borehole Temperature {F11.4}
HAZI .DEG                                              :Hole Azimuth Relative to True North {F11.4}
HAZIM.DEG                                              :Hole Azimuth Relative to True North {F11.4}
ITT  .S                                                :Integrated Transit Time {F11.4}
ND   .F                                                :North Departure {F11.4}
P1AZ .DEG                                              :Pad 1 Azimuth in Horizontal Plane (0 = True North) {F11.4}
PR   .                                                 :Poisson s Ratio {F11.4}
RB   .DEG                                              :Relative Bearing {F11.4}
SDEV .DEG                                              :Sonde Deviation {F11.4}
SDEVM.DEG                                              :Sonde Deviation {F11.4}
SPHI .CFCF                                             :Sonic Porosity {F11.4}
STIT .F                                                :Stuck Tool Indicator, Total {F11.4}
TENS .LBF                                              :Cable Tension {F11.4}
#-----------------------------------------------------------------------------
# 
#      DEPT         C1         C2        CDF        CTEM       DCAL       DEVI      DEVIM       DTCO       DTSM        ED      GR_EDTC      GTEM       HAZI      HAZIM       ITT         ND        P1AZ        PR         RB        SDEV      SDEVM       SPHI       STIT       TENS
#
~A  
# ...
   6273.5000    12.0599    12.1638  1513.4945   126.0235    -0.0232     0.4310     0.5173    62.7746   104.5030   -57.8838    67.9622   119.4637   179.6654   173.6387     0.0646   103.1436    91.4137     0.2177   271.7484     0.4310     0.5173     0.0674     0.0000  3302.0002
   6274.0000    12.0599    12.1558  1518.2814   126.0235     0.0108     0.4321     0.5199    63.0411   102.8154   -57.8834    76.8245   119.4678   179.2575   172.7175     0.0646   103.1393    90.6048     0.1988   271.3474     0.4321     0.5199     0.0698     0.0000  3292.0000
   6274.5000    12.1178    12.1558  1509.0778   126.0235     0.0454     0.4326     0.5219    63.0553   102.0231   -57.8829    79.5928   119.4719   179.0956   172.0819     0.0646   103.1349    89.8316     0.1910   270.7361     0.4326     0.5219     0.0699     0.0000  3348.3335
   6275.0000    12.2170    12.4592  1492.3495   126.0235    -0.0110     0.4352     0.5235    63.2565   102.3017   -57.8823    73.5234   119.4760   178.9110   171.2668     0.0646   103.1306    89.1459     0.1905   270.2350     0.4352     0.5235     0.0717     0.0000  3306.3335
   6275.5000    12.2419    12.3953  1494.2653   126.0235    -0.0223     0.4356     0.5250    63.7095   102.7636   -57.8818    66.9467   119.4801   179.0014   170.7150     0.0645   103.1264    88.5759     0.1878   269.5745     0.4356     0.5250     0.0756     0.0000  3241.0000
   6276.0000    12.1757    12.3394  1516.1285   126.0235    -0.0001     0.4395     0.5247    63.9651   102.0124   -57.8812    68.2586   119.4842   179.0477   170.0496     0.0645   103.1223    87.6937     0.1760   268.6461     0.4395     0.5247     0.0778     0.0000  3360.3335
   6276.5000    12.0433    12.2196  1536.7080   126.0235     0.1587     0.4430     0.5243    64.3366   103.0788   -57.8806    72.4717   119.4883   179.0417   169.5444     0.0645   103.1181    85.9755     0.1809   266.9337     0.4430     0.5243     0.0810     0.0000  3310.6667
   6277.0000    12.2419    12.2356  1505.8046   126.0235     0.1017     0.4469     0.5220    64.8452   103.4681   -57.8799    74.4705   119.4924   179.0722   169.0698     0.0644   103.1140    85.6726     0.1766   266.6003     0.4469     0.5220     0.0853     0.0000  3259.3335
   6277.5000    12.2915    12.2755  1478.3782   126.0235     0.1472     0.4520     0.5187    65.0477   103.8895   -57.8793    70.1104   119.4965   178.9206   168.6482     0.0644   103.1100    85.4063     0.1776   266.4856     0.4520     0.5187     0.0869     0.0000  3241.3333
   6278.0000    12.2915    12.2755  1471.8491   126.0235     0.1925     0.4606     0.5133    65.4071   104.1337   -57.8786    70.8650   119.5006   178.6843   168.1044     0.0644   103.1059    85.0078     0.1742   266.3234     0.4606     0.5133     0.0899     0.0000  3270.6667
   6278.5000    12.3411    12.3234  1502.5801   126.0235     0.1810     0.4649     0.5102    65.1718   105.0577   -57.8778    73.4964   119.5048   178.4354   167.7276     0.0643   103.1018    84.3326     0.1872   265.8971     0.4649     0.5102     0.0880     0.0000  3351.6667
   6279.0000    12.3328    12.3394  1517.4320   126.0235     0.2152     0.4746     0.5045    64.7532   104.6564   -57.8770    76.6151   119.5089   178.0774   167.2667     0.0643   103.0978    83.3895     0.1899   265.3119     0.4746     0.5045     0.0845     0.0000  3266.0000
   6279.5000    12.3246    12.3394  1498.3141   126.0235     0.2264     0.4806     0.5014    64.9106   103.7076   -57.8762    68.7262   119.5130   177.8603   166.9382     0.0643   103.0940    83.1006     0.1780   265.2402     0.4806     0.5014     0.0858     0.0000  3249.6665
   6280.0000    12.2253    12.3035  1496.3983   126.0235     0.1458     0.4888     0.4970    64.9636   104.0881   -57.8754    63.8313   119.5171   177.4091   166.5325     0.0642   103.0901    82.6046     0.1810   265.1954     0.4888     0.4970     0.0862     0.0000  3334.6667
   6280.5000    12.2336    12.2196  1540.6581   126.0235     0.0902     0.4948     0.4924    65.4151   103.9112   -57.8745    59.9373   119.5212   177.0488   166.3251     0.0642   103.0862    81.7021     0.1718   264.6532     0.4948     0.4924     0.0900     0.0000  3400.0002
   6281.0000    12.2377    12.2356  1588.1370   126.0235     0.0348     0.5005     0.4892    65.0445   102.7492   -57.8736    62.3725   119.5253   176.6315   165.9424     0.0642   103.0824    80.6497     0.1656   264.0180     0.5005     0.4892     0.0869     0.0000  3442.6667
   6281.5000    12.2005    12.2196  1566.4828   126.0235    -0.0123     0.5046     0.4830    64.9000   104.6829   -57.8727    65.4663   119.5294   176.2255   165.6126     0.0641   103.0786    80.5050     0.1878   264.2793     0.5046     0.4830     0.0857     0.0000  3344.6665
   6282.0000    12.1840    12.2117  1545.2401   126.0235     0.0220     0.5101     0.4784    64.7817   103.5111   -57.8717    70.1372   119.5335   175.6172   165.2116     0.0641   103.0749    80.3957     0.1781   264.7783     0.5101     0.4784     0.0847     0.0000  3381.6667
   6282.5000    12.2088    12.3394  1568.4463   126.0235     0.0335     0.5118     0.4725    64.8898   103.3294   -57.8707    73.9088   119.5376   175.0872   164.6179     0.0641   103.0712    79.3636     0.1744   264.2762     0.5118     0.4725     0.0856     0.0000  3410.0000
   6283.0000    12.2419    12.4352  1540.6248   126.0235     0.0563     0.5157     0.4684    64.9386   103.3946   -57.8697    72.9338   119.5417   174.2952   164.1678     0.0640   103.0676    79.0359     0.1743   264.7405     0.5157     0.4684     0.0860     0.0000  3358.0000
   6283.5000    12.2584    12.4033  1493.3962   126.0235     0.0335     0.5171     0.4615    64.4087   102.5994   -57.8687    67.7790   119.5458   173.3637   163.2283     0.0640   103.0641    78.8273     0.1748   265.4633     0.5171     0.4615     0.0816     0.0000  3256.0002
   6284.0000    12.2419    12.3394  1480.7168   126.0235     0.0108     0.5199     0.4574    64.2997   103.7164   -57.8675    62.8634   119.5499   172.7175   162.3352     0.0640   103.0604    78.5908     0.1879   265.8730     0.5199     0.4574     0.0807     0.0000  3288.6667
   6284.5000    12.1840    12.2915  1468.9052   126.0235     0.0451     0.5219     0.4515    64.1012   103.7918   -57.8664    63.0812   119.5540   171.8120   161.7610     0.0639   103.0568    78.1756     0.1917   266.3635     0.5219     0.4515     0.0790     0.0000  3250.0000
   6285.0000    12.2336    12.3793  1476.9446   126.0235     0.0902     0.5235     0.4452    64.2831   103.7609   -57.8653    64.0267   119.5581   171.2668   160.6949     0.0639   103.0534    77.4636     0.1886   266.1965     0.5235     0.4452     0.0805     0.0000  3260.0002
   6285.5000    12.2336    12.3953  1502.5303   126.0235     0.0335     0.5252     0.4414    64.2449   102.7348   -57.8641    65.1464   119.5622   170.5664   160.1096     0.0639   103.0499    76.6705     0.1789   266.1038     0.5252     0.4414     0.0802     0.0000  3349.0000
   6286.0000    12.2419    12.4592  1519.0121   126.0235     0.0227     0.5257     0.4372    63.7504   102.8617   -57.8629    70.1819   119.5664   169.9670   159.6704     0.0638   103.0465    75.6014     0.1882   265.6342     0.5257     0.4372     0.0760     0.0000  3271.0000
   6286.5000    12.2336    12.5230  1525.0358   126.0235     0.0451     0.5243     0.4330    63.5423   103.2553   -57.8616    75.8806   119.5704   169.5444   159.1944     0.0638   103.0431    75.0093     0.1952   265.4648     0.5243     0.4330     0.0742     0.0000  3418.0000
   6287.0000    12.1757    12.3873  1517.7085   126.0235     0.0563     0.5213     0.4296    63.4197   102.4915   -57.8603    79.6415   119.5745   168.9950   158.0755     0.0638   103.0398    74.4381     0.1898   265.4431     0.5213     0.4296     0.0731     0.0000  3333.3333
   6287.5000    12.1757    12.3474  1502.8763   126.0235     0.0451     0.5182     0.4251    63.1940   102.2544   -57.8590    76.5573   119.5787   168.5037   157.4500     0.0637   103.0365    74.1728     0.1910   265.6691     0.5182     0.4251     0.0712     0.0000  3282.0000
