~VERSION INFORMATION
VERS.           1.2   :CWLS Log ASCII Standard - VERSION 1.2
WRAP.           NO    :One Line per depth step
PROD.  Schlumberger   :LAS Producer
PROG.  DLIS to ASCII 2.3                               :LAS Program name and version
CREA.        2015/05/30 23:46                          :LAS Creation date {YYYY/MM/DD hh:mm}
DLIS_CREA.  2015-May-30 15:01                          :DLIS Creation date and time {YYYY-MMM-DD hh:mm}
SOURCE.     b43ac578-4029-44ab-a201-dacd5736d378       :DLIS File Name
#--------------------------------------------------
~WELL INFORMATION
#MNEM.UNIT      DATA             DESCRIPTION
#---- ------ --------------   -----------------------------
STRT .F      5200.5000       :START DEPTH     
STOP .F      7212.5000       :STOP DEPTH     
STEP .F       0.5000         :STEP       
NULL .          -999.25      :NULL VALUE
COMP .                 COMPANY:  ADM COMPANY                        
WELL .                    WELL:  CCS#2                              
FLD  .                   FIELD:  WILDCAT                            
LOC  .                LOCATION:  LAT 39.885961                      
CNTY .                  COUNTY:  MACON                              
STAT .                   STATE:  ILLINOIS                           
CTRY .                 COUNTRY:  USA                                
SRVC .         SERVICE COMPANY:  Schlumberger                       
LATI .DEG             LATITUDE:  39.885961 degrees                  
LONG .DEG            LONGITUDE:  -88.888044 degrees                 
API  .              API NUMBER:  12-115-23713-00                    
DATE .                LOG DATE:  29-May-2015
UWI  .          UNIQUE WELL ID:  12-115-23713-00                    
#-----------------------------------------------------------------------------
~PARAMETER INFORMATION
#MNEM.UNIT    VALUE                      DESCRIPTION
#---- -----   --------------------       ------------------------
CN   .        ADM COMPANY                :Company Name
WN   .        CCS#2                      :Well Name
FN   .        WILDCAT                    :Field Name
FL   .        LAT 39.885961              :Field Location
FL1  .        LONG 39.885961             :Field Location, Line 1
COUN .        MACON                      :County or Parish
STAT .        ILLINOIS                   :State or Province
NATI .        USA                        :Nation
DATE .        29-May-2015                :Tools Above Rotary Table Date
APIN .        12-115-23713-00            :API Well Number
SECT .        32                         :Section
TOWN .        17N                        :Township
RANG .        3E                         :Range
DMF  .        KB                         :Drilling Measured From (Name of Drilling Elevation Reference)
LMF  .        KB                         :Logging Measured From (Name of Logging Elevation Reference)
PDAT .        GL                         :Permanent Datum
ENGI .        H. DIMITROV / M. MOHAMMED  :Engineer s Name
WITN .        NICK MALKEWICZ             :Witness s Name
LATI .        39.885961 degrees          :Latitude
LONG .        -88.888044 degrees         :Longitude
LUL  .        BRADFORD                   :Logging Unit Location
LUN  .        3003                       :Logging Unit Number
RUN  .        RUN 3B                     :Run Number
SON  .                                   :Service Order Number
BHT  .DEGF     127.00000                 :Bottom Hole Temperature
BS   .IN        12.25000                 :Bit Size
MDEN .LB/G      22.11532                 :Matrix Density for Density Porosity
DFD  .LB/G       9.20000                 :Drilling Fluid Density
DFV  .S         66.00000                 :Drilling Fluid Viscosity
DFL  .C3         7.60000                 :Drilling Fluid Loss
RMFS .OHMM       0.17000                 :Resistivity of Mud Filtrate Sample
EKB  .F        691.19995                 :Elevation of Kelly Bushing
EGL  .F        675.69995                 :Elevation of Ground Level
BLI  .F       7192.00000                 :Bottom Log Interval
BSAL .PPM     15100.00000                :Borehole Salinity
FLEV .F          8.00000                 :Depth of Drilling Fluid Level to LMF (Log Measured From)
MCST .DEGF      72.50000                 :Mudcake Sample Temperature
MFST .DEGF      72.50000                 :Mud Filtrate Sample Temperature
MRT  .DEGF     127.00000                 :Maximum Recorded Temperature
MST  .DEGF      72.50000                 :Mud Sample Temperature
RMCS .OHMM       0.14000                 :Resistivity of Mud Cake Sample
RMS  .OHMM       0.20000                 :Resistivity of Mud Sample
RW   .OHMM       1.00000                 :Connate Water Resistivity
TDD  .F       7193.00049                 :Driller Total Depth
TDL  .F       7192.00000                 :Logger Total Depth
TLI  .F       5231.00000                 :Top Log Interval
HIDE .        WILDCAT                    :Header Identifier
MATR .        SAND                       :Rock Matrix for Neutron Porosity Corrections
FNUM .           1.00000                 :F-Numerator for Formation Factor Formula
FEXP .           2.00000                 :Exponent "m" for Formation Factor Formula
DFT  .        Fresh Water                :Drilling Fluid Type
DFPH .          11.50000                 :Drilling Fluid pH
MCSS .        Calculated                 :Mudcake Sample Source
MFSS .        Calculated                 :Mud Filtrate Sample Source
FD   .LB/G       8.34540                 :Fluid Density
MSS  .        Active Tank                :Mud Sample Source
OS1  .                                   :Other Services Line 1
OS2  .                                   :Other Services Line 2
OS3  .                                   :Other Services Line 3
OS4  .                                   :Other Services Line 4
OS5  .                                   :Other Services Line 5
R1   .        THANKS FOR CHOOSING SCHLUMBERGER!!! :Remarks Line 1
R2   .        All WELL PROPERTIES PROVIDED BY CLIENT :Remarks Line 2
R3   .        ALL SCALES ON PRESENTATIONS AS PER

CLIENT REQUEST :Remarks Line 3
R4   .        MATRIX  SANDSTONE          :Remarks Line 4
R5   .        MATRIX DENSITY  2.65 G/CC  :Remarks Line 5
R6   .        ALL LOGGING INTERVALS AS PER CLIENT REQUEST :Remarks Line 6
R7   .        MRT = 127 DEGF FROM THE THERMOMETER :Remarks Line 7
R8   .                                   :Remarks Line 8
TCS  .        20 00 00                   :Time Circulation Stopped
TLAB .        11 17 00                   :Time Logger At Bottom
EPD  .C3         675.699951              :Elevation of Permanent Datum above Mean Sea Level
APD  .F          15.500000               :Elevation of Depth Reference (LMF) above Permanent Datum
#-----------------------------------------------------------------------------
~CURVE INFORMATION
#MNEM.UNIT   API CODE                                  DESCRIPTION
#---- -----  --------                                  -----------------------
DEPT .F                                                :DEPTH (BOREHOLE) {F12.4}
C1   .IN                                               :Caliper 1 {F11.4}
C2   .IN                                               :Caliper 2 {F11.4}
CDF  .LBF                                              :Calibrated Downhole Force {F11.4}
CTEM .DEGF                                             :Cartridge Temperature {F11.4}
DCAL .IN                                               :Differential Caliper {F11.4}
DEVI .DEG                                              :Hole Deviation {F11.4}
DEVIM.DEG                                              :Memorized Deviation {F11.4}
DTCO .US/F                                             :Delta-T Compressional {F11.4}
DTSM .US/F                                             :Delta-T Shear {F11.4}
ED   .F                                                :East Departure {F11.4}
GR_EDTC.GAPI                                           :Gamma Ray {F11.4}
GTEM .DEGF                                             :Generalized Borehole Temperature {F11.4}
HAZI .DEG                                              :Hole Azimuth Relative to True North {F11.4}
HAZIM.DEG                                              :Hole Azimuth Relative to True North {F11.4}
ITT  .S                                                :Integrated Transit Time {F11.4}
ND   .F                                                :North Departure {F11.4}
P1AZ .DEG                                              :Pad 1 Azimuth in Horizontal Plane (0 = True North) {F11.4}
PR   .                                                 :Poisson s Ratio {F11.4}
RB   .DEG                                              :Relative Bearing {F11.4}
SDEV .DEG                                              :Sonde Deviation {F11.4}
SDEVM.DEG                                              :Sonde Deviation {F11.4}
SPHI .CFCF                                             :Sonic Porosity {F11.4}
STIT .F                                                :Stuck Tool Indicator, Total {F11.4}
TENS .LBF                                              :Cable Tension {F11.4}
#-----------------------------------------------------------------------------
# 
#      DEPT         C1         C2        CDF        CTEM       DCAL       DEVI      DEVIM       DTCO       DTSM        ED      GR_EDTC      GTEM       HAZI      HAZIM       ITT         ND        P1AZ        PR         RB        SDEV      SDEVM       SPHI       STIT       TENS
#
~A  
# ...
   6795.5000    12.6306    12.3753  1471.6813   126.0235    -0.0001     2.6736     2.4799    83.3401   161.2292   -49.3126    80.9507   123.7488    88.9268    91.3276     0.0268   100.7833   110.6150     0.3177    21.6670     2.6736     2.4799     0.2050     0.0000  3311.0002
   6796.0000    12.5148    12.2835  1453.4899   126.0235     0.0114     2.6677     2.4632    80.9578   159.2388   -49.2909    81.5618   123.7529    89.1217    91.4094     0.0268   100.7838   109.9855     0.3257    20.8432     2.6677     2.4632     0.1927     0.0000  3371.6667
   6796.5000    12.6224    12.2755  1456.2777   126.0235     0.1360     2.6633     2.4454    78.2722   156.1217   -49.2698    93.4418   123.7570    89.2729    91.5044     0.0267   100.7843   109.0130     0.3321    19.7208     2.6633     2.4454     0.1778     0.0000  3356.0002
   6797.0000    12.7547    12.4592  1453.1718   126.0235     0.2720     2.6574     2.4256    78.4585   153.4379   -49.2486    97.4129   123.7611    89.4936    91.5668     0.0267   100.7848   108.1514     0.3230    18.6394     2.6574     2.4256     0.1789     0.0000  3297.0000
   6797.5000    12.7133    12.6068  1462.6061   126.0235     0.2720     2.6510     2.4048    78.7716   152.9660   -49.2272   100.8466   123.7652    89.6532    91.7225     0.0266   100.7853   107.3155     0.3196    17.6443     2.6510     2.4048     0.1807     0.0000  3393.0000
   6798.0000    12.7382    12.5869  1478.6846   126.0235     0.2835     2.6436     2.3872    81.8821   152.4189   -49.2055    92.4269   123.7693    89.8975    91.8147     0.0266   100.7858   105.8595     0.2972    15.9462     2.6436     2.3872     0.1976     0.0000  3348.6667
   6798.5000    12.7382    12.5789  1503.8212   126.0235     0.4176     2.6333     2.3642    85.9255   152.1014   -49.1841    85.2428   123.7734    90.1259    92.0153     0.0266   100.7862   104.3938     0.2656    14.2535     2.6333     2.3642     0.2177     0.0000  3454.6667
   6799.0000    12.8953    12.9102  1539.3899   126.0235     0.6093     2.6216     2.3422    83.9641   152.4817   -49.1633    84.9990   123.7775    90.3315    92.1514     0.0265   100.7867   102.7547     0.2824    12.4102     2.6216     2.3422     0.2082     0.0000  3474.3333
   6799.5000    12.7795    13.0579  1522.9995   126.0235     0.6222     2.6124     2.3163    84.5436   153.5517   -49.1423    86.2877   123.7816    90.5369    92.4119     0.0265   100.7871   101.9244     0.2825    11.3762     2.6124     2.3163     0.2110     0.0000  3356.3335
   6800.0000    12.8871    12.9781  1494.0918   126.0235     0.6447     2.6011     2.2951    84.1970   154.1194   -49.1209    86.3815   123.7857    90.7100    92.6268     0.0264   100.7876   101.7871     0.2873    11.0664     2.6011     2.2951     0.2093     0.0000  3435.0000
   6800.5000    13.0277    12.9940  1541.6351   126.0235     0.5546     2.5902     2.2759    83.7437   153.1219   -49.0996    83.6534   123.7898    90.8441    92.8599     0.0264   100.7880   101.2945     0.2866    10.4399     2.5902     2.2759     0.2071     0.0000  3527.0000
   6801.0000    13.1848    13.0020  1554.0150   126.0235     0.6107     2.5797     2.2601    82.6243   152.2341   -49.0792    81.5122   123.7939    90.9128    93.0115     0.0264   100.7884   100.6235     0.2912     9.7009     2.5797     2.2601     0.2014     0.0000  3429.0000
   6801.5000    13.1104    12.9461  1518.4154   126.0235     0.5882     2.5708     2.2459    82.2692   150.6137   -49.0585    83.8281   123.7980    90.9616    93.0924     0.0263   100.7888   100.6536     0.2874     9.6825     2.5708     2.2459     0.1996     0.0000  3427.6667
   6802.0000    13.1187    12.8184  1498.9939   126.0235     0.4546     2.5604     2.2382    80.4629   148.5268   -49.0374    82.9980   123.8021    91.0210    93.1631     0.0263   100.7891   100.3302     0.2923     9.3002     2.5604     2.2382     0.1900     0.0000  3421.3333
   6802.5000    13.1021    12.7466  1520.3987   126.0235     0.2606     2.5521     2.2296    76.9275   141.2900   -49.0169    82.1921   123.8063    91.0124    93.1038     0.0262   100.7895    99.9024     0.2893     8.8814     2.5521     2.2296     0.1700     0.0000  3461.0000
   6803.0000    13.0814    12.5310  1525.0763   126.0235     0.1245     2.5424     2.2233    74.2582   134.6243   -48.9966    78.6094   123.8103    91.0670    93.0439     0.0262   100.7899    99.2599     0.2813     8.1846     2.5424     2.2233     0.1537     0.0000  3507.3335
   6803.5000    12.6720    12.4033  1529.9121   126.0235     0.0905     2.5313     2.2207    72.2433   126.1000   -48.9761    75.9571   123.8144    91.0813    92.9670     0.0262   100.7902    98.5797     0.2557     7.4915     2.5313     2.2207     0.1405     0.0000  3458.0000
   6804.0000    12.5975    12.3953  1505.8232   126.0235     0.0339     2.5191     2.2169    71.3508   123.8095   -48.9557    76.0758   123.8186    91.1532    92.8605     0.0261   100.7905    98.3562     0.2514     7.1959     2.5191     2.2169     0.1345     0.0000  3399.0002
   6804.5000    12.5396    12.3833  1467.2047   126.0235     0.0214     2.5061     2.2172    67.7602   118.2854   -48.9351    68.5001   123.8227    91.2092    92.6884     0.0261   100.7908    98.1659     0.2558     6.9497     2.5061     2.2172     0.1085     0.0000  3350.0002
   6805.0000    12.4197    12.3314  1478.7117   126.0235    -0.0472     2.4912     2.2167    67.1640   114.0448   -48.9143    63.9230   123.8268    91.2751    92.5876     0.0261   100.7912    97.1147     0.2345     5.8342     2.4912     2.2167     0.1039     0.0000  3397.6667
   6805.5000    12.3246    12.2835  1506.3845   126.0235    -0.0460     2.4762     2.2192    66.5675   110.0384   -48.8943    56.0571   123.8309    91.3501    92.4041     0.0260   100.7914    95.7427     0.2114     4.3888     2.4762     2.2192     0.0992     0.0000  3444.3335
   6806.0000    12.2419    12.2516  1485.3727   126.0235    -0.0460     2.4597     2.2196    66.8620   109.3876   -48.8744    51.7495   123.8350    91.3912    92.2419     0.0260   100.7917    95.2766     0.2018     3.8817     2.4597     2.2196     0.1015     0.0000  3416.3333
   6806.5000    12.2998    12.2316  1470.8533   126.0235    -0.0572     2.4414     2.2212    66.7270   109.5010   -48.8543    52.8703   123.8391    91.5076    92.0423     0.0260   100.7920    94.4337     0.2047     2.9234     2.4414     2.2212     0.1005     0.0000  3336.3333
   6807.0000    12.2501    12.2117  1466.7181   126.0235    -0.0460     2.4256     2.2231    67.1649   109.6444   -48.8343    61.3234   123.8432    91.5668    91.8916     0.0259   100.7922    93.7509     0.1997     2.1818     2.4256     2.2231     0.1039     0.0000  3406.0002
   6807.5000    12.2915    12.2196  1499.4990   126.0235    -0.0116     2.4048     2.2230    67.6020   111.5279   -48.8140    71.8195   123.8473    91.7225    91.6951     0.0259   100.7925    92.1068     0.2096     0.3835     2.4048     2.2230     0.1073     0.0000  3439.0000
   6808.0000    12.3080    12.2436  1539.6144   126.0235    -0.0116     2.3856     2.2224    69.2359   115.6594   -48.7940    73.3531   123.8514    91.7831    91.4395     0.0259   100.7927    90.1422     0.2208   358.3604     2.3856     2.2224     0.1195     0.0000  3530.0000
   6808.5000    12.3039    12.2835  1552.3937   126.0235    -0.0460     2.3584     2.2225    69.5351   117.9251   -48.7747    66.6405   123.8555    92.0144    91.2306     0.0258   100.7929    88.8042     0.2335   356.7924     2.3584     2.2225     0.1217     0.0000  3492.3335
   6809.0000    12.2584    12.2436  1503.2972   126.0235    -0.0916     2.3357     2.2189    69.5344   118.1003   -48.7544    62.0777   123.8596    92.2254    91.0328     0.0258   100.7931    88.5929     0.2347   356.3708     2.3357     2.2189     0.1217     0.0000  3371.6667
   6809.5000    12.2419    12.2196  1477.7761   126.0235    -0.0575     2.3132     2.2162    69.7674   118.4222   -48.7347    57.7120   123.8637    92.4671    90.8076     0.0257   100.7933    88.3400     0.2342   355.8767     2.3132     2.2162     0.1233     0.0000  3403.0000
