~VERSION INFORMATION
VERS.           1.2   :CWLS Log ASCII Standard - VERSION 1.2
WRAP.           NO    :One Line per depth step
PROD.  Schlumberger   :LAS Producer
PROG.  DLIS to ASCII 2.3                               :LAS Program name and version
CREA.        2015/05/06 16:26                          :LAS Creation date {YYYY/MM/DD hh:mm}
DLIS_CREA.  2015-May-04 11:59                          :DLIS Creation date and time {YYYY-MMM-DD hh:mm}
SOURCE.     301ad50a-0e97-4ef4-9f57-5a70afd84532       :DLIS File Name
#--------------------------------------------------
~WELL INFORMATION
#MNEM.UNIT      DATA             DESCRIPTION
#---- ------ --------------   -----------------------------
STRT .F      23.5000         :START DEPTH     
STOP .F      5264.5000       :STOP DEPTH     
STEP .F       0.5000         :STEP       
NULL .          -999.25      :NULL VALUE
COMP .                 COMPANY:  ADM COMPANY                        
WELL .                    WELL:  CCS#2                              
FLD  .                   FIELD:  WILDCAT                            
LOC  .                LOCATION:  Latitude: 39.885961                
CNTY .                  COUNTY:  MACON                              
STAT .                   STATE:  ILLINOIS                           
CTRY .                 COUNTRY:  USA                                
SRVC .         SERVICE COMPANY:  Schlumberger                       
LATI .DEG             LATITUDE:  39° 53' 9.46" N                    
LONG .DEG            LONGITUDE:  88° 53' 16.958" W                  
API  .              API NUMBER:  12-115-23713-00                    
DATE .                LOG DATE:  03-May-2015
UWI  .          UNIQUE WELL ID:                                     
#-----------------------------------------------------------------------------
~PARAMETER INFORMATION
#MNEM.UNIT    VALUE                      DESCRIPTION
#---- -----   --------------------       ------------------------
CN   .        ADM COMPANY                :Company Name
WN   .        CCS#2                      :Well Name
FN   .        WILDCAT                    :Field Name
FL   .        Latitude  39.885961        :Field Location
FL1  .        Longitude  -88.888044      :Field Location, Line 1
COUN .        MACON                      :County or Parish
STAT .        ILLINOIS                   :State or Province
NATI .        USA                        :Nation
DATE .        03-May-2015                :Tools Above Rotary Table Date
APIN .        12-115-23713-00            :API Well Number
SECT .        32                         :Section
TOWN .        17N                        :Township
RANG .        3E                         :Range
DMF  .        KB                         :Drilling Measured From (Name of Drilling Elevation Reference)
LMF  .        KB                         :Logging Measured From (Name of Logging Elevation Reference)
PDAT .        GL                         :Permanent Datum
ENGI .        Yazan Alhabahbeh           :Engineer s Name
WITN .        Nick Malkewicz             :Witness s Name
LATI .        39° 53' 9.46  N            :Latitude
LONG .        88° 53' 16.958  W          :Longitude
LUL  .        BRADFORD                   :Logging Unit Location
LUN  .        3019                       :Logging Unit Number
RUN  .        2B                         :Run Number
SON  .        D9QJ-00005                 :Service Order Number
BHT  .DEGF     132.00000                 :Bottom Hole Temperature
BS   .IN        17.50000                 :Bit Size
MDEN .G/C3       2.71000                 :Matrix Density for Density Porosity
DFD  .LB/G       9.15000                 :Drilling Fluid Density
DFV  .S         61.00000                 :Drilling Fluid Viscosity
DFL  .C3      -999.25000                 :Drilling Fluid Loss
RMFS .OHMM       0.16000                 :Resistivity of Mud Filtrate Sample
EKB  .F        691.19995                 :Elevation of Kelly Bushing
EGL  .F        675.69995                 :Elevation of Ground Level
BLI  .F       5252.00000                 :Bottom Log Interval
BSAL .PPM     14700.00000                :Borehole Salinity
FLEV .F          8.00000                 :Depth of Drilling Fluid Level to LMF (Log Measured From)
MCST .DEGF      74.30000                 :Mudcake Sample Temperature
MFST .DEGF      72.50000                 :Mud Filtrate Sample Temperature
MRT  .DEGF     135.00000                 :Maximum Recorded Temperature
MST  .DEGF      73.50000                 :Mud Sample Temperature
RMCS .OHMM       0.26600                 :Resistivity of Mud Cake Sample
RMS  .OHMM       0.19000                 :Resistivity of Mud Sample
RW   .OHMM       1.00000                 :Connate Water Resistivity
TDD  .F       5252.00000                 :Driller Total Depth
TDL  .F       5252.00000                 :Logger Total Depth
TLI  .F        200.00000                 :Top Log Interval
HIDE .        WILDCAT                    :Header Identifier
MATR .        LIME                       :Rock Matrix for Neutron Porosity Corrections
FNUM .           1.00000                 :F-Numerator for Formation Factor Formula
FEXP .           2.00000                 :Exponent "m" for Formation Factor Formula
DFT  .        SALT WATER                 :Drilling Fluid Type
DFPH .          11.00000                 :Drilling Fluid pH
MCSS .        Calculated                 :Mudcake Sample Source
MFSS .        Calculated                 :Mud Filtrate Sample Source
FD   .G/C3       1.00000                 :Fluid Density
MSS  .        Active Tank                :Mud Sample Source
OS1  .                                   :Other Services Line 1
OS2  .                                   :Other Services Line 2
OS3  .                                   :Other Services Line 3
OS4  .                                   :Other Services Line 4
OS5  .                                   :Other Services Line 5
R1   .        THANKS FOR CHOOSING

SCHLUMBERGER!!! :Remarks Line 1
R2   .        MATRIX  LIMESTONE          :Remarks Line 2
R3   .        MATRIX DENSITY  2.71 G/CC  :Remarks Line 3
R4   .        All WELL PROPERTIES PROVIDED BY

CLIENT . :Remarks Line 4
R5   .        ALL SCALES ON PRESENTATIONS AS PER

CLIENT REQUEST :Remarks Line 5
R6   .        Temp recorded by sensors inside the tool . :Remarks Line 6
R7   .                                   :Remarks Line 7
R8   .                                   :Remarks Line 8
TCS  .        04 45 00                   :Time Circulation Stopped
TLAB .        22 39 00                   :Time Logger At Bottom
EPD  .C3         675.699951              :Elevation of Permanent Datum above Mean Sea Level
APD  .F          15.500000               :Elevation of Depth Reference (LMF) above Permanent Datum
#-----------------------------------------------------------------------------
~CURVE INFORMATION
#MNEM.UNIT   API CODE                                  DESCRIPTION
#---- -----  --------                                  -----------------------
DEPT .F                                                :DEPTH (BOREHOLE) {F12.4}
C1   .IN                                               :Caliper 1 {F11.4}
C2   .IN                                               :Caliper 2 {F11.4}
CDF  .LBF                                              :Calibrated Downhole Force {F11.4}
CTEM .DEGF                                             :Cartridge Temperature {F11.4}
DCAL .IN                                               :Differential Caliper {F11.4}
DEVI .DEG                                              :Hole Deviation {F11.4}
DEVIM.DEG                                              :Memorized Deviation {F11.4}
DTCO .US/F                                             :Delta-T Compressional {F11.4}
DTSM .US/F                                             :Delta-T Shear {F11.4}
ED   .F                                                :East Departure {F11.4}
GR_EDTC.GAPI                                           :Gamma Ray {F11.4}
GTEM .DEGF                                             :Generalized Borehole Temperature {F11.4}
HAZI .DEG                                              :Hole Azimuth Relative to True North {F11.4}
HAZIM.DEG                                              :Hole Azimuth Relative to True North {F11.4}
ITT  .S                                                :Integrated Transit Time {F11.4}
ND   .F                                                :North Departure {F11.4}
P1AZ .DEG                                              :Pad 1 Azimuth in Horizontal Plane (0 = True North) {F11.4}
PR   .                                                 :Poisson s Ratio {F11.4}
RB   .DEG                                              :Relative Bearing {F11.4}
SDEV .DEG                                              :Sonde Deviation {F11.4}
SDEVM.DEG                                              :Sonde Deviation {F11.4}
SPHI .CFCF                                             :Sonic Porosity {F11.4}
STIT .F                                                :Stuck Tool Indicator, Total {F11.4}
TENS .LBF                                              :Cable Tension {F11.4}
#-----------------------------------------------------------------------------
# 
#      DEPT         C1         C2        CDF        CTEM       DCAL       DEVI      DEVIM       DTCO       DTSM        ED      GR_EDTC      GTEM       HAZI      HAZIM       ITT         ND        P1AZ        PR         RB        SDEV      SDEVM       SPHI       STIT       TENS
#
~A  
# ...
   1415.5000    19.6874    18.5850   238.5714   135.6364     1.5118     0.6552     0.6693    55.0288    93.9625     0.0000    32.2955    85.2490    11.3294     7.4559     0.2293     0.0000   108.4091     0.2390    97.0801     0.6651     0.6796    -0.0073     0.0000  1920.2501
   1416.0000    19.9709    18.8420   230.8488   135.7262     1.5416     0.6512     0.6723    54.4680    93.2404     0.0000    24.5399    85.2551    11.3540     7.2873     0.2293     0.0000   108.5717     0.2410    97.2181     0.6612     0.6829    -0.0115     0.0000  1893.6667
   1416.5000    19.7701    18.7861   231.6315   135.6481     1.5416     0.6491     0.6737    53.2217    92.6876     0.0000    18.9305    85.2612    11.4133     7.1986     0.2293     0.0000   108.6927     0.2541    97.2795     0.6590     0.6844    -0.0209     0.0000  1803.5000
   1417.0000    19.7426    18.7564   240.6889   135.5621     1.5272     0.6484     0.6753    52.5089    91.0825     0.0000    15.3237    85.2673    11.4601     6.8952     0.2292     0.0000   108.7748     0.2511    97.3152     0.6582     0.6860    -0.0262     0.0000  1989.7501
   1417.5000    19.7898    18.7787   230.9823   135.6481     1.5416     0.6485     0.6727    50.8771    89.4953     0.0000    16.1225    85.2734    11.4513     6.6261     0.2292     0.0000   108.9288     0.2613    97.4782     0.6584     0.6834    -0.0385     0.0000  1896.3333
   1418.0000    19.7977    18.7899   231.3841   135.5465     1.5105     0.6495     0.6715    50.8734    87.6786     0.0000    16.2532    85.2795    11.3741     6.2909     0.2292     0.0000   109.0448     0.2462    97.6715     0.6594     0.6821    -0.0385     0.0000  1879.0001
   1418.5000    19.9158    18.8383   235.7450   135.7412     1.5558     0.6504     0.6700    50.9477    84.2723     0.0000    17.1712    85.2856    11.4009     6.1317     0.2292     0.0000   109.2052     0.2120    97.8048     0.6603     0.6806    -0.0380     0.0000  1910.2501
   1419.0000    19.9237    18.7824   234.7691   135.5465     1.5566     0.6517     0.6678    51.0626    83.1836     0.0000    16.3146    85.2917    11.2749     5.6973     0.2291     0.0000   109.4385     0.1977    98.1641     0.6617     0.6782    -0.0371     0.0000  1932.4999
   1419.5000    19.9394    18.7526   235.3874   135.6481     1.5416     0.6523     0.6660    50.9417    75.4492     0.0000    18.2297    85.2978    11.2188     5.4202     0.2291     0.0000   109.6163     0.0811    98.3983     0.6623     0.6764    -0.0380     0.0000  1941.3333
   1420.0000    20.0576    18.9500   233.7181   135.8199     1.5558     0.6518     0.6640    50.9745    77.1029     0.0000    21.8026    85.3039    11.0928     5.1289     0.2291     0.0000   109.7550     0.1118    98.6630     0.6619     0.6745    -0.0378     0.0000  1913.0001
   1420.5000    20.0654    18.9240   236.4848   135.7262     1.5122     0.6499     0.6611    51.1613    80.9060     0.0000    24.4816    85.3100    10.8980     4.7135     0.2291     0.0000   109.8409     0.1668    98.9438     0.6600     0.6715    -0.0364     0.0000  1914.2499
   1421.0000    20.0103    18.7861   238.8637   135.8199     1.4054     0.6518     0.6578    51.3517    84.4580     0.0000    27.2712    85.3161    10.6909     4.4583     0.2290     0.0000   109.9158     0.2067    99.2257     0.6618     0.6680    -0.0349     0.0000  1967.3334
   1421.5000    19.5929    18.5105   235.2328   135.8160     1.3333     0.6506     0.6544    51.1780    85.6569     0.0000    28.2229    85.3222    10.2820     4.0774     0.2290     0.0000   109.8969     0.2224    99.6157     0.6604     0.6643    -0.0363     0.0000  1901.2501
   1422.0000    19.4630    18.4174   237.1340   135.9059     1.3185     0.6509     0.6501    51.4660    87.7342     0.0000    30.3995    85.3283     9.7716     3.8176     0.2290     0.0000   109.5565     0.2377    99.7853     0.6606     0.6598    -0.0341     0.0000  1881.5000
   1422.5000    19.4433    18.3988   235.4183   135.7340     1.3335     0.6537     0.6425    52.0116    85.9439     0.0000    31.7196    85.3344     9.4636     3.5112     0.2290     0.0000   109.4939     0.2111   100.0307     0.6634     0.6519    -0.0300     0.0000  1885.2500
   1423.0000    19.4355    18.4062   232.2385   135.8199     1.3331     0.6552     0.6362    53.0724    86.0764     0.0000    33.8739    85.3404     8.9693     3.1617     0.2289     0.0000   109.7072     0.1933   100.7385     0.6650     0.6454    -0.0220     0.0000  1883.5000
   1423.5000    19.4433    18.4509   233.5326   135.9059     1.3185     0.6578     0.6287    53.1209    85.8193     0.0000    32.8354    85.3465     8.5597     3.0333     0.2289     0.0000   109.6919     0.1894   101.1329     0.6678     0.6378    -0.0216     0.0000  1850.3333
   1424.0000    19.5063    18.4658   234.7846   135.9059     1.3185     0.6608     0.6197    53.2589    85.6151     0.0000    32.8954    85.3526     8.2736     2.8963     0.2289     0.0000   109.7505     0.1844   101.4779     0.6708     0.6285    -0.0206     0.0000  1917.0001
   1424.5000    19.4788    18.4584   237.1185   135.8199     1.3632     0.6637     0.6114    53.4160    85.0854     0.0000    31.2376    85.3587     7.8732     2.7908     0.2289     0.0000   109.9437     0.1747   102.0712     0.6738     0.6199    -0.0194     0.0000  1926.3334
   1425.0000    19.5221    18.4658   234.7537   135.8160     1.3928     0.6672     0.6044    53.5804    85.4500     0.0000    30.7532    85.3648     7.7302     2.6680     0.2288     0.0000   109.9533     0.1760   102.2239     0.6774     0.6128    -0.0182     0.0000  1897.0002
   1425.5000    19.6244    18.5329   235.2328   135.8199     1.4079     0.6710     0.5967    53.6102    88.3443     0.0000    27.1062    85.3709     7.6472     2.5911     0.2288     0.0000   110.0500     0.2086   102.4036     0.6814     0.6049    -0.0180     0.0000  1901.4999
   1426.0000    19.7268    18.6074   238.1541   135.9059     1.4376     0.6740     0.5883    53.1066    88.1922     0.0000    22.5327    85.3770     7.2884     2.4412     0.2288     0.0000   110.3495     0.2156   103.0620     0.6846     0.5964    -0.0218     0.0000  1950.3333
   1426.5000    19.8922    18.8383   235.8047   135.9059     1.4208     0.6732     0.5821    52.5977    88.4661     0.0000    19.1072    85.3831     7.0376     2.2271     0.2287     0.0000   110.4686     0.2266   103.4319     0.6839     0.5901    -0.0256     0.0000  1952.7500
   1427.0000    19.8528    18.8346   236.9330   135.7340     1.4368     0.6733     0.5746    52.4931    86.9130     0.0000    17.2275    85.3892     6.8319     1.8060     0.2287     0.0000   110.5303     0.2129   103.6993     0.6840     0.5823    -0.0264     0.0000  1905.0000
   1427.5000    20.0182    18.7899   238.9733   135.9059     1.4376     0.6723     0.5696    52.3024    85.2868     0.0000    17.5615    85.3953     6.5513     1.3659     0.2287     0.0000   110.7670     0.1986   104.2166     0.6830     0.5773    -0.0278     0.0000  1973.5000
   1428.0000    20.0654    18.9053   235.2925   135.9059     1.4368     0.6714     0.5611    52.3923    86.3080     0.0000    17.6920    85.4014     6.2909     0.6499     0.2287     0.0000   110.9639     0.2082   104.6739     0.6821     0.5685    -0.0271     0.0000  1948.3333
   1428.5000    19.9906    18.8346   236.8867   135.8199     1.3781     0.6691     0.5530    51.8124    86.7038     0.0000    19.8660    85.4075     6.0082   359.8577     0.2286     0.0000   111.1048     0.2223   105.0975     0.6797     0.5602    -0.0315     0.0000  1949.2501
   1429.0000    19.9394    18.7787   238.1386   135.9059     1.3616     0.6676     0.5462    51.5973    87.5423     0.0000    19.3364    85.4136     5.7686   358.8625     0.2286     0.0000   111.1608     0.2338   105.3934     0.6781     0.5532    -0.0331     0.0000  1955.2501
   1429.5000    19.9237    18.7861   235.4337   135.9059     1.3483     0.6659     0.5372    51.6516    87.2068     0.0000    20.2079    85.4196     5.3584   357.6749     0.2286     0.0000   111.3920     0.2298   106.0346     0.6764     0.5440    -0.0327     0.0000  1945.5001
