~VERSION INFORMATION
VERS.           1.2   :CWLS Log ASCII Standard - VERSION 1.2
WRAP.           NO    :One Line per depth step
PROD.  Schlumberger   :LAS Producer
PROG.  DLIS to ASCII 2.3                               :LAS Program name and version
CREA.        2015/05/06 16:26                          :LAS Creation date {YYYY/MM/DD hh:mm}
DLIS_CREA.  2015-May-04 11:59                          :DLIS Creation date and time {YYYY-MMM-DD hh:mm}
SOURCE.     301ad50a-0e97-4ef4-9f57-5a70afd84532       :DLIS File Name
#--------------------------------------------------
~WELL INFORMATION
#MNEM.UNIT      DATA             DESCRIPTION
#---- ------ --------------   -----------------------------
STRT .F      23.5000         :START DEPTH     
STOP .F      5264.5000       :STOP DEPTH     
STEP .F       0.5000         :STEP       
NULL .          -999.25      :NULL VALUE
COMP .                 COMPANY:  ADM COMPANY                        
WELL .                    WELL:  CCS#2                              
FLD  .                   FIELD:  WILDCAT                            
LOC  .                LOCATION:  Latitude: 39.885961                
CNTY .                  COUNTY:  MACON                              
STAT .                   STATE:  ILLINOIS                           
CTRY .                 COUNTRY:  USA                                
SRVC .         SERVICE COMPANY:  Schlumberger                       
LATI .DEG             LATITUDE:  39° 53' 9.46" N                    
LONG .DEG            LONGITUDE:  88° 53' 16.958" W                  
API  .              API NUMBER:  12-115-23713-00                    
DATE .                LOG DATE:  03-May-2015
UWI  .          UNIQUE WELL ID:                                     
#-----------------------------------------------------------------------------
~PARAMETER INFORMATION
#MNEM.UNIT    VALUE                      DESCRIPTION
#---- -----   --------------------       ------------------------
CN   .        ADM COMPANY                :Company Name
WN   .        CCS#2                      :Well Name
FN   .        WILDCAT                    :Field Name
FL   .        Latitude  39.885961        :Field Location
FL1  .        Longitude  -88.888044      :Field Location, Line 1
COUN .        MACON                      :County or Parish
STAT .        ILLINOIS                   :State or Province
NATI .        USA                        :Nation
DATE .        03-May-2015                :Tools Above Rotary Table Date
APIN .        12-115-23713-00            :API Well Number
SECT .        32                         :Section
TOWN .        17N                        :Township
RANG .        3E                         :Range
DMF  .        KB                         :Drilling Measured From (Name of Drilling Elevation Reference)
LMF  .        KB                         :Logging Measured From (Name of Logging Elevation Reference)
PDAT .        GL                         :Permanent Datum
ENGI .        Yazan Alhabahbeh           :Engineer s Name
WITN .        Nick Malkewicz             :Witness s Name
LATI .        39° 53' 9.46  N            :Latitude
LONG .        88° 53' 16.958  W          :Longitude
LUL  .        BRADFORD                   :Logging Unit Location
LUN  .        3019                       :Logging Unit Number
RUN  .        2B                         :Run Number
SON  .        D9QJ-00005                 :Service Order Number
BHT  .DEGF     132.00000                 :Bottom Hole Temperature
BS   .IN        17.50000                 :Bit Size
MDEN .G/C3       2.71000                 :Matrix Density for Density Porosity
DFD  .LB/G       9.15000                 :Drilling Fluid Density
DFV  .S         61.00000                 :Drilling Fluid Viscosity
DFL  .C3      -999.25000                 :Drilling Fluid Loss
RMFS .OHMM       0.16000                 :Resistivity of Mud Filtrate Sample
EKB  .F        691.19995                 :Elevation of Kelly Bushing
EGL  .F        675.69995                 :Elevation of Ground Level
BLI  .F       5252.00000                 :Bottom Log Interval
BSAL .PPM     14700.00000                :Borehole Salinity
FLEV .F          8.00000                 :Depth of Drilling Fluid Level to LMF (Log Measured From)
MCST .DEGF      74.30000                 :Mudcake Sample Temperature
MFST .DEGF      72.50000                 :Mud Filtrate Sample Temperature
MRT  .DEGF     135.00000                 :Maximum Recorded Temperature
MST  .DEGF      73.50000                 :Mud Sample Temperature
RMCS .OHMM       0.26600                 :Resistivity of Mud Cake Sample
RMS  .OHMM       0.19000                 :Resistivity of Mud Sample
RW   .OHMM       1.00000                 :Connate Water Resistivity
TDD  .F       5252.00000                 :Driller Total Depth
TDL  .F       5252.00000                 :Logger Total Depth
TLI  .F        200.00000                 :Top Log Interval
HIDE .        WILDCAT                    :Header Identifier
MATR .        LIME                       :Rock Matrix for Neutron Porosity Corrections
FNUM .           1.00000                 :F-Numerator for Formation Factor Formula
FEXP .           2.00000                 :Exponent "m" for Formation Factor Formula
DFT  .        SALT WATER                 :Drilling Fluid Type
DFPH .          11.00000                 :Drilling Fluid pH
MCSS .        Calculated                 :Mudcake Sample Source
MFSS .        Calculated                 :Mud Filtrate Sample Source
FD   .G/C3       1.00000                 :Fluid Density
MSS  .        Active Tank                :Mud Sample Source
OS1  .                                   :Other Services Line 1
OS2  .                                   :Other Services Line 2
OS3  .                                   :Other Services Line 3
OS4  .                                   :Other Services Line 4
OS5  .                                   :Other Services Line 5
R1   .        THANKS FOR CHOOSING

SCHLUMBERGER!!! :Remarks Line 1
R2   .        MATRIX  LIMESTONE          :Remarks Line 2
R3   .        MATRIX DENSITY  2.71 G/CC  :Remarks Line 3
R4   .        All WELL PROPERTIES PROVIDED BY

CLIENT . :Remarks Line 4
R5   .        ALL SCALES ON PRESENTATIONS AS PER

CLIENT REQUEST :Remarks Line 5
R6   .        Temp recorded by sensors inside the tool . :Remarks Line 6
R7   .                                   :Remarks Line 7
R8   .                                   :Remarks Line 8
TCS  .        04 45 00                   :Time Circulation Stopped
TLAB .        22 39 00                   :Time Logger At Bottom
EPD  .C3         675.699951              :Elevation of Permanent Datum above Mean Sea Level
APD  .F          15.500000               :Elevation of Depth Reference (LMF) above Permanent Datum
#-----------------------------------------------------------------------------
~CURVE INFORMATION
#MNEM.UNIT   API CODE                                  DESCRIPTION
#---- -----  --------                                  -----------------------
DEPT .F                                                :DEPTH (BOREHOLE) {F12.4}
C1   .IN                                               :Caliper 1 {F11.4}
C2   .IN                                               :Caliper 2 {F11.4}
CDF  .LBF                                              :Calibrated Downhole Force {F11.4}
CTEM .DEGF                                             :Cartridge Temperature {F11.4}
DCAL .IN                                               :Differential Caliper {F11.4}
DEVI .DEG                                              :Hole Deviation {F11.4}
DEVIM.DEG                                              :Memorized Deviation {F11.4}
DTCO .US/F                                             :Delta-T Compressional {F11.4}
DTSM .US/F                                             :Delta-T Shear {F11.4}
ED   .F                                                :East Departure {F11.4}
GR_EDTC.GAPI                                           :Gamma Ray {F11.4}
GTEM .DEGF                                             :Generalized Borehole Temperature {F11.4}
HAZI .DEG                                              :Hole Azimuth Relative to True North {F11.4}
HAZIM.DEG                                              :Hole Azimuth Relative to True North {F11.4}
ITT  .S                                                :Integrated Transit Time {F11.4}
ND   .F                                                :North Departure {F11.4}
P1AZ .DEG                                              :Pad 1 Azimuth in Horizontal Plane (0 = True North) {F11.4}
PR   .                                                 :Poisson s Ratio {F11.4}
RB   .DEG                                              :Relative Bearing {F11.4}
SDEV .DEG                                              :Sonde Deviation {F11.4}
SDEVM.DEG                                              :Sonde Deviation {F11.4}
SPHI .CFCF                                             :Sonic Porosity {F11.4}
STIT .F                                                :Stuck Tool Indicator, Total {F11.4}
TENS .LBF                                              :Cable Tension {F11.4}
#-----------------------------------------------------------------------------
# 
#      DEPT         C1         C2        CDF        CTEM       DCAL       DEVI      DEVIM       DTCO       DTSM        ED      GR_EDTC      GTEM       HAZI      HAZIM       ITT         ND        P1AZ        PR         RB        SDEV      SDEVM       SPHI       STIT       TENS
#
~A  
# ...
   4547.5000    20.4513    18.4509   232.4809   141.8353     0.9552     9.7853     9.7471    48.3085    77.3102     0.0000    17.9164   123.4151   332.8882   333.5014     0.0341     0.0000   324.4098     0.1797   351.7003    11.8651    11.8198    -0.0578     0.0000  2784.2500
   4548.0000    20.4080    18.7377   234.7691   141.8353     1.0413     9.7871     9.7704    47.8113    77.0877     0.0000    17.8791   123.4212   332.9006   333.5252     0.0341     0.0000   324.5903     0.1874   351.8647    11.8621    11.8412    -0.0616     0.0000  2748.0000
   4548.5000    20.4040    18.9053   231.0132   141.8353     1.0291     9.7815     9.7984    45.9206    78.6496     0.0000    17.7674   123.4273   332.9266   333.5179     0.0341     0.0000   324.3108     0.2414   351.5652    11.8552    11.8727    -0.0758     0.0000  2762.0000
   4549.0000    20.2938    18.7861   237.5049   141.8353     0.6492     9.7838     9.8496    48.0505    79.1851     0.0000    19.4589   123.4334   332.9557   333.4850     0.0341     0.0000   324.1526     0.2086   351.3813    11.8401    11.9146    -0.0598     0.0000  2844.0000
   4549.5000    19.9079    18.3690   238.1386   141.8353     0.3844     9.8280     9.9496    47.6028    79.2558     0.0000    17.9526   123.4395   332.9865   333.4332     0.0341     0.0000   323.4222     0.2178   350.6352    11.8298    11.9683    -0.0631     0.0000  2791.7500
   4550.0000    19.7032    18.1157   235.2925   141.8353     0.3700     9.8401    10.0337    47.8059    77.1595     0.0000    16.6324   123.4455   333.0301   333.3689     0.0340     0.0000   322.6263     0.1885   349.8118    11.8102    12.0309    -0.0616     0.0000  2766.3333
   4550.5000    19.5063    18.1157   232.1106   141.8353     0.3673     9.8488    10.1161    48.5159    75.1845     0.0000    15.9255   123.4516   333.0777   333.2900     0.0340     0.0000   322.2678     0.1432   349.4130    11.7901    12.0964    -0.0563     0.0000  2727.0000
   4551.0000    19.4709    18.2386   231.1720   141.8353     0.3839     9.8347    10.1706    49.2490    73.2094     0.0000    15.8133   123.4577   333.1257   333.2233     0.0340     0.0000   321.2161     0.0867   348.3337    11.7676    12.1560    -0.0508     0.0000  2728.7500
   4551.5000    19.4197    18.4807   232.9143   141.8353     0.4843     9.8220    10.2358    42.8647    70.3857     0.0000    18.9192   123.4638   333.1734   333.1436     0.0340     0.0000   320.3290     0.2052   347.4160    11.7460    12.2256    -0.0988     0.0000  2761.5000
   4552.0000    19.5614    18.1381   239.1588   141.8353     0.6493     9.7923    10.2797    48.8432    69.0205     0.0000    19.3464   123.4699   333.2133   333.0673     0.0339     0.0000   320.7010    -0.0016   347.7411    11.7297    12.2943    -0.0538     0.0000  2809.7500
   4552.5000    19.6874    18.1306   235.2925   141.8353     0.6427     9.7624    10.3155    50.4764    69.4478     0.0000    20.0172   123.4760   333.2266   332.9948     0.0339     0.0000   321.4873    -0.0599   348.4987    11.7147    12.3541    -0.0415     0.0000  2755.0000
   4553.0000    19.4670    18.1232   236.0520   141.8353     0.7810     9.7819    10.3853    53.5137    72.3620     0.0000    20.3333   123.4821   333.2363   332.9523     0.0339     0.0000   322.0974    -0.1035   349.0871    11.7057    12.3996    -0.0187     0.0000  2780.6667
   4553.5000    19.7111    18.3467   238.5405   141.8353     0.8794     9.7460    10.3931    54.7457    87.3024     0.0000    19.4823   123.4882   333.2290   332.9178     0.0339     0.0000   321.6199     0.1760   348.6258    11.7009    12.4473    -0.0094     0.0000  2780.7500
   4554.0000    19.8607    18.4249   234.5836   141.8353     0.9446     9.7296    10.4093    78.1642    91.1471     0.0000    20.6442   123.4943   333.2185   332.9009     0.0338     0.0000   321.7932    -0.8897   348.8062    11.7049    12.4876     0.1666     0.0000  2775.0000
   4554.5000    20.2741    18.4286   234.9047   141.8353     0.9286     9.6858    10.3782   101.5828    98.5514     0.0000    21.7096   123.5004   333.2256   332.9086     0.0338     0.0000   321.5060     9.0046   348.5179    11.7144    12.5150     0.3427     0.0000  2744.3335
   4555.0000    19.8213    18.4062   235.4028   141.8353     1.0939     9.7554    10.4523    94.9996   103.4377     0.0000    25.6311   123.5065   333.2392   332.9214     0.0337     0.0000   321.5640    -2.1949   348.5621    11.7287    12.5316     0.2932     0.0000  2780.0002
   4555.5000    20.3489    18.7787   229.8146   141.8353     0.9308     9.7011    10.3847   104.9317   105.4214     0.0000    26.0400   123.5126   333.2824   332.9455     0.0337     0.0000   320.9080   -52.9428   347.8770    11.7452    12.5403     0.3679     0.0000  2707.7500
   4556.0000    20.3450    18.8681   237.5204   141.8353     1.3666     9.7179    10.3811   100.4996   107.5235     0.0000    23.7213   123.5187   333.3381   332.9567     0.0336     0.0000   321.3650    -2.9563   348.2714    11.7659    12.5366     0.3346     0.0000  2809.0000
   4556.5000    20.0969    18.7266   244.9704   141.8353     0.8821     9.7652    10.4069    65.8214   111.5210     0.0000    21.4696   123.5247   333.4068   332.9592     0.0336     0.0000   322.4630     0.2327   349.2814    11.7850    12.5274     0.0738     0.0000  2884.2500
   4557.0000    20.0379    18.4845   238.3396   141.8353     0.8427     9.7899    10.3981    65.7357   115.5937     0.0000    20.4004   123.5308   333.4689   332.9445     0.0336     0.0000   323.4611     0.2052   350.1998    11.8049    12.5073     0.0732     0.0000  2776.3333
   4557.5000    20.4040    18.1157   232.4647   141.8353     0.9210     9.7565    10.3300  -999.2500   109.0661     0.0000    19.4027   123.5369   333.5014   332.8999     0.0336     0.0000   323.7934  -999.2500   350.4940    11.8198    12.4834  -999.2500     0.0000  2769.0000
   4558.0000    20.7033    18.0561   236.2220   141.8353     0.5580     9.7393    10.2682    65.5642   102.1872     0.0000    18.9753   123.5430   333.5245   332.8338     0.0336     0.0000   324.2439     0.1501   350.9137    11.8459    12.4590     0.0719     0.0000  2822.2502
   4558.5000    20.4749    17.7842   237.7002   141.8353     0.5672     9.7996    10.2837    64.5909    96.6798     0.0000    20.3150   123.5491   333.5191   332.7617     0.0335     0.0000   324.0697     0.0969   350.7494    11.8798    12.4382     0.0646     0.0000  2816.5000
   4559.0000    20.2780    17.7470   235.8047   141.8353     0.4407     9.8636    10.3001    61.0706    91.0255     0.0000    20.1289   123.5552   333.4840   332.6983     0.0335     0.0000   323.9275     0.0907   350.6461    11.9243    12.4238     0.0381     0.0000  2777.0000
   4559.5000    20.3450    17.7731   231.4614   141.8353     0.4176     9.9015    10.2825    58.2646    86.9962     0.0000    20.8548   123.5613   333.4292   332.6328     0.0335     0.0000   323.7430     0.0933   350.5208    11.9785    12.4127     0.0170     0.0000  2740.3335
   4560.0000    20.1993    17.8364   232.7443   141.8353     0.4190     9.9666    10.2961    55.9360    82.7583     0.0000    19.1250   123.5674   333.3689   332.5829     0.0334     0.0000   323.1000     0.0795   349.9521    12.0309    12.4087    -0.0005     0.0000  2779.6667
   4560.5000    20.3962    17.7880   233.5958   141.8353     0.4032    10.0008    10.2715    54.1062    78.3810     0.0000    20.4096   123.5735   333.2900   332.5542     0.0334     0.0000   321.8274     0.0449   348.7854    12.0964    12.4091    -0.0142     0.0000  2749.6667
   4561.0000    20.6403    17.8401   232.9453   141.8353     0.3397    10.0300    10.2446    52.6745    77.5147     0.0000    18.4365   123.5796   333.2083   332.5519     0.0334     0.0000   321.9548     0.0710   348.9931    12.1683    12.4132    -0.0250     0.0000  2743.3335
   4561.5000    20.6403    17.6949   233.3211   141.8353     0.5628    10.0907    10.2501    52.5747    77.8733     0.0000    17.0965   123.5857   333.1252   332.5725     0.0334     0.0000   322.3081     0.0812   349.4231    12.2387    12.4199    -0.0258     0.0000  2747.0000
