~VERSION INFORMATION
VERS.           1.2   :CWLS Log ASCII Standard - VERSION 1.2
WRAP.           NO    :One Line per depth step
PROD.  Schlumberger   :LAS Producer
PROG.  DLIS to ASCII 2.3                               :LAS Program name and version
CREA.        2015/01/14 20:42                          :LAS Creation date {YYYY/MM/DD hh:mm}
DLIS_CREA.  2015-Jan-14 13:26                          :DLIS Creation date and time {YYYY-MMM-DD hh:mm}
SOURCE.     b1232dd5-b707-4891-82b9-d24dcc6cb5d4       :DLIS File Name
#--------------------------------------------------
~WELL INFORMATION
#MNEM.UNIT      DATA             DESCRIPTION
#---- ------ --------------   -----------------------------
STRT .F      -8.0000         :START DEPTH     
STOP .F      352.5000        :STOP DEPTH     
STEP .F       0.5000         :STEP       
NULL .          -999.25      :NULL VALUE
COMP .                 COMPANY:  ADM Company                        
WELL .                    WELL:  CCS#2                              
FLD  .                   FIELD:  Wildcat                            
LOC  .                LOCATION:  Latitude: 39.885961                
CNTY .                  COUNTY:  Macon                              
STAT .                   STATE:  Illinois                           
CTRY .                 COUNTRY:  USA                                
SRVC .         SERVICE COMPANY:  Schlumberger                       
LATI .DEG             LATITUDE:  39° 53' 9.46" N                    
LONG .DEG            LONGITUDE:  88° 53' 16.959" W                  
API  .              API NUMBER:  12-115-23713-00                    
DATE .                LOG DATE:  13-Jan-2015
UWI  .          UNIQUE WELL ID:                                     
#-----------------------------------------------------------------------------
~PARAMETER INFORMATION
#MNEM.UNIT    VALUE                      DESCRIPTION
#---- -----   --------------------       ------------------------
CN   .        ADM Company                :Company Name
WN   .        CCS#2                      :Well Name
FN   .        Wildcat                    :Field Name
FL   .        Latitude  39.885961        :Field Location
FL1  .        Longitude  -88.888044      :Field Location, Line 1
COUN .        Macon                      :County or Parish
STAT .        Illinois                   :State or Province
NATI .        USA                        :Nation
DATE .        13-Jan-2015                :Tools Above Rotary Table Date
APIN .        12-115-23713-00            :API Well Number
SECT .        32                         :Section
TOWN .        17N                        :Township
RANG .        3E                         :Range
DMF  .        KB                         :Drilling Measured From (Name of Drilling Elevation Reference)
LMF  .        KB                         :Logging Measured From (Name of Logging Elevation Reference)
PDAT .        GL                         :Permanent Datum
ENGI .        Devin Arnold               :Engineer s Name
WITN .        Nick Malkewicz             :Witness s Name
LATI .        39° 53' 9.46  N            :Latitude
LONG .        88° 53' 16.959  W          :Longitude
LUL  .        Bradford                   :Logging Unit Location
LUN  .        3095                       :Logging Unit Number
RUN  .        2                          :Run Number
SON  .        D71E-00006                 :Service Order Number
BHT  .DEGF      58.00000                 :Bottom Hole Temperature
BS   .IN        26.00000                 :Bit Size
MDEN .G/C3       2.71000                 :Matrix Density for Density Porosity
DFD  .LB/G      10.10000                 :Drilling Fluid Density
DFV  .S       -999.25000                 :Drilling Fluid Viscosity
DFL  .C3      -999.25000                 :Drilling Fluid Loss
RMFS .OHMM       1.23200                 :Resistivity of Mud Filtrate Sample
EKB  .F        691.19995                 :Elevation of Kelly Bushing
EGL  .F        675.69995                 :Elevation of Ground Level
BLI  .F        345.00000                 :Bottom Log Interval
BSAL .PPM        0.00000                 :Borehole Salinity
FLEV .F          8.00000                 :Depth of Drilling Fluid Level to LMF (Log Measured From)
MCST .DEGF      42.80000                 :Mudcake Sample Temperature
MFST .DEGF      42.80000                 :Mud Filtrate Sample Temperature
MRT  .DEGF      58.00000                 :Maximum Recorded Temperature
MST  .DEGF      42.80000                 :Mud Sample Temperature
RMCS .OHMM       1.84800                 :Resistivity of Mud Cake Sample
RMS  .OHMM       1.54000                 :Resistivity of Mud Sample
RW   .OHMM       1.00000                 :Connate Water Resistivity
TDD  .F        349.00000                 :Driller Total Depth
TDL  .F        349.00000                 :Logger Total Depth
TLI  .F         50.00000                 :Top Log Interval
HIDE .        Wildcat                    :Header Identifier
MATR .        LIME                       :Rock Matrix for Neutron Porosity Corrections
FNUM .           1.00000                 :F-Numerator for Formation Factor Formula
FEXP .           2.00000                 :Exponent "m" for Formation Factor Formula
DFT  .        Fresh Mud                  :Drilling Fluid Type
DFPH .        -999.25000                 :Drilling Fluid pH
MCSS .        Calculated                 :Mudcake Sample Source
MFSS .        Calculated                 :Mud Filtrate Sample Source
FD   .G/C3       1.00000                 :Fluid Density
MSS  .        Active Tank                :Mud Sample Source
OS1  .                                   :Other Services Line 1
OS2  .                                   :Other Services Line 2
OS3  .                                   :Other Services Line 3
OS4  .                                   :Other Services Line 4
OS5  .                                   :Other Services Line 5
R1   .        Matrix Density  Limestone. :Remarks Line 1
R2   .        Mud Sample taken on location. :Remarks Line 2
R3   .        Presentations as per client request. :Remarks Line 3
R4   .        No Chemical Sources ran due to possible potable water zones. :Remarks Line 4
R5   .        Bottom Hole Temperature taken from GM2 temperature log provided by the client. 58degF :Remarks Line 5
R6   .                                   :Remarks Line 6
R7   .                                   :Remarks Line 7
R8   .                                   :Remarks Line 8
TCS  .        19 45 00                   :Time Circulation Stopped
TLAB .        03 30 00                   :Time Logger At Bottom
EPD  .C3         675.699951              :Elevation of Permanent Datum above Mean Sea Level
APD  .F          15.500000               :Elevation of Depth Reference (LMF) above Permanent Datum
#-----------------------------------------------------------------------------
~CURVE INFORMATION
#MNEM.UNIT   API CODE                                  DESCRIPTION
#---- -----  --------                                  -----------------------
DEPT .F                                                :DEPTH (BOREHOLE) {F12.4}
CDF  .LBF                                              :Calibrated Downhole Force {F11.4}
CTEM .DEGF                                             :Cartridge Temperature {F11.4}
DCAL .IN                                               :Differential Caliper {F11.4}
DT   .US/F                                             :Delta-T (also called Slowness or Interval Transit Time) {F11.4}
ED   .F                                                :East Departure {F11.4}
GR_EDTC.GAPI                                           :Gamma Ray {F11.4}
GTEM .DEGF                                             :Generalized Borehole Temperature {F11.4}
HAZI .DEG                                              :Hole Azimuth Relative to True North {F11.4}
HAZIM.DEG                                              :Memorized Hole Azimuth {F11.4}
ITT  .S                                                :Integrated Transit Time {F11.4}
ND   .F                                                :North Departure {F11.4}
P1AZ .DEG                                              :Pad 1 Azimuth in Horizontal Plane (0 = True North) {F11.4}
RB   .DEG                                              :Relative Bearing {F11.4}
SDEV .DEG                                              :Sonde Deviation {F11.4}
SDEVM.DEG                                              :Memorized Sonde Deviation {F11.4}
SPHI .CFCF                                             :Sonic Porosity {F11.4}
STIT .F                                                :Stuck Tool Indicator, Total {F11.4}
TENS .LBF                                              :Cable Tension {F11.4}
#-----------------------------------------------------------------------------
# 
#      DEPT        CDF        CTEM       DCAL        DT         ED      GR_EDTC      GTEM       HAZI      HAZIM       ITT         ND        P1AZ        RB        SDEV      SDEVM       SPHI       STIT       TENS
#
~A  
# ...
     87.0000   650.7174    76.6118    -5.3762  -253.4135     0.4502    47.0905    55.3801     4.0650   313.9460     0.0000    -0.0728   315.6725   311.6330     2.4243     2.4356  -999.2500     0.0000   695.2857
     87.5000   651.3708    76.6118    -5.4031  -253.4389     0.4517    48.2279    55.3851     3.5303   312.6711     0.0000    -0.0693   314.9049   311.4001     2.4260     2.4362  -999.2500     0.0000   683.2857
     88.0000   651.9871    76.6118    -5.4031  -253.3107     0.4532    49.9565    55.3901     2.8037   311.4376     0.0000    -0.0658   314.0743   311.2961     2.4283     2.4368  -999.2500     0.0000   656.2667
     88.5000   650.9680    76.6118    -5.4031  -253.3449     0.4546    49.0842    55.3951     2.0431   310.5558     0.0000    -0.0622   313.3047   311.2873     2.4305     2.4372  -999.2500     0.0000   657.5000
     89.0000   650.6920    76.6118    -5.3477  -253.6247     0.4559    45.3745    55.4001     1.4643   309.4471     0.0000    -0.0587   312.7048   311.2661     2.4315     2.4378  -999.2500     0.0000   652.7143
     89.5000   651.3522    76.6118    -5.3762  -253.7750     0.4572    42.8962    55.4051     0.6671   308.4286     0.0000    -0.0551   312.0599   311.4185     2.4331     2.4383  -999.2500     0.0000   690.7858
     90.0000   652.4695    76.6118    -5.3762  -253.6574     0.4583    41.9650    55.4101   359.8521   307.7247     0.0000    -0.0516   311.3084   311.4820     2.4339     2.4390  -999.2500     0.0000   673.6428
     90.5000   651.3945    76.6118    -5.3762  -253.5127     0.4594    45.3373    55.4151   359.2234   306.8633     0.0000    -0.0480   310.7008   311.5031     2.4342     2.4397  -999.2500     0.0000   666.5714
     91.0000   650.9967    76.6118    -5.3762  -253.7529     0.4605    45.7003    55.4201   358.3562   306.0682     0.0000    -0.0444   309.9174   311.5870     2.4340     2.4404  -999.2500     0.0000   683.5714
     91.5000   649.6509    76.6118    -5.3762  -253.7024     0.4614    46.1935    55.4251   357.4489   305.5256     0.0000    -0.0408   309.0385   311.6152     2.4334     2.4411  -999.2500     0.0000   717.0000
     92.0000   652.2951    76.6118    -5.4031  -253.7797     0.4623    44.5736    55.4301   356.7442   304.8260     0.0000    -0.0373   308.2964   311.5779     2.4330     2.4420  -999.2500     0.0000   693.0714
     92.5000   651.9871    76.6118    -5.4031  -253.7987     0.4631    46.9449    55.4351   355.7687   304.1657     0.0000    -0.0337   307.1844   311.4414     2.4322     2.4431  -999.2500     0.0000   657.3572
     93.0000   650.0436    76.6118    -5.4031  -254.0541     0.4639    46.8112    55.4401   354.7682   303.6748     0.0000    -0.0299   306.0652   311.3225     2.4318     2.4435  -999.2500     0.0000   629.1333
     93.5000   651.7331    76.6118    -5.4031  -254.4606     0.4646    48.9102    55.4451   353.9999   303.0253     0.0000    -0.0262   305.0927   311.1184     2.4315     2.4443  -999.2500     0.0000   684.7143
     94.0000   651.6823    76.6118    -5.4031  -254.4782     0.4652    46.8735    55.4501   352.9653   302.3707     0.0000    -0.0225   304.0098   311.0700     2.4313     2.4447  -999.2500     0.0000   703.2857
     94.5000   651.0390    76.6118    -5.4031  -253.8975     0.4657    47.7243    55.4551   351.9288   301.8700     0.0000    -0.0189   303.0224   311.1192     2.4314     2.4449  -999.2500     0.0000   655.2143
     95.0000   652.6980    76.6118    -5.3493   -57.0607     0.4662    47.5588    55.4601   351.1537   301.1925     0.0000    -0.0152   302.2591   311.1309     2.4313     2.4452  -999.2500     0.0000   631.2858
     95.5000   649.2700    76.6118    -5.4031   -58.4161     0.4665    46.4786    55.4651   350.1337   300.4992     0.0000    -0.0115   301.1199   311.0117     2.4317     2.4454  -999.2500     0.0000   660.3572
     96.0000   651.9633    76.6118    -5.4031   -60.5396     0.4669    47.0587    55.4701   349.1327   299.7974     0.0000    -0.0078   300.0564   310.9494     2.4319     2.4458  -999.2500     0.0000   662.2857
     96.5000   651.0221    76.6118    -5.4031   -61.3112     0.4671    45.2248    55.4751   348.3982   299.2621     0.0000    -0.0041   299.3156   310.9430     2.4321     2.4462  -999.2500     0.0000   655.5714
     97.0000   652.3425    76.6118    -5.4317   136.3377     0.4673    44.9922    55.4801   347.4453   298.5548     0.0245    -0.0002   298.2477   310.8279     2.4323     2.4469     0.6040     0.0000   639.1334
     97.5000   650.3365    76.6118    -5.4047   138.0056     0.4674    43.1238    55.4851   346.5297   297.8486     0.0245     0.0037   297.2772   310.7730     2.4328     2.4477     0.6166     0.0000   624.2857
     98.0000   650.6412    76.6118    -5.4050   -58.0374     0.4675    46.2692    55.4901   345.8673   297.3274     0.0000     0.0075   296.7018   310.8601     2.4330     2.4482     0.6164     0.0000   678.6429
     98.5000   652.0345    76.6118    -5.4317   -59.4899     0.4674    47.6374    55.4951   345.0189   296.6480     0.0000     0.0113   295.8740   310.8807     2.4337     2.4489  -999.2500     0.0000   694.2858
     99.0000   654.5009    76.6118    -5.3762   -60.3135     0.4673    49.1191    55.5001   344.2045   295.9890     0.0000     0.0151   295.1457   310.9668     2.4343     2.4496  -999.2500     0.0000   645.5714
     99.5000   650.6412    76.6118    -5.4047   -60.1550     0.4672    47.3140    55.5051   343.6164   295.5053     0.0000     0.0189   294.5392   310.9484     2.4346     2.4500  -999.2500     0.0000   643.3571
    100.0000   650.7072    76.6118    -5.4031   -59.0779     0.4669    46.2003    55.5101   342.8540   294.8639     0.0000     0.0227   293.8467   311.0183     2.4351     2.4502  -999.2500     0.0000   672.2143
    100.5000   653.4344    76.6118    -5.4048   -57.5633     0.4666    44.1000    55.5151   342.1179   294.2144     0.0000     0.0267   293.1699   311.0777     2.4354     2.4502  -999.2500     0.0000   744.8667
    101.0000   653.0789    76.6118    -5.4318  -253.8895     0.4662    42.0972    55.5201   341.5799   293.7194     0.0000     0.0307   292.5951   311.0409     2.4356     2.4501  -999.2500     0.0000   658.5000
    101.5000   650.0911    76.6118    -5.3762  -254.5197     0.4658    43.1597    55.5251   340.8833   293.0289     0.0000     0.0346   291.7950   310.9374     2.4357     2.4495  -999.2500     0.0000   661.7857
    102.0000   651.0475    76.6118    -5.4317  -254.2404     0.4652    43.5252    55.5301   340.2118   292.2981     0.0000     0.0384   290.9922   310.8060     2.4357     2.4487  -999.2500     0.0000   675.3571
    102.5000   652.3679    76.6118    -5.4031  -254.4318     0.4647    43.2112    55.5351   339.5612   291.7183     0.0000     0.0423   290.3928   310.8570     2.4354     2.4483  -999.2500     0.0000   750.7858
    103.0000   653.0298    76.6118    -5.4048  -254.3560     0.4640    41.5080    55.5401   339.0926   290.8983     0.0000     0.0464   289.9209   310.8539     2.4356     2.4473  -999.2500     0.0000   695.1334
    103.5000   652.1140    76.6118    -5.3762  -254.1298     0.4632    38.2486    55.5451   338.4818   290.0282     0.0000     0.0503   289.3360   310.8798     2.4354     2.4465  -999.2500     0.0000   665.7692
    104.0000   650.0436    76.6118    -5.4031  -253.9219     0.4624    41.0573    55.5501   338.0350   289.1136     0.0000     0.0543   288.9338   310.9243     2.4358     2.4459  -999.2500     0.0000   656.4000
    104.5000   649.2700    76.6118    -5.4316  -253.5193     0.4615    42.6563    55.5551   337.4391   288.4050     0.0000     0.0584   288.4944   311.0808     2.4359     2.4455  -999.2500     0.0000   715.7858
    105.0000   652.3933    76.6118    -5.4031  -253.3618     0.4606    46.7901    55.5601   336.8394   287.4319     0.0000     0.0624   288.1051   311.2913     2.4362     2.4450  -999.2500     0.0000   739.4286
    105.5000   652.6270    76.6118    -5.4316  -253.2637     0.4596    45.2203    55.5651   336.2227   286.4389     0.0000     0.0664   287.2952   311.0982     2.4371     2.4445  -999.2500     0.0000   658.9286
