~VERSION INFORMATION
VERS.           1.2   :CWLS Log ASCII Standard - VERSION 1.2
WRAP.           NO    :One Line per depth step
PROD.  Schlumberger   :LAS Producer
PROG.  DLIS to ASCII 2.3                               :LAS Program name and version
CREA.        2015/05/30 23:46                          :LAS Creation date {YYYY/MM/DD hh:mm}
DLIS_CREA.  2015-May-30 15:01                          :DLIS Creation date and time {YYYY-MMM-DD hh:mm}
SOURCE.     b43ac578-4029-44ab-a201-dacd5736d378       :DLIS File Name
#--------------------------------------------------
~WELL INFORMATION
#MNEM.UNIT      DATA             DESCRIPTION
#---- ------ --------------   -----------------------------
STRT .F      5200.5000       :START DEPTH     
STOP .F      7212.5000       :STOP DEPTH     
STEP .F       0.5000         :STEP       
NULL .          -999.25      :NULL VALUE
COMP .                 COMPANY:  ADM COMPANY                        
WELL .                    WELL:  CCS#2                              
FLD  .                   FIELD:  WILDCAT                            
LOC  .                LOCATION:  LAT 39.885961                      
CNTY .                  COUNTY:  MACON                              
STAT .                   STATE:  ILLINOIS                           
CTRY .                 COUNTRY:  USA                                
SRVC .         SERVICE COMPANY:  Schlumberger                       
LATI .DEG             LATITUDE:  39.885961 degrees                  
LONG .DEG            LONGITUDE:  -88.888044 degrees                 
API  .              API NUMBER:  12-115-23713-00                    
DATE .                LOG DATE:  29-May-2015
UWI  .          UNIQUE WELL ID:  12-115-23713-00                    
#-----------------------------------------------------------------------------
~PARAMETER INFORMATION
#MNEM.UNIT    VALUE                      DESCRIPTION
#---- -----   --------------------       ------------------------
CN   .        ADM COMPANY                :Company Name
WN   .        CCS#2                      :Well Name
FN   .        WILDCAT                    :Field Name
FL   .        LAT 39.885961              :Field Location
FL1  .        LONG 39.885961             :Field Location, Line 1
COUN .        MACON                      :County or Parish
STAT .        ILLINOIS                   :State or Province
NATI .        USA                        :Nation
DATE .        29-May-2015                :Tools Above Rotary Table Date
APIN .        12-115-23713-00            :API Well Number
SECT .        32                         :Section
TOWN .        17N                        :Township
RANG .        3E                         :Range
DMF  .        KB                         :Drilling Measured From (Name of Drilling Elevation Reference)
LMF  .        KB                         :Logging Measured From (Name of Logging Elevation Reference)
PDAT .        GL                         :Permanent Datum
ENGI .        H. DIMITROV / M. MOHAMMED  :Engineer s Name
WITN .        NICK MALKEWICZ             :Witness s Name
LATI .        39.885961 degrees          :Latitude
LONG .        -88.888044 degrees         :Longitude
LUL  .        BRADFORD                   :Logging Unit Location
LUN  .        3003                       :Logging Unit Number
RUN  .        RUN 3B                     :Run Number
SON  .                                   :Service Order Number
BHT  .DEGF     127.00000                 :Bottom Hole Temperature
BS   .IN        12.25000                 :Bit Size
MDEN .LB/G      22.11532                 :Matrix Density for Density Porosity
DFD  .LB/G       9.20000                 :Drilling Fluid Density
DFV  .S         66.00000                 :Drilling Fluid Viscosity
DFL  .C3         7.60000                 :Drilling Fluid Loss
RMFS .OHMM       0.17000                 :Resistivity of Mud Filtrate Sample
EKB  .F        691.19995                 :Elevation of Kelly Bushing
EGL  .F        675.69995                 :Elevation of Ground Level
BLI  .F       7192.00000                 :Bottom Log Interval
BSAL .PPM     15100.00000                :Borehole Salinity
FLEV .F          8.00000                 :Depth of Drilling Fluid Level to LMF (Log Measured From)
MCST .DEGF      72.50000                 :Mudcake Sample Temperature
MFST .DEGF      72.50000                 :Mud Filtrate Sample Temperature
MRT  .DEGF     127.00000                 :Maximum Recorded Temperature
MST  .DEGF      72.50000                 :Mud Sample Temperature
RMCS .OHMM       0.14000                 :Resistivity of Mud Cake Sample
RMS  .OHMM       0.20000                 :Resistivity of Mud Sample
RW   .OHMM       1.00000                 :Connate Water Resistivity
TDD  .F       7193.00049                 :Driller Total Depth
TDL  .F       7192.00000                 :Logger Total Depth
TLI  .F       5231.00000                 :Top Log Interval
HIDE .        WILDCAT                    :Header Identifier
MATR .        SAND                       :Rock Matrix for Neutron Porosity Corrections
FNUM .           1.00000                 :F-Numerator for Formation Factor Formula
FEXP .           2.00000                 :Exponent "m" for Formation Factor Formula
DFT  .        Fresh Water                :Drilling Fluid Type
DFPH .          11.50000                 :Drilling Fluid pH
MCSS .        Calculated                 :Mudcake Sample Source
MFSS .        Calculated                 :Mud Filtrate Sample Source
FD   .LB/G       8.34540                 :Fluid Density
MSS  .        Active Tank                :Mud Sample Source
OS1  .                                   :Other Services Line 1
OS2  .                                   :Other Services Line 2
OS3  .                                   :Other Services Line 3
OS4  .                                   :Other Services Line 4
OS5  .                                   :Other Services Line 5
R1   .        THANKS FOR CHOOSING SCHLUMBERGER!!! :Remarks Line 1
R2   .        All WELL PROPERTIES PROVIDED BY CLIENT :Remarks Line 2
R3   .        ALL SCALES ON PRESENTATIONS AS PER

CLIENT REQUEST :Remarks Line 3
R4   .        MATRIX  SANDSTONE          :Remarks Line 4
R5   .        MATRIX DENSITY  2.65 G/CC  :Remarks Line 5
R6   .        ALL LOGGING INTERVALS AS PER CLIENT REQUEST :Remarks Line 6
R7   .        MRT = 127 DEGF FROM THE THERMOMETER :Remarks Line 7
R8   .                                   :Remarks Line 8
TCS  .        20 00 00                   :Time Circulation Stopped
TLAB .        11 17 00                   :Time Logger At Bottom
EPD  .C3         675.699951              :Elevation of Permanent Datum above Mean Sea Level
APD  .F          15.500000               :Elevation of Depth Reference (LMF) above Permanent Datum
#-----------------------------------------------------------------------------
~CURVE INFORMATION
#MNEM.UNIT   API CODE                                  DESCRIPTION
#---- -----  --------                                  -----------------------
DEPT .F                                                :DEPTH (BOREHOLE) {F12.4}
C1   .IN                                               :Caliper 1 {F11.4}
C2   .IN                                               :Caliper 2 {F11.4}
CDF  .LBF                                              :Calibrated Downhole Force {F11.4}
CTEM .DEGF                                             :Cartridge Temperature {F11.4}
DCAL .IN                                               :Differential Caliper {F11.4}
DEVI .DEG                                              :Hole Deviation {F11.4}
DEVIM.DEG                                              :Memorized Deviation {F11.4}
DTCO .US/F                                             :Delta-T Compressional {F11.4}
DTSM .US/F                                             :Delta-T Shear {F11.4}
ED   .F                                                :East Departure {F11.4}
GR_EDTC.GAPI                                           :Gamma Ray {F11.4}
GTEM .DEGF                                             :Generalized Borehole Temperature {F11.4}
HAZI .DEG                                              :Hole Azimuth Relative to True North {F11.4}
HAZIM.DEG                                              :Hole Azimuth Relative to True North {F11.4}
ITT  .S                                                :Integrated Transit Time {F11.4}
ND   .F                                                :North Departure {F11.4}
P1AZ .DEG                                              :Pad 1 Azimuth in Horizontal Plane (0 = True North) {F11.4}
PR   .                                                 :Poisson s Ratio {F11.4}
RB   .DEG                                              :Relative Bearing {F11.4}
SDEV .DEG                                              :Sonde Deviation {F11.4}
SDEVM.DEG                                              :Sonde Deviation {F11.4}
SPHI .CFCF                                             :Sonic Porosity {F11.4}
STIT .F                                                :Stuck Tool Indicator, Total {F11.4}
TENS .LBF                                              :Cable Tension {F11.4}
#-----------------------------------------------------------------------------
# 
#      DEPT         C1         C2        CDF        CTEM       DCAL       DEVI      DEVIM       DTCO       DTSM        ED      GR_EDTC      GTEM       HAZI      HAZIM       ITT         ND        P1AZ        PR         RB        SDEV      SDEVM       SPHI       STIT       TENS
#
~A  
# ...
   5331.0000    12.1757    12.1079  1618.6852   124.0471    -0.0688     1.4062     1.3745    69.4909   118.3924   -54.3050   119.5991   111.7259   347.9271   348.4825     0.1256    96.3550   307.5219     0.2372   319.6035     1.4062     1.3745     0.1213     0.0000  3185.3333
   5331.5000    12.1757    12.1079  1617.7122   124.0471    -0.0463     1.4012     1.3772    70.6182   118.8314   -54.3087   124.5755   111.7300   347.9518   348.6410     0.1256    96.3690   307.6879     0.2270   319.7446     1.4012     1.3772     0.1294     0.0000  3228.6667
   5332.0000    12.1798    12.1159  1616.1405   124.0471    -0.0584     1.3973     1.3768    70.7758   119.3937   -54.3125   125.0503   111.7341   347.9887   348.8145     0.1255    96.3829   307.1340     0.2291   319.1537     1.3973     1.3768     0.1305     0.0000  3210.0002
   5332.5000    12.1757    12.0999  1599.9185   124.0471    -0.0575     1.3927     1.3757    71.7708   123.3992   -54.3162   128.2905   111.7382   347.9854   348.9879     0.1255    96.3968   306.2420     0.2444   318.2651     1.3927     1.3757     0.1373     0.0000  3083.6667
   5333.0000    12.1757    12.0999  1601.1907   124.0471    -0.0463     1.3876     1.3730    72.2904   124.7716   -54.3200   132.7715   111.7423   347.9530   349.2552     0.1255    96.4108   304.5140     0.2473   316.5695     1.3876     1.3730     0.1408     0.0000  3219.6667
   5333.5000    12.1840    12.1039  1609.6292   124.0471    -0.0463     1.3821     1.3686    72.3149   126.3691   -54.3239   135.8927   111.7464   347.8943   349.5062     0.1254    96.4252   300.8613     0.2565   312.9753     1.3821     1.3686     0.1410     0.0000  3078.0000
   5334.0000    12.1757    12.0999  1582.8170   124.0471    -0.0691     1.3791     1.3648    72.3147   126.1951   -54.3277   141.7369   111.7505   347.8478   349.7691     0.1254    96.4394   299.0563     0.2555   311.2167     1.3791     1.3648     0.1410     0.0000  3016.6667
   5334.5000    12.1840    12.0999  1569.8506   124.0471    -0.0471     1.3748     1.3579    69.7875   126.1570   -54.3315   140.6165   111.7546   347.7808   350.1188     0.1254    96.4535   298.1602     0.2795   310.3877     1.3748     1.3579     0.1235     0.0000  3083.6667
   5335.0000    12.2005    12.1638  1656.4991   124.0471    -0.0475     1.3725     1.3523    67.9482   121.1990   -54.3353   150.5918   111.7587   347.7328   350.3699     0.1253    96.4674   293.2439     0.2708   305.5188     1.3725     1.3523     0.1099     0.0000  3318.0000
   5335.5000    12.2170    12.1717  1669.7648   124.0471    -0.0239     1.3713     1.3468    67.0356   120.7451   -54.3390   156.5497   111.7628   347.6946   350.5871     0.1253    96.4813   287.7415     0.2772   300.0540     1.3713     1.3468     0.1029     0.0000  3149.3333
   5336.0000    12.2253    12.2157  1619.0892   124.0471    -0.0020     1.3701     1.3402    66.5214   120.3214   -54.3428   151.2366   111.7669   347.6820   350.7465     0.1253    96.4955   287.4185     0.2799   299.7435     1.3701     1.3402     0.0989     0.0000  3161.0002
   5336.5000    12.2377    12.1717  1613.5211   124.0471    -0.0120     1.3713     1.3378    65.3538   120.2492   -54.3467   125.5065   111.7710   347.5617   350.8330     0.1252    96.5096   286.8009     0.2904   299.2462     1.3713     1.3378     0.0895     0.0000  3168.3335
   5337.0000    12.2336    12.2276  1611.7062   124.0471    -0.0008     1.3734     1.3290    62.6494   116.7224   -54.3505   102.8446   111.7751   347.5796   350.8541     0.1252    96.5237   285.7510     0.2977   298.1782     1.3734     1.3290     0.0663     0.0000  3255.0002
   5337.5000    12.2419    12.2117  1595.3530   124.0471    -0.0132     1.3725     1.3213    61.8856   112.9514   -54.3541    87.8275   111.7792   347.6517   350.7678     0.1252    96.5373   285.1721     0.2855   297.5273     1.3725     1.3213     0.0594     0.0000  3217.0000
   5338.0000    12.2253    12.1877  1607.9265   124.0471    -0.0008     1.3737     1.3146    61.9352   109.6320   -54.3579    91.4623   111.7834   347.6927   350.6729     0.1251    96.5512   283.8386     0.2656   296.1524     1.3737     1.3146     0.0599     0.0000  3214.3335
   5338.5000    12.2253    12.1558  1614.2881   124.0471    -0.0008     1.3731     1.3073    61.9384   110.0083   -54.3617    97.9318   111.7875   347.7762   350.5597     0.1251    96.5654   277.5327     0.2679   289.7619     1.3731     1.3073     0.0599     0.0000  3166.6667
   5339.0000    12.2170    12.1638  1575.8942   124.0471    -0.0120     1.3738     1.3000    62.8827   112.6416   -54.3655   114.4754   111.7916   347.9087   350.4196     0.1251    96.5794   277.0023     0.2736   289.0986     1.3738     1.3000     0.0684     0.0000  3181.6667
   5339.5000    12.2253    12.1678  1577.4658   124.0471    -0.0120     1.3730     1.2922    63.2990   115.5512   -54.3692   122.5130   111.7957   348.0395   350.2672     0.1250    96.5932   276.9901     0.2856   288.9557     1.3730     1.2922     0.0721     0.0000  3169.3335
   5340.0000    12.2088    12.1638  1578.1581   124.0471    -0.0008     1.3735     1.2858    65.2474   118.0061   -54.3730   130.4010   111.7998   348.1884   350.0424     0.1250    96.6071   276.0432     0.2798   287.8595     1.3735     1.2858     0.0886     0.0000  3179.3333
   5340.5000    12.2419    12.2196  1570.0565   124.0471    -0.0008     1.3751     1.2775    66.1308   119.2236   -54.3768   141.0752   111.8039   348.3196   349.9045     0.1250    96.6212   275.3294     0.2778   287.0145     1.3751     1.2775     0.0957     0.0000  3049.6667
   5341.0000    12.2336    12.1598  1576.1748   124.0471    -0.0008     1.3756     1.2714    67.1588   122.3731   -54.3806   152.9135   111.8080   348.4898   349.7760     0.1249    96.6353   274.4492     0.2845   285.9637     1.3756     1.2714     0.1038     0.0000  3155.3333
   5341.5000    12.2419    12.1638  1594.8104   124.0471    -0.0020     1.3763     1.2660    67.2374   124.6529   -54.3844   162.3363   111.8121   348.6451   349.5249     0.1249    96.6492   273.1669     0.2948   284.5259     1.3763     1.2660     0.1045     0.0000  3170.6667
   5342.0000    12.2088    12.1558  1578.7578   124.0471    -0.0123     1.3762     1.2589    67.4122   125.6090   -54.3882   157.0835   111.8162   348.8626   349.3104     0.1249    96.6630   272.0768     0.2977   283.2179     1.3762     1.2589     0.1058     0.0000  3041.6667
   5342.5000    12.1922    12.1638  1537.0885   124.0471     0.0105     1.3747     1.2527    66.9366   123.6584   -54.3919   157.4205   111.8203   349.0649   349.0922     0.1248    96.6769   271.5825     0.2928   282.5210     1.3747     1.2527     0.1021     0.0000  3036.5000
   5343.0000    12.1922    12.1558  1513.2513   124.0471     0.2257     1.3733     1.2477    67.2210   123.0233   -54.3956   158.6618   111.8244   349.2819   349.0001     0.1248    96.6907   271.2431     0.2872   281.9646     1.3733     1.2477     0.1043     0.0000  3050.6667
   5343.5000    12.1922    12.1518  1500.4346   124.0471     0.5650     1.3686     1.2403    66.0712   120.6888   -54.3994   156.0967   111.8285   349.5062   348.8370     0.1248    96.7045   270.8009     0.2860   281.2978     1.3686     1.2403     0.0953     0.0000  3005.3333
   5344.0000    12.2129    12.2835  1495.8132   124.0471    -0.0020     1.3648     1.2351    65.6982   120.7229   -54.4032   142.9243   111.8326   349.7691   348.7214     0.1247    96.7185   270.2921     0.2896   280.5260     1.3648     1.2351     0.0923     0.0000  3078.0000
   5344.5000    12.2088    12.1079  1528.0101   124.0471    -0.0463     1.3579     1.2289    65.5754   117.4013   -54.4070   126.7860   111.8367   350.1188   348.6582     0.1247    96.7324   269.0218     0.2733   278.9055     1.3579     1.2289     0.0913     0.0000  3038.3333
   5345.0000    12.1798    12.0959  1535.4420   124.0471    -0.0235     1.3523     1.2216    65.3170   116.1402   -54.4107   116.9792   111.8408   350.3699   348.6012     0.1247    96.7462   267.8024     0.2687   277.4345     1.3523     1.2216     0.0892     0.0000  3033.7502
