~VERSION INFORMATION
VERS.           1.2   :CWLS Log ASCII Standard - VERSION 1.2
WRAP.           NO    :One Line per depth step
PROD.  Schlumberger   :LAS Producer
PROG.  DLIS to ASCII 2.3                               :LAS Program name and version
CREA.        2015/05/06 16:26                          :LAS Creation date {YYYY/MM/DD hh:mm}
DLIS_CREA.  2015-May-04 11:59                          :DLIS Creation date and time {YYYY-MMM-DD hh:mm}
SOURCE.     301ad50a-0e97-4ef4-9f57-5a70afd84532       :DLIS File Name
#--------------------------------------------------
~WELL INFORMATION
#MNEM.UNIT      DATA             DESCRIPTION
#---- ------ --------------   -----------------------------
STRT .F      23.5000         :START DEPTH     
STOP .F      5264.5000       :STOP DEPTH     
STEP .F       0.5000         :STEP       
NULL .          -999.25      :NULL VALUE
COMP .                 COMPANY:  ADM COMPANY                        
WELL .                    WELL:  CCS#2                              
FLD  .                   FIELD:  WILDCAT                            
LOC  .                LOCATION:  Latitude: 39.885961                
CNTY .                  COUNTY:  MACON                              
STAT .                   STATE:  ILLINOIS                           
CTRY .                 COUNTRY:  USA                                
SRVC .         SERVICE COMPANY:  Schlumberger                       
LATI .DEG             LATITUDE:  39° 53' 9.46" N                    
LONG .DEG            LONGITUDE:  88° 53' 16.958" W                  
API  .              API NUMBER:  12-115-23713-00                    
DATE .                LOG DATE:  03-May-2015
UWI  .          UNIQUE WELL ID:                                     
#-----------------------------------------------------------------------------
~PARAMETER INFORMATION
#MNEM.UNIT    VALUE                      DESCRIPTION
#---- -----   --------------------       ------------------------
CN   .        ADM COMPANY                :Company Name
WN   .        CCS#2                      :Well Name
FN   .        WILDCAT                    :Field Name
FL   .        Latitude  39.885961        :Field Location
FL1  .        Longitude  -88.888044      :Field Location, Line 1
COUN .        MACON                      :County or Parish
STAT .        ILLINOIS                   :State or Province
NATI .        USA                        :Nation
DATE .        03-May-2015                :Tools Above Rotary Table Date
APIN .        12-115-23713-00            :API Well Number
SECT .        32                         :Section
TOWN .        17N                        :Township
RANG .        3E                         :Range
DMF  .        KB                         :Drilling Measured From (Name of Drilling Elevation Reference)
LMF  .        KB                         :Logging Measured From (Name of Logging Elevation Reference)
PDAT .        GL                         :Permanent Datum
ENGI .        Yazan Alhabahbeh           :Engineer s Name
WITN .        Nick Malkewicz             :Witness s Name
LATI .        39° 53' 9.46  N            :Latitude
LONG .        88° 53' 16.958  W          :Longitude
LUL  .        BRADFORD                   :Logging Unit Location
LUN  .        3019                       :Logging Unit Number
RUN  .        2B                         :Run Number
SON  .        D9QJ-00005                 :Service Order Number
BHT  .DEGF     132.00000                 :Bottom Hole Temperature
BS   .IN        17.50000                 :Bit Size
MDEN .G/C3       2.71000                 :Matrix Density for Density Porosity
DFD  .LB/G       9.15000                 :Drilling Fluid Density
DFV  .S         61.00000                 :Drilling Fluid Viscosity
DFL  .C3      -999.25000                 :Drilling Fluid Loss
RMFS .OHMM       0.16000                 :Resistivity of Mud Filtrate Sample
EKB  .F        691.19995                 :Elevation of Kelly Bushing
EGL  .F        675.69995                 :Elevation of Ground Level
BLI  .F       5252.00000                 :Bottom Log Interval
BSAL .PPM     14700.00000                :Borehole Salinity
FLEV .F          8.00000                 :Depth of Drilling Fluid Level to LMF (Log Measured From)
MCST .DEGF      74.30000                 :Mudcake Sample Temperature
MFST .DEGF      72.50000                 :Mud Filtrate Sample Temperature
MRT  .DEGF     135.00000                 :Maximum Recorded Temperature
MST  .DEGF      73.50000                 :Mud Sample Temperature
RMCS .OHMM       0.26600                 :Resistivity of Mud Cake Sample
RMS  .OHMM       0.19000                 :Resistivity of Mud Sample
RW   .OHMM       1.00000                 :Connate Water Resistivity
TDD  .F       5252.00000                 :Driller Total Depth
TDL  .F       5252.00000                 :Logger Total Depth
TLI  .F        200.00000                 :Top Log Interval
HIDE .        WILDCAT                    :Header Identifier
MATR .        LIME                       :Rock Matrix for Neutron Porosity Corrections
FNUM .           1.00000                 :F-Numerator for Formation Factor Formula
FEXP .           2.00000                 :Exponent "m" for Formation Factor Formula
DFT  .        SALT WATER                 :Drilling Fluid Type
DFPH .          11.00000                 :Drilling Fluid pH
MCSS .        Calculated                 :Mudcake Sample Source
MFSS .        Calculated                 :Mud Filtrate Sample Source
FD   .G/C3       1.00000                 :Fluid Density
MSS  .        Active Tank                :Mud Sample Source
OS1  .                                   :Other Services Line 1
OS2  .                                   :Other Services Line 2
OS3  .                                   :Other Services Line 3
OS4  .                                   :Other Services Line 4
OS5  .                                   :Other Services Line 5
R1   .        THANKS FOR CHOOSING

SCHLUMBERGER!!! :Remarks Line 1
R2   .        MATRIX  LIMESTONE          :Remarks Line 2
R3   .        MATRIX DENSITY  2.71 G/CC  :Remarks Line 3
R4   .        All WELL PROPERTIES PROVIDED BY

CLIENT . :Remarks Line 4
R5   .        ALL SCALES ON PRESENTATIONS AS PER

CLIENT REQUEST :Remarks Line 5
R6   .        Temp recorded by sensors inside the tool . :Remarks Line 6
R7   .                                   :Remarks Line 7
R8   .                                   :Remarks Line 8
TCS  .        04 45 00                   :Time Circulation Stopped
TLAB .        22 39 00                   :Time Logger At Bottom
EPD  .C3         675.699951              :Elevation of Permanent Datum above Mean Sea Level
APD  .F          15.500000               :Elevation of Depth Reference (LMF) above Permanent Datum
#-----------------------------------------------------------------------------
~CURVE INFORMATION
#MNEM.UNIT   API CODE                                  DESCRIPTION
#---- -----  --------                                  -----------------------
DEPT .F                                                :DEPTH (BOREHOLE) {F12.4}
C1   .IN                                               :Caliper 1 {F11.4}
C2   .IN                                               :Caliper 2 {F11.4}
CDF  .LBF                                              :Calibrated Downhole Force {F11.4}
CTEM .DEGF                                             :Cartridge Temperature {F11.4}
DCAL .IN                                               :Differential Caliper {F11.4}
DEVI .DEG                                              :Hole Deviation {F11.4}
DEVIM.DEG                                              :Memorized Deviation {F11.4}
DTCO .US/F                                             :Delta-T Compressional {F11.4}
DTSM .US/F                                             :Delta-T Shear {F11.4}
ED   .F                                                :East Departure {F11.4}
GR_EDTC.GAPI                                           :Gamma Ray {F11.4}
GTEM .DEGF                                             :Generalized Borehole Temperature {F11.4}
HAZI .DEG                                              :Hole Azimuth Relative to True North {F11.4}
HAZIM.DEG                                              :Hole Azimuth Relative to True North {F11.4}
ITT  .S                                                :Integrated Transit Time {F11.4}
ND   .F                                                :North Departure {F11.4}
P1AZ .DEG                                              :Pad 1 Azimuth in Horizontal Plane (0 = True North) {F11.4}
PR   .                                                 :Poisson s Ratio {F11.4}
RB   .DEG                                              :Relative Bearing {F11.4}
SDEV .DEG                                              :Sonde Deviation {F11.4}
SDEVM.DEG                                              :Sonde Deviation {F11.4}
SPHI .CFCF                                             :Sonic Porosity {F11.4}
STIT .F                                                :Stuck Tool Indicator, Total {F11.4}
TENS .LBF                                              :Cable Tension {F11.4}
#-----------------------------------------------------------------------------
# 
#      DEPT         C1         C2        CDF        CTEM       DCAL       DEVI      DEVIM       DTCO       DTSM        ED      GR_EDTC      GTEM       HAZI      HAZIM       ITT         ND        P1AZ        PR         RB        SDEV      SDEVM       SPHI       STIT       TENS
#
~A  
     23.5000     4.0366     4.0072   236.1705   129.9765     0.0000     0.1626  -999.2500  -999.2500  -999.2500     0.0000  -999.2500    68.2864    25.9484    25.9484     0.3068     0.0000    61.6458  -999.2500    35.6996     0.1625     0.1625  -999.2500     0.0000  1661.2500
     24.0000     4.0366     4.0072   236.1705   129.9765     0.0000     0.1626  -999.2500  -999.2500  -999.2500     0.0000  -999.2500    68.2925    25.9484    25.9484     0.3068     0.0000    61.6458  -999.2500    35.6996     0.1625     0.1625  -999.2500     0.0000  1661.2500
     24.5000     4.0366     4.0072   236.1705   129.9765     0.0000     0.1626  -999.2500  -999.2500  -999.2500     0.0000  -999.2500    68.2986    25.9484    25.9484     0.3068     0.0000    61.6458  -999.2500    35.6996     0.1625     0.1625  -999.2500     0.0000  1661.2500
     25.0000     4.0366     4.0072   236.1705   129.9765     0.0000     0.1626  -999.2500  -999.2500  -999.2500     0.0000  -999.2500    68.3046    25.9484    25.9484     0.3068     0.0000    61.6458  -999.2500    35.6996     0.1625     0.1625  -999.2500     0.0000  1661.2500
     25.5000     4.0366     4.0072   236.1705   129.9765     0.0000     0.1626  -999.2500  -999.2500  -999.2500     0.0000  -999.2500    68.3107    25.9484    25.9484     0.3068     0.0000    61.6458  -999.2500    35.6996     0.1625     0.1625  -999.2500     0.0000  1661.2500
     26.0000     4.0366     4.0072   236.1705   129.9765     0.0000     0.1626  -999.2500  -999.2500  -999.2500     0.0000  -999.2500    68.3168    25.9484    25.9484     0.3068     0.0000    61.6458  -999.2500    35.6996     0.1625     0.1625  -999.2500     0.0000  1661.2500
     26.5000     4.0366     4.0072   236.1705   129.9765     0.0000     0.1626  -999.2500  -999.2500  -999.2500     0.0000  -999.2500    68.3229    25.9484    25.9484     0.3068     0.0000    61.6458  -999.2500    35.6996     0.1625     0.1625  -999.2500     0.0000  1661.2500
     27.0000     4.0366     4.0072   236.1705   129.9765     0.0000     0.1626  -999.2500  -999.2500  -999.2500     0.0000  -999.2500    68.3290    25.9484    25.9484     0.3068     0.0000    61.6458  -999.2500    35.6996     0.1625     0.1625  -999.2500     0.0000  1661.2500
     27.5000     4.0366     4.0072   236.1705   129.9765     0.0000     0.1626  -999.2500  -999.2500  -999.2500     0.0000  -999.2500    68.3351    25.9484    25.9484     0.3068     0.0000    61.6458  -999.2500    35.6996     0.1625     0.1625  -999.2500     0.0000  1661.2500
     28.0000     4.0366     4.0072   236.1705   129.9765     0.0000     0.1626  -999.2500  -999.2500  -999.2500     0.0000  -999.2500    68.3412    25.9484    25.9484     0.3068     0.0000    61.6458  -999.2500    35.6996     0.1625     0.1625  -999.2500     0.0000  1661.2500
     28.5000     4.0366     4.0072   236.1705   129.9765     0.0000     0.1626  -999.2500  -999.2500  -999.2500     0.0000  -999.2500    68.3473    25.9484    25.9484     0.3068     0.0000    61.6458  -999.2500    35.6996     0.1625     0.1625  -999.2500     0.0000  1661.2500
     29.0000     4.0366     4.0072   236.1705   129.9765     0.0000     0.1626  -999.2500  -999.2500  -999.2500     0.0000  -999.2500    68.3534    25.9484    25.9484     0.3068     0.0000    61.6458  -999.2500    35.6996     0.1625     0.1625  -999.2500     0.0000  1661.2500
     29.5000     4.0366     4.0072   236.1705   129.9765     0.0000     0.1626  -999.2500  -999.2500  -999.2500     0.0000  -999.2500    68.3595    25.9484    25.9484     0.3068     0.0000    61.6458  -999.2500    35.6996     0.1625     0.1625  -999.2500     0.0000  1661.2500
     30.0000     4.0366     4.0072   236.1705   129.9765     0.0000     0.1626  -999.2500  -999.2500  -999.2500     0.0000  -999.2500    68.3656    25.9484    25.9484     0.3068     0.0000    61.6458  -999.2500    35.6996     0.1625     0.1625  -999.2500     0.0000  1661.2500
     30.5000     4.0366     4.0072   236.1705   129.9765     0.0000     0.1626  -999.2500  -999.2500  -999.2500     0.0000  -999.2500    68.3717    25.9484    25.9484     0.3068     0.0000    61.6458  -999.2500    35.6996     0.1625     0.1625  -999.2500     0.0000  1661.2500
     31.0000     4.0366     4.0072   236.1705   129.9765     0.0000     0.1626  -999.2500  -999.2500  -999.2500     0.0000  -999.2500    68.3778    25.9484    25.9484     0.3068     0.0000    61.6458  -999.2500    35.6996     0.1625     0.1625  -999.2500     0.0000  1661.2500
     31.5000     4.0366     4.0072   236.1705   129.9765     0.0000     0.1626  -999.2500  -999.2500  -999.2500     0.0000    47.1618    68.3839    25.9484    25.9484     0.3068     0.0000    61.6458  -999.2500    35.6996     0.1625     0.1625  -999.2500     0.0000  1661.2500
     32.0000     4.0366     4.0072   236.1705   129.9765     0.0000     0.1626  -999.2500  -999.2500  -999.2500     0.0000    49.1492    68.3899    25.9484    25.9484     0.3068     0.0000    61.6458  -999.2500    35.6996     0.1625     0.1625  -999.2500     0.0000  1661.2500
     32.5000     4.0366     4.0072   236.1705   129.9765     0.0000     0.1626  -999.2500  -999.2500  -999.2500     0.0000    48.2739    68.3960    25.9484    25.9484     0.3068     0.0000    61.6458  -999.2500    35.6996     0.1625     0.1625  -999.2500     0.0000  1661.2500
     33.0000     4.0366     4.0072   236.1705   129.9765     0.0000     0.1626  -999.2500  -999.2500  -999.2500     0.0000    48.7588    68.4021    25.9484    25.9484     0.3068     0.0000    61.6458  -999.2500    35.6996     0.1625     0.1625  -999.2500     0.0000  1661.2500
     33.5000     4.0366     4.0072   236.1705   129.9765     0.0000     0.1626  -999.2500  -999.2500  -999.2500     0.0000    45.8728    68.4082    25.9484    25.9484     0.3068     0.0000    61.6458  -999.2500    35.6996     0.1625     0.1625  -999.2500     0.0000  1661.2500
     34.0000     4.0366     4.0072   236.1705   129.9765     0.0000     0.1626  -999.2500  -999.2500  -999.2500     0.0000    46.7470    68.4143    25.9484    25.9484     0.3068     0.0000    61.6458  -999.2500    35.6996     0.1625     0.1625  -999.2500     0.0000  1661.2500
     34.5000     4.0366     4.0072   236.1705   129.9765     0.0000     0.1626  -999.2500  -999.2500  -999.2500     0.0000    43.4718    68.4204    25.9484    25.9484     0.3068     0.0000    61.6458  -999.2500    35.6996     0.1625     0.1625  -999.2500     0.0000  1661.2500
     35.0000     4.0366     4.0072   236.1705   129.9765     0.0000     0.1626  -999.2500  -999.2500  -999.2500     0.0000    39.0961    68.4265    25.9484    25.9484     0.3068     0.0000    61.6458  -999.2500    35.6996     0.1625     0.1625  -999.2500     0.0000  1661.2500
     35.5000     4.0366     4.0072   236.1705   129.9765     0.0000     0.1626  -999.2500  -999.2500  -999.2500     0.0000    34.1668    68.4326    25.9484    25.9484     0.3068     0.0000    61.6458  -999.2500    35.6996     0.1625     0.1625  -999.2500     0.0000  1661.2500
     36.0000     4.0366     4.0072   236.1705   129.9765     0.0000     0.1626  -999.2500  -999.2500  -999.2500     0.0000    32.5525    68.4387    25.9484    25.9484     0.3068     0.0000    61.6458  -999.2500    35.6996     0.1625     0.1625  -999.2500     0.0000  1661.2500
     36.5000     4.0366     4.0072   236.1705   129.9765     0.0000     0.1626  -999.2500  -999.2500  -999.2500     0.0000    34.2173    68.4448    25.9484    25.9484     0.3068     0.0000    61.6458  -999.2500    35.6996     0.1625     0.1625  -999.2500     0.0000  1661.2500
     37.0000     4.0366     4.0072   236.1705   129.9765     0.0000     0.1626  -999.2500  -999.2500  -999.2500     0.0000    35.6553    68.4509    25.9484    25.9484     0.3068     0.0000    61.6458  -999.2500    35.6996     0.1625     0.1625  -999.2500     0.0000  1661.2500
     37.5000     4.0366     4.0072   236.1705   129.9765     0.0000     0.1626  -999.2500  -999.2500  -999.2500     0.0000    37.4911    68.4570    25.9484    25.9484     0.3068     0.0000    61.6458  -999.2500    35.6996     0.1625     0.1625  -999.2500     0.0000  1661.2500
