~VERSION INFORMATION
VERS.           1.2   :CWLS Log ASCII Standard - VERSION 1.2
WRAP.           NO    :One Line per depth step
PROD.  Schlumberger   :LAS Producer
PROG.  DLIS to ASCII 2.3                               :LAS Program name and version
CREA.        2015/05/06 16:26                          :LAS Creation date {YYYY/MM/DD hh:mm}
DLIS_CREA.  2015-May-04 11:59                          :DLIS Creation date and time {YYYY-MMM-DD hh:mm}
SOURCE.     301ad50a-0e97-4ef4-9f57-5a70afd84532       :DLIS File Name
#--------------------------------------------------
~WELL INFORMATION
#MNEM.UNIT      DATA             DESCRIPTION
#---- ------ --------------   -----------------------------
STRT .F      23.5000         :START DEPTH     
STOP .F      5264.5000       :STOP DEPTH     
STEP .F       0.5000         :STEP       
NULL .          -999.25      :NULL VALUE
COMP .                 COMPANY:  ADM COMPANY                        
WELL .                    WELL:  CCS#2                              
FLD  .                   FIELD:  WILDCAT                            
LOC  .                LOCATION:  Latitude: 39.885961                
CNTY .                  COUNTY:  MACON                              
STAT .                   STATE:  ILLINOIS                           
CTRY .                 COUNTRY:  USA                                
SRVC .         SERVICE COMPANY:  Schlumberger                       
LATI .DEG             LATITUDE:  39° 53' 9.46" N                    
LONG .DEG            LONGITUDE:  88° 53' 16.958" W                  
API  .              API NUMBER:  12-115-23713-00                    
DATE .                LOG DATE:  03-May-2015
UWI  .          UNIQUE WELL ID:                                     
#-----------------------------------------------------------------------------
~PARAMETER INFORMATION
#MNEM.UNIT    VALUE                      DESCRIPTION
#---- -----   --------------------       ------------------------
CN   .        ADM COMPANY                :Company Name
WN   .        CCS#2                      :Well Name
FN   .        WILDCAT                    :Field Name
FL   .        Latitude  39.885961        :Field Location
FL1  .        Longitude  -88.888044      :Field Location, Line 1
COUN .        MACON                      :County or Parish
STAT .        ILLINOIS                   :State or Province
NATI .        USA                        :Nation
DATE .        03-May-2015                :Tools Above Rotary Table Date
APIN .        12-115-23713-00            :API Well Number
SECT .        32                         :Section
TOWN .        17N                        :Township
RANG .        3E                         :Range
DMF  .        KB                         :Drilling Measured From (Name of Drilling Elevation Reference)
LMF  .        KB                         :Logging Measured From (Name of Logging Elevation Reference)
PDAT .        GL                         :Permanent Datum
ENGI .        Yazan Alhabahbeh           :Engineer s Name
WITN .        Nick Malkewicz             :Witness s Name
LATI .        39° 53' 9.46  N            :Latitude
LONG .        88° 53' 16.958  W          :Longitude
LUL  .        BRADFORD                   :Logging Unit Location
LUN  .        3019                       :Logging Unit Number
RUN  .        2B                         :Run Number
SON  .        D9QJ-00005                 :Service Order Number
BHT  .DEGF     132.00000                 :Bottom Hole Temperature
BS   .IN        17.50000                 :Bit Size
MDEN .G/C3       2.71000                 :Matrix Density for Density Porosity
DFD  .LB/G       9.15000                 :Drilling Fluid Density
DFV  .S         61.00000                 :Drilling Fluid Viscosity
DFL  .C3      -999.25000                 :Drilling Fluid Loss
RMFS .OHMM       0.16000                 :Resistivity of Mud Filtrate Sample
EKB  .F        691.19995                 :Elevation of Kelly Bushing
EGL  .F        675.69995                 :Elevation of Ground Level
BLI  .F       5252.00000                 :Bottom Log Interval
BSAL .PPM     14700.00000                :Borehole Salinity
FLEV .F          8.00000                 :Depth of Drilling Fluid Level to LMF (Log Measured From)
MCST .DEGF      74.30000                 :Mudcake Sample Temperature
MFST .DEGF      72.50000                 :Mud Filtrate Sample Temperature
MRT  .DEGF     135.00000                 :Maximum Recorded Temperature
MST  .DEGF      73.50000                 :Mud Sample Temperature
RMCS .OHMM       0.26600                 :Resistivity of Mud Cake Sample
RMS  .OHMM       0.19000                 :Resistivity of Mud Sample
RW   .OHMM       1.00000                 :Connate Water Resistivity
TDD  .F       5252.00000                 :Driller Total Depth
TDL  .F       5252.00000                 :Logger Total Depth
TLI  .F        200.00000                 :Top Log Interval
HIDE .        WILDCAT                    :Header Identifier
MATR .        LIME                       :Rock Matrix for Neutron Porosity Corrections
FNUM .           1.00000                 :F-Numerator for Formation Factor Formula
FEXP .           2.00000                 :Exponent "m" for Formation Factor Formula
DFT  .        SALT WATER                 :Drilling Fluid Type
DFPH .          11.00000                 :Drilling Fluid pH
MCSS .        Calculated                 :Mudcake Sample Source
MFSS .        Calculated                 :Mud Filtrate Sample Source
FD   .G/C3       1.00000                 :Fluid Density
MSS  .        Active Tank                :Mud Sample Source
OS1  .                                   :Other Services Line 1
OS2  .                                   :Other Services Line 2
OS3  .                                   :Other Services Line 3
OS4  .                                   :Other Services Line 4
OS5  .                                   :Other Services Line 5
R1   .        THANKS FOR CHOOSING

SCHLUMBERGER!!! :Remarks Line 1
R2   .        MATRIX  LIMESTONE          :Remarks Line 2
R3   .        MATRIX DENSITY  2.71 G/CC  :Remarks Line 3
R4   .        All WELL PROPERTIES PROVIDED BY

CLIENT . :Remarks Line 4
R5   .        ALL SCALES ON PRESENTATIONS AS PER

CLIENT REQUEST :Remarks Line 5
R6   .        Temp recorded by sensors inside the tool . :Remarks Line 6
R7   .                                   :Remarks Line 7
R8   .                                   :Remarks Line 8
TCS  .        04 45 00                   :Time Circulation Stopped
TLAB .        22 39 00                   :Time Logger At Bottom
EPD  .C3         675.699951              :Elevation of Permanent Datum above Mean Sea Level
APD  .F          15.500000               :Elevation of Depth Reference (LMF) above Permanent Datum
#-----------------------------------------------------------------------------
~CURVE INFORMATION
#MNEM.UNIT   API CODE                                  DESCRIPTION
#---- -----  --------                                  -----------------------
DEPT .F                                                :DEPTH (BOREHOLE) {F12.4}
C1   .IN                                               :Caliper 1 {F11.4}
C2   .IN                                               :Caliper 2 {F11.4}
CDF  .LBF                                              :Calibrated Downhole Force {F11.4}
CTEM .DEGF                                             :Cartridge Temperature {F11.4}
DCAL .IN                                               :Differential Caliper {F11.4}
DEVI .DEG                                              :Hole Deviation {F11.4}
DEVIM.DEG                                              :Memorized Deviation {F11.4}
DTCO .US/F                                             :Delta-T Compressional {F11.4}
DTSM .US/F                                             :Delta-T Shear {F11.4}
ED   .F                                                :East Departure {F11.4}
GR_EDTC.GAPI                                           :Gamma Ray {F11.4}
GTEM .DEGF                                             :Generalized Borehole Temperature {F11.4}
HAZI .DEG                                              :Hole Azimuth Relative to True North {F11.4}
HAZIM.DEG                                              :Hole Azimuth Relative to True North {F11.4}
ITT  .S                                                :Integrated Transit Time {F11.4}
ND   .F                                                :North Departure {F11.4}
P1AZ .DEG                                              :Pad 1 Azimuth in Horizontal Plane (0 = True North) {F11.4}
PR   .                                                 :Poisson s Ratio {F11.4}
RB   .DEG                                              :Relative Bearing {F11.4}
SDEV .DEG                                              :Sonde Deviation {F11.4}
SDEVM.DEG                                              :Sonde Deviation {F11.4}
SPHI .CFCF                                             :Sonic Porosity {F11.4}
STIT .F                                                :Stuck Tool Indicator, Total {F11.4}
TENS .LBF                                              :Cable Tension {F11.4}
#-----------------------------------------------------------------------------
# 
#      DEPT         C1         C2        CDF        CTEM       DCAL       DEVI      DEVIM       DTCO       DTSM        ED      GR_EDTC      GTEM       HAZI      HAZIM       ITT         ND        P1AZ        PR         RB        SDEV      SDEVM       SPHI       STIT       TENS
#
~A  
# ...
   3851.5000    19.6402    18.3206   240.0553   139.8588     1.1645     0.7962     0.7614    58.8162    96.7246     0.0000    39.1029   114.9337   268.1560   265.5210     0.0713     0.0000   264.0646     0.2067   355.9091     0.8122     0.7760     0.0212     0.0000  2627.0000
   3852.0000    19.6402    18.2945   242.1278   139.8588     1.1819     0.7910     0.7605    58.5288    96.0054     0.0000    36.3487   114.9398   267.5071   266.0020     0.0713     0.0000   263.8143     0.2042   356.3074     0.8067     0.7750     0.0190     0.0000  2623.7500
   3852.5000    19.6481    18.3057   240.6889   139.8588     1.1792     0.7883     0.7590    58.2795    95.7605     0.0000    37.8081   114.9459   266.9722   266.3316     0.0713     0.0000   263.3543     0.2059   356.3826     0.8039     0.7735     0.0171     0.0000  2625.5002
   3853.0000    19.6284    18.3206   241.7077   139.8588     1.1641     0.7841     0.7584    58.0291    94.3339     0.0000    40.3747   114.9520   266.3767   266.7311     0.0712     0.0000   262.9731     0.1956   356.5965     0.7995     0.7728     0.0153     0.0000  2645.2500
   3853.5000    19.6402    18.3094   242.1728   139.8588     1.1525     0.7817     0.7589    58.0323    94.3529     0.0000    43.1436   114.9581   265.7743   267.1287     0.0712     0.0000   262.6573     0.1958   356.8836     0.7970     0.7734     0.0153     0.0000  2621.7500
   3854.0000    19.6402    18.3243   242.1728   139.8588     1.1789     0.7780     0.7599    57.7387    94.2717     0.0000    43.4377   114.9642   265.2394   267.3777     0.0712     0.0000   262.2801     0.1998   357.0406     0.7932     0.7743     0.0131     0.0000  2612.0000
   3854.5000    19.6323    18.2871   239.8234   139.8588     1.1819     0.7756     0.7603    57.5197    94.6434     0.0000    43.3830   114.9703   264.7214   267.7001     0.0712     0.0000   261.7773     0.2072   357.0561     0.7907     0.7747     0.0114     0.0000  2593.0000
   3855.0000    19.6441    18.2796   237.7325   139.8588     1.1789     0.7746     0.7618    57.4416    93.9212     0.0000    45.4247   114.9764   264.1320   267.7390     0.0711     0.0000   261.2982     0.2012   357.1672     0.7896     0.7763     0.0108     0.0000  2588.6667
   3855.5000    19.6402    18.2871   239.3906   139.8588     1.1645     0.7751     0.7629    57.7640    93.3806     0.0000    43.9708   114.9825   263.8147   268.0378     0.0711     0.0000   260.8293     0.1901   357.0150     0.7901     0.7775     0.0133     0.0000  2565.3333
   3856.0000    19.6481    18.2908   240.4571   139.8588     1.1666     0.7734     0.7654    57.6437    93.4097     0.0000    45.3148   114.9886   263.3842   268.2014     0.0711     0.0000   260.1229     0.1925   356.7401     0.7884     0.7801     0.0124     0.0000  2599.0000
   3856.5000    19.6323    18.2833   239.8655   139.8588     1.1638     0.7722     0.7673    57.9112    93.6432     0.0000    42.0264   114.9947   263.0587   268.4452     0.0710     0.0000   259.3385     0.1904   356.2811     0.7872     0.7820     0.0144     0.0000  2593.5000
   3857.0000    19.6402    18.2349   239.4061   139.8588     1.1641     0.7710     0.7683    58.1895    93.2731     0.0000    40.2382   115.0008   262.9420   268.7125     0.0710     0.0000   258.5991     0.1814   355.6571     0.7859     0.7831     0.0165     0.0000  2631.5000
   3857.5000    19.6874    18.2312   236.4075   139.8588     1.1940     0.7708     0.7689    57.9776    93.4212     0.0000    38.9160   115.0069   262.8912   269.1297     0.0710     0.0000   258.0583     0.1868   355.1670     0.7858     0.7837     0.0149     0.0000  2572.0000
   3858.0000    19.6914    18.2796   239.2051   139.8588     1.1490     0.7689     0.7690    58.2084    92.8627     0.0000    35.2372   115.0129   262.9257   269.7026     0.0710     0.0000   257.2645     0.1764   354.3394     0.7837     0.7839     0.0166     0.0000  2652.6667
   3858.5000    19.6953    18.2312   241.6754   139.8588     1.1638     0.7672     0.7681    58.3166    92.7219     0.0000    35.9638   115.0190   263.0489   270.4312     0.0709     0.0000   256.4097     0.1728   353.3621     0.7820     0.7829     0.0174     0.0000  2609.5000
   3859.0000    19.6953    18.2908   239.1742   139.8588     1.1490     0.7662     0.7667    58.5560    93.2265     0.0000    35.6703   115.0251   263.2894   271.4002     0.0709     0.0000   255.1046     0.1742   351.8156     0.7810     0.7815     0.0192     0.0000  2623.7500
   3859.5000    19.6953    18.2908   238.7829   139.8588     1.1666     0.7655     0.7658    58.4720    93.1043     0.0000    40.0489   115.0312   263.6288   272.2674     0.0709     0.0000   254.6221     0.1743   350.9930     0.7802     0.7805     0.0186     0.0000  2631.5002
   3860.0000    19.6402    18.2945   236.5002   139.8588     1.1638     0.7643     0.7643    58.5228    92.9295     0.0000    42.7978   115.0373   264.0548   273.3614     0.0708     0.0000   254.2093     0.1714   350.1554     0.7789     0.7789     0.0190     0.0000  2654.3333
   3860.5000    19.6953    18.2945   238.9578   139.8588     1.1643     0.7638     0.7643    58.6047    92.6456     0.0000    45.5236   115.0434   264.6763   274.5471     0.0708     0.0000   253.9510     0.1665   349.2753     0.7784     0.7789     0.0196     0.0000  2616.3333
   3861.0000    19.6993    18.3169   240.1079   139.8588     1.1789     0.7631     0.7679    58.0636    92.5812     0.0000    43.9869   115.0495   265.1606   275.7324     0.0708     0.0000   253.5787     0.1758   348.4190     0.7777     0.7826     0.0155     0.0000  2608.7500
   3861.5000    19.6993    18.2871   239.3752   139.8588     1.1791     0.7615     0.7701    57.9110    92.7831     0.0000    41.8457   115.0556   265.6860   276.5798     0.0708     0.0000   252.8780     0.1809   347.1928     0.7760     0.7850     0.0144     0.0000  2610.0000
   3862.0000    19.6874    18.3392   241.0128   139.8588     1.1638     0.7605     0.7754    57.9852    92.2794     0.0000    41.3825   115.0617   266.0020   277.6285     0.0707     0.0000   252.6355     0.1738   346.6353     0.7750     0.7904     0.0149     0.0000  2618.0000
   3862.5000    19.6953    18.3467   240.2253   139.8588     1.1941     0.7596     0.7792    57.8657    92.2459     0.0000    42.9990   115.0678   266.4901   278.5706     0.0707     0.0000   252.4288     0.1756   345.9391     0.7740     0.7944     0.0140     0.0000  2631.0000
   3863.0000    19.6953    18.3206   239.2677   139.8588     1.1669     0.7592     0.7831    58.2957    92.1386     0.0000    42.8027   115.0739   266.8179   279.3661     0.0707     0.0000   252.1978     0.1662   345.3799     0.7736     0.7984     0.0173     0.0000  2612.0000
   3863.5000    19.7032    18.3020   239.8234   139.8588     1.2112     0.7601     0.7888    57.8131    91.6670     0.0000    38.7882   115.0800   267.2213   280.1395     0.0706     0.0000   252.1075     0.1698   344.8860     0.7745     0.8043     0.0136     0.0000  2580.0000
   3864.0000    19.6953    18.3243   236.0211   139.8588     1.1791     0.7599     0.7900    58.2802    91.4720     0.0000    35.3853   115.0861   267.3777   280.8023     0.0706     0.0000   252.0919     0.1583   344.7149     0.7743     0.8056     0.0171     0.0000  2595.2500
   3864.5000    19.7386    18.3280   239.8817   139.8588     1.1791     0.7603     0.7924    58.0716    91.1665     0.0000    31.5127   115.0922   267.7001   281.4019     0.0706     0.0000   251.7202     0.1586   344.0217     0.7747     0.8081     0.0156     0.0000  2560.5000
   3865.0000    19.7189    18.3467   237.0876   139.8588     1.1638     0.7621     0.7927    58.1084    88.9305     0.0000    31.0642   115.0983   267.8537   282.2072     0.0706     0.0000   251.5191     0.1275   343.6671     0.7767     0.8084     0.0159     0.0000  2536.6667
   3865.5000    19.6953    18.2871   238.7723   139.8588     1.1668     0.7638     0.7925    58.2638    91.0817     0.0000    32.3697   115.1043   268.0406   282.9595     0.0705     0.0000   251.2051     0.1537   343.1663     0.7784     0.8081     0.0170     0.0000  2606.6667
