~VERSION INFORMATION
VERS.           1.2   :CWLS Log ASCII Standard - VERSION 1.2
WRAP.           NO    :One Line per depth step
PROD.  Schlumberger   :LAS Producer
PROG.  DLIS to ASCII 2.3                               :LAS Program name and version
CREA.        2015/05/30 05:44                          :LAS Creation date {YYYY/MM/DD hh:mm}
DLIS_CREA.  2015-May-29 22:59                          :DLIS Creation date and time {YYYY-MMM-DD hh:mm}
SOURCE.     3feb4549-4107-45e4-8f62-928498d876c9       :DLIS File Name
#--------------------------------------------------
~WELL INFORMATION
#MNEM.UNIT      DATA             DESCRIPTION
#---- ------ --------------   -----------------------------
STRT .F      5218.5000       :START DEPTH     
STOP .F      7211.0000       :STOP DEPTH     
STEP .F       0.5000         :STEP       
NULL .          -999.25      :NULL VALUE
COMP .                 COMPANY:  ADM COMPANY                        
WELL .                    WELL:  CCS#2                              
FLD  .                   FIELD:  WILDCAT                            
LOC  .                LOCATION:  LAT 39.885961                      
CNTY .                  COUNTY:  MACON                              
STAT .                   STATE:  ILLINOIS                           
CTRY .                 COUNTRY:  USA                                
SRVC .         SERVICE COMPANY:  Schlumberger                       
LATI .DEG             LATITUDE:  39.885961 degrees                  
LONG .DEG            LONGITUDE:  -88.888044 degrees                 
API  .              API NUMBER:  12-115-23713-00                    
DATE .                LOG DATE:  29-May-2015
UWI  .          UNIQUE WELL ID:  12-115-23713-00                    
#-----------------------------------------------------------------------------
~PARAMETER INFORMATION
#MNEM.UNIT    VALUE                      DESCRIPTION
#---- -----   --------------------       ------------------------
CN   .        ADM COMPANY                :Company Name
WN   .        CCS#2                      :Well Name
FN   .        WILDCAT                    :Field Name
FL   .        LAT 39.885961              :Field Location
FL1  .        LONG 39.885961             :Field Location, Line 1
COUN .        MACON                      :County or Parish
STAT .        ILLINOIS                   :State or Province
NATI .        USA                        :Nation
DATE .        29-May-2015                :Tools Above Rotary Table Date
APIN .        12-115-23713-00            :API Well Number
SECT .        32                         :Section
TOWN .        17N                        :Township
RANG .        3E                         :Range
DMF  .        KB                         :Drilling Measured From (Name of Drilling Elevation Reference)
LMF  .        KB                         :Logging Measured From (Name of Logging Elevation Reference)
PDAT .        GL                         :Permanent Datum
ENGI .        H. DIMITROV / M. MOHAMMED  :Engineer s Name
WITN .        NICK MALKEWICZ             :Witness s Name
LATI .        39.885961 degrees          :Latitude
LONG .        -88.888044 degrees         :Longitude
LUL  .        BRADFORD                   :Logging Unit Location
LUN  .        3003                       :Logging Unit Number
RUN  .        Run 3C                     :Run Number
SON  .                                   :Service Order Number
BHT  .DEGF     127.00000                 :Bottom Hole Temperature
BS   .IN        12.25000                 :Bit Size
DFD  .LB/G       9.20000                 :Drilling Fluid Density
DFV  .S         66.00000                 :Drilling Fluid Viscosity
DFL  .C3         7.60000                 :Drilling Fluid Loss
RMFS .OHMM       0.17000                 :Resistivity of Mud Filtrate Sample
EKB  .F        691.19995                 :Elevation of Kelly Bushing
EGL  .F        675.69995                 :Elevation of Ground Level
BLI  .F       7192.00000                 :Bottom Log Interval
BSAL .PPM     15100.00000                :Borehole Salinity
FLEV .F          8.00000                 :Depth of Drilling Fluid Level to LMF (Log Measured From)
MCST .DEGF      72.50000                 :Mudcake Sample Temperature
MFST .DEGF      72.50000                 :Mud Filtrate Sample Temperature
MRT  .DEGF     127.00000                 :Maximum Recorded Temperature
MST  .DEGF      72.50000                 :Mud Sample Temperature
RMCS .OHMM       0.14000                 :Resistivity of Mud Cake Sample
RMS  .OHMM       0.20000                 :Resistivity of Mud Sample
RW   .OHMM       1.00000                 :Connate Water Resistivity
TDD  .F       7193.00049                 :Driller Total Depth
TDL  .F       7193.00049                 :Logger Total Depth
TLI  .F       5240.00000                 :Top Log Interval
HIDE .        WILDCAT                    :Header Identifier
MATR .        SAND                       :Rock Matrix for Neutron Porosity Corrections
FNUM .           1.00000                 :F-Numerator for Formation Factor Formula
FEXP .           2.00000                 :Exponent "m" for Formation Factor Formula
DFT  .        Fresh Water                :Drilling Fluid Type
DFPH .          11.50000                 :Drilling Fluid pH
MCSS .        Calculated                 :Mudcake Sample Source
MFSS .        Calculated                 :Mud Filtrate Sample Source
FD   .LB/G       8.34540                 :Fluid Density
MSS  .        Active Tank                :Mud Sample Source
OS1  .                                   :Other Services Line 1
OS2  .                                   :Other Services Line 2
OS3  .                                   :Other Services Line 3
OS4  .                                   :Other Services Line 4
OS5  .                                   :Other Services Line 5
R1   .        THANKS FOR CHOOSING SCHLUMBERGER!!! :Remarks Line 1
R2   .        All WELL PROPERTIES PROVIDED BY CLIENT :Remarks Line 2
R3   .        ALL SCALES ON PRESENTATIONS AS PER

CLIENT REQUEST :Remarks Line 3
R4   .        MATRIX  SANDSTONE          :Remarks Line 4
R5   .        MATRIX DENSITY  2.65 G/CC  :Remarks Line 5
R6   .        ALL LOGGING INTERVALS AS PER CLIENT REQUEST :Remarks Line 6
R7   .        MRT = 127 DEGF FROM THE THERMOMETER :Remarks Line 7
R8   .                                   :Remarks Line 8
TCS  .        20 00 00                   :Time Circulation Stopped
TLAB .        14 31 00                   :Time Logger At Bottom
EPD  .C3         675.699951              :Elevation of Permanent Datum above Mean Sea Level
APD  .F          15.500000               :Elevation of Depth Reference (LMF) above Permanent Datum
#-----------------------------------------------------------------------------
~CURVE INFORMATION
#MNEM.UNIT   API CODE                                  DESCRIPTION
#---- -----  --------                                  -----------------------
DEPT .F                                                :DEPTH (BOREHOLE) {F12.4}
BFV  .CFCF                                             :Bound Fluid Volume {F11.4}
CBP1 .CFCF                                             :CMR Bin Porosity 1 {F11.4}
CBP2 .CFCF                                             :CMR Bin Porosity 2 {F11.4}
CBP3 .CFCF                                             :CMR Bin Porosity 3 {F11.4}
CBP4 .CFCF                                             :CMR Bin Porosity 4 {F11.4}
CBP5 .CFCF                                             :CMR Bin Porosity 5 {F11.4}
CBP6 .CFCF                                             :CMR Bin Porosity 6 {F11.4}
CBP7 .CFCF                                             :CMR Bin Porosity 7 {F11.4}
CBP8 .CFCF                                             :CMR Bin Porosity 8 {F11.4}
CDF  .LBF                                              :Calibrated Downhole Force {F11.4}
CMFF .CFCF                                             :CMR Free Fluid {F11.4}
CMFF_SIG.CFCF                                          :Standard Deviation of CMR Free Fluid {F11.4}
CMR_PHI_CONV.                                          :CMR Porosity Conversion factor {F11.4}
CMRP_3MS.CFCF                                          :CMR Porosity with T2 values greater than 3 ms {F11.4}
CTEM .DEGF                                             :Cartridge Temperature {F11.4}
DCAL .IN                                               :Differential Caliper {F11.4}
ED   .F                                                :East Departure {F11.4}
GR_EDTC.GAPI                                           :Gamma Ray {F11.4}
GTEM .DEGF                                             :Generalized Borehole Temperature {F11.4}
HCGR .GAPI                                             :HNGS Computed Gamma Ray {F11.4}
HFK  .%                                                :HNGS Formation Potassium Concentration {F11.4}
HSGR .GAPI                                             :HNGS Standard Gamma-Ray {F11.4}
HTHO .PPM                                              :HNGS Formation Thorium Concentration {F11.4}
HURA .PPM                                              :HNGS Formation Uranium Concentration {F11.4}
KSDR .MD                                               :SDR Permeability {F11.4}
KTIM .MD                                               :Timur/Coates Permeability {F11.4}
ND   .F                                                :North Departure {F11.4}
STIT .F                                                :Stuck Tool Indicator, Total {F11.4}
T2LM .MS                                               :T2 Logarithmic Mean {F11.4}
T2LM_SIG.MS                                            :Standard Deviation of T2 Logarithmic Mean {F11.4}
TCMR .CFCF                                             :Total CMR Porosity {F11.4}
TENS .LBF                                              :Cable Tension {F11.4}
#-----------------------------------------------------------------------------
# 
#      DEPT        BFV        CBP1       CBP2       CBP3       CBP4       CBP5       CBP6       CBP7       CBP8       CDF        CMFF     CMFF_SIG  CMR_PHI_CO  CMRP_3MS     CTEM       DCAL        ED      GR_EDTC      GTEM       HCGR       HFK        HSGR       HTHO       HURA       KSDR       KTIM        ND        STIT       T2LM     T2LM_SIG     TCMR       TENS
#                                                                                                                                                   NV
~A  
# ...
   5746.5000     0.0363     0.0066     0.0000     0.0062     0.0235     0.0369     0.0491     0.0203     0.0000  1214.2979     0.1063     0.0038     0.0006     0.1360   124.0471     0.0000    -1.1567    64.5373   115.1452    55.1476     2.2248    64.7965     4.6536     1.2349     7.7504    36.1663    39.8092     0.0000    68.1235  -999.2500     0.1426  2680.8999
   5747.0000     0.0354     0.0056     0.0000     0.0063     0.0235     0.0397     0.0515     0.0197     0.0000  1222.5227     0.1110     0.0038     0.0006     0.1408   124.0471     0.0000    -1.1576    37.9322   115.1493    31.9947     1.2911    37.7403     2.6982     0.7566     9.0971    45.0243    39.8124     0.0000    70.3578  -999.2500     0.1464  2679.1819
   5747.5000     0.0346     0.0060     0.0000     0.0057     0.0228     0.0399     0.0508     0.0197     0.0000  1216.2806     0.1104     0.0039     0.0006     0.1389   124.0471     0.0000    -1.1586    32.2334   115.1534    25.8821     1.0554    30.5296     2.1186     0.5992     8.7167    44.9569    39.8156     0.0000    70.2594  -999.2500     0.1450  2676.0000
   5748.0000     0.0332     0.0049     0.0002     0.0042     0.0239     0.0404     0.0542     0.0177     0.0000  1212.6942     0.1122     0.0039     0.0006     0.1403   124.0471     0.0000    -1.1596    28.9536   115.1575    25.2535     1.0492    29.3158     1.9530     0.5632     9.7392    51.2976    39.8187     0.0000    73.7330  -999.2500     0.1454  2644.0000
   5748.5000     0.0331     0.0026     0.0001     0.0054     0.0249     0.0447     0.0580     0.0153     0.0000  1212.8239     0.1180     0.0040     0.0006     0.1484   124.0471     0.0000    -1.1606    29.5343   115.1616    26.5351     1.1442    30.2212     1.8076     0.5065    12.2263    67.2215    39.8219     0.0000    76.1747  -999.2500     0.1511  2684.0000
   5749.0000     0.0326     0.0009     0.0000     0.0095     0.0222     0.0467     0.0615     0.0147     0.0000  1208.8009     0.1230     0.0040     0.0006     0.1547   124.0471     0.0000    -1.1617    29.3195   115.1657    30.6427     1.3673    34.0496     1.8183     0.5169    14.2901    83.7245    39.8250     0.0000    78.0582  -999.2500     0.1556  2664.0908
   5749.5000     0.0327     0.0001     0.0008     0.0149     0.0169     0.0446     0.0629     0.0156     0.0000  1206.4557     0.1231     0.0039     0.0006     0.1549   124.0471     0.0000    -1.1627    31.9743   115.1698    33.5003     1.5249    37.3712     1.8122     0.6081    14.0877    85.7880    39.8281     0.0000    76.9035  -999.2500     0.1558  2614.9092
   5750.0000     0.0372     0.0000     0.0037     0.0188     0.0146     0.0410     0.0593     0.0152     0.0000  1211.1729     0.1155     0.0039     0.0006     0.1489   124.0471     0.0000    -1.1638    32.2646   115.1739    33.7761     1.5325    37.5872     1.8559     0.6311     9.8213    52.3784    39.8311     0.0000    67.2776  -999.2500     0.1526  2670.3000
   5750.5000     0.0440     0.0000     0.0074     0.0205     0.0161     0.0385     0.0524     0.0139     0.0000  1218.1730     0.1048     0.0038     0.0006     0.1414   124.0471     0.0000    -1.1648    31.5109   115.1780    31.7687     1.4171    34.9325     1.8881     0.5874     6.2506    29.5534    39.8342     0.0000    55.8164  -999.2500     0.1488  2672.0911
   5751.0000     0.0485     0.0000     0.0076     0.0216     0.0192     0.0353     0.0468     0.0114     0.0005  1216.9454     0.0941     0.0038     0.0006     0.1349   124.0471     0.0000    -1.1659    28.1846   115.1821    27.5053     1.2175    30.1635     1.6895     0.4584     4.1375    16.5137    39.8373     0.0000    49.4765  -999.2500     0.1426  2586.7000
   5751.5000     0.0463     0.0000     0.0067     0.0189     0.0206     0.0337     0.0438     0.0099     0.0008  1230.8489     0.0882     0.0038     0.0006     0.1278   124.0471     0.0000    -1.1670    26.0101   115.1862    24.7265     1.0813    27.3507     1.5965     0.4215     3.2691    12.0213    39.8404     0.0000    50.1912  -999.2500     0.1345  2649.5000
   5752.0000     0.0382     0.0008     0.0053     0.0123     0.0199     0.0347     0.0427     0.0103     0.0006  1231.8965     0.0883     0.0038     0.0006     0.1205   124.0471     0.0000    -1.1681    25.3267   115.1903    23.7203     1.0029    26.5356     1.7326     0.4105     3.2763    14.0688    39.8434     0.0000    56.6411  -999.2500     0.1265  2653.0908
   5752.5000     0.0304     0.0035     0.0026     0.0046     0.0198     0.0380     0.0410     0.0124     0.0000  1224.3579     0.0914     0.0038     0.0006     0.1157   124.0471     0.0000    -1.1693    25.1981   115.1944    23.8604     0.9923    27.1359     1.8395     0.4474     3.6339    19.8806    39.8464     0.0000    64.2539  -999.2500     0.1218  2679.6001
   5753.0000     0.0288     0.0046     0.0008     0.0030     0.0204     0.0366     0.0344     0.0101     0.0000  1229.2563     0.0812     0.0038     0.0006     0.1046   124.0471     0.0000    -1.1704    26.1358   115.1985    25.0737     1.0090    28.8038     2.1306     0.5209     2.1905    12.0433    39.8494     0.0000    60.0101  -999.2500     0.1100  2641.1819
   5753.5000     0.0310     0.0053     0.0018     0.0037     0.0202     0.0301     0.0282     0.0111     0.0000  1216.0255     0.0694     0.0037     0.0006     0.0933   124.0471     0.0000    -1.1716    33.3660   115.2026    32.0773     1.2733    37.1900     2.8284     0.6843     1.2218     5.9318    39.8524     0.0000    53.0500  -999.2500     0.1004  2562.3635
   5754.0000     0.0314     0.0044     0.0031     0.0065     0.0175     0.0217     0.0255     0.0138     0.0001  1217.0542     0.0610     0.0037     0.0006     0.0850   124.0471     0.0000    -1.1728    62.1483   115.2067    60.2022     2.3721    69.9188     5.4115     1.3283     0.8028     2.7798    39.8554     0.0000    52.7049  -999.2500     0.0924  2662.6001
   5754.5000     0.0282     0.0021     0.0040     0.0094     0.0128     0.0156     0.0269     0.0170     0.0001  1207.6393     0.0596     0.0037     0.0006     0.0817   124.0471     0.0000    -1.1739    94.4127   115.2108    92.7685     3.6700   107.8551     8.2531     1.9845     0.9621     2.9265    39.8583     0.0000    62.5349  -999.2500     0.0878  2607.8000
   5755.0000     0.0225     0.0001     0.0052     0.0084     0.0089     0.0162     0.0309     0.0200     0.0002  1203.8148     0.0673     0.0037     0.0006     0.0845   124.0471     0.0000    -1.1752    94.7250   115.2149    99.1683     3.9406   115.4260     8.7204     2.1219     1.6824     5.8163    39.8613     0.0000    80.3287  -999.2500     0.0899  2612.8000
   5755.5000     0.0195     0.0000     0.0024     0.0069     0.0103     0.0200     0.0327     0.0214     0.0009  1208.1075     0.0750     0.0036     0.0006     0.0921   124.0471     0.0000    -1.1764    71.1562   115.2190    75.2457     2.9765    88.1200     6.6958     1.6827     3.1551    10.7607    39.8643     0.0000    98.0869  -999.2500     0.0945  2655.1001
   5756.0000     0.0212     0.0005     0.0025     0.0050     0.0132     0.0214     0.0305     0.0232     0.0010  1216.8173     0.0761     0.0035     0.0006     0.0943   124.0471     0.0000    -1.1776    43.6664   115.2231    46.1435     1.8330    54.8026     4.0614     1.1002     3.3706    11.0080    39.8672     0.0000    97.0131  -999.2500     0.0973  2693.8000
   5756.5000     0.0283     0.0040     0.0035     0.0030     0.0178     0.0217     0.0286     0.0257     0.0007  1214.0800     0.0767     0.0035     0.0006     0.0976   124.0471     0.0000    -1.1789    44.5472   115.2272    42.9195     1.7110    51.4031     3.7419     1.0870     3.0580     9.4147    39.8701     0.0000    81.0156  -999.2500     0.1051  2719.3000
   5757.0000     0.0375     0.0090     0.0042     0.0016     0.0227     0.0222     0.0293     0.0278     0.0002  1217.1097     0.0796     0.0035     0.0006     0.1040   124.0471     0.0000    -1.1801    58.8766   115.2313    55.9897     2.2381    67.3277     4.8460     1.4542     2.8423     8.5325    39.8730     0.0000    61.4527  -999.2500     0.1172  2718.7000
