~VERSION INFORMATION
VERS.           1.2   :CWLS Log ASCII Standard - VERSION 1.2
WRAP.           NO    :One Line per depth step
PROD.  Schlumberger   :LAS Producer
PROG.  DLIS to ASCII 2.3                               :LAS Program name and version
CREA.        2015/01/14 20:43                          :LAS Creation date {YYYY/MM/DD hh:mm}
DLIS_CREA.  2015-Jan-14 13:25                          :DLIS Creation date and time {YYYY-MMM-DD hh:mm}
SOURCE.     d5fbb1e7-1f44-4e43-b8fb-7fdeb49dde7f       :DLIS File Name
#--------------------------------------------------
~WELL INFORMATION
#MNEM.UNIT      DATA             DESCRIPTION
#---- ------ --------------   -----------------------------
STRT .F       8.0000         :START DEPTH     
STOP .F      353.0000        :STOP DEPTH     
STEP .F       0.5000         :STEP       
NULL .          -999.25      :NULL VALUE
COMP .                 COMPANY:  ADM Company                        
WELL .                    WELL:  CCS#2                              
FLD  .                   FIELD:  Wildcat                            
LOC  .                LOCATION:  Latitude: 39.885961                
CNTY .                  COUNTY:  Macon                              
STAT .                   STATE:  Illinois                           
CTRY .                 COUNTRY:  USA                                
SRVC .         SERVICE COMPANY:  Schlumberger                       
LATI .DEG             LATITUDE:  39° 53' 9.46" N                    
LONG .DEG            LONGITUDE:  88° 53' 16.959" W                  
API  .              API NUMBER:  12-115-23713-00                    
DATE .                LOG DATE:  12-Jan-2015
UWI  .          UNIQUE WELL ID:                                     
#-----------------------------------------------------------------------------
~PARAMETER INFORMATION
#MNEM.UNIT    VALUE                      DESCRIPTION
#---- -----   --------------------       ------------------------
CN   .        ADM Company                :Company Name
WN   .        CCS#2                      :Well Name
FN   .        Wildcat                    :Field Name
FL   .        Latitude  39.885961        :Field Location
FL1  .        Longitude  -88.888044      :Field Location, Line 1
COUN .        Macon                      :County or Parish
STAT .        Illinois                   :State or Province
NATI .        USA                        :Nation
DATE .        12-Jan-2015                :Tools Above Rotary Table Date
APIN .        12-115-23713-00            :API Well Number
SECT .        32                         :Section
TOWN .        17N                        :Township
RANG .        3E                         :Range
DMF  .        KB                         :Drilling Measured From (Name of Drilling Elevation Reference)
LMF  .        KB                         :Logging Measured From (Name of Logging Elevation Reference)
PDAT .        GL                         :Permanent Datum
ENGI .        Devin Arnold               :Engineer s Name
WITN .        Nick Malkewicz             :Witness s Name
LATI .        39° 53' 9.46  N            :Latitude
LONG .        88° 53' 16.959  W          :Longitude
LUL  .        Bradford                   :Logging Unit Location
LUN  .        3095                       :Logging Unit Number
RUN  .        1                          :Run Number
SON  .        D71E-00006                 :Service Order Number
BHT  .DEGF      58.00000                 :Bottom Hole Temperature
BS   .IN        26.00000                 :Bit Size
MDEN .G/C3       2.71000                 :Matrix Density for Density Porosity
DFD  .LB/G      10.10000                 :Drilling Fluid Density
DFV  .S         60.00000                 :Drilling Fluid Viscosity
DFL  .C3      -999.25000                 :Drilling Fluid Loss
RMFS .OHMM       1.23200                 :Resistivity of Mud Filtrate Sample
EKB  .F        691.19995                 :Elevation of Kelly Bushing
EGL  .F        675.69995                 :Elevation of Ground Level
BLI  .F        342.00000                 :Bottom Log Interval
BSAL .PPM        0.00000                 :Borehole Salinity
FLEV .F          8.00000                 :Depth of Drilling Fluid Level to LMF (Log Measured From)
MCST .DEGF      42.80000                 :Mudcake Sample Temperature
MFST .DEGF      42.80000                 :Mud Filtrate Sample Temperature
MRT  .DEGF      58.00000                 :Maximum Recorded Temperature
MST  .DEGF      42.80000                 :Mud Sample Temperature
RMCS .OHMM       1.84800                 :Resistivity of Mud Cake Sample
RMS  .OHMM       1.54000                 :Resistivity of Mud Sample
RW   .OHMM       1.00000                 :Connate Water Resistivity
TDD  .F        349.00000                 :Driller Total Depth
TDL  .F        349.00000                 :Logger Total Depth
TLI  .F         50.00000                 :Top Log Interval
HIDE .        Wildcat                    :Header Identifier
MATR .        LIME                       :Rock Matrix for Neutron Porosity Corrections
FNUM .           1.00000                 :F-Numerator for Formation Factor Formula
FEXP .           2.00000                 :Exponent "m" for Formation Factor Formula
DFT  .        Fresh Mud                  :Drilling Fluid Type
DFPH .        -999.25000                 :Drilling Fluid pH
MCSS .        Calculated                 :Mudcake Sample Source
MFSS .        Calculated                 :Mud Filtrate Sample Source
FD   .G/C3       1.00000                 :Fluid Density
MSS  .        Active Tank                :Mud Sample Source
OS1  .                                   :Other Services Line 1
OS2  .                                   :Other Services Line 2
OS3  .                                   :Other Services Line 3
OS4  .                                   :Other Services Line 4
OS5  .                                   :Other Services Line 5
R1   .        Matrix Density  Limestone. :Remarks Line 1
R2   .        Mud Sample taken on location. :Remarks Line 2
R3   .        Presentations as per client request. :Remarks Line 3
R4   .        No Chemical Sources ran due to possible potable water zones. :Remarks Line 4
R5   .        Bottom Hole Temperature taken from GM2 temperature log provided by the client. 58degF :Remarks Line 5
R6   .                                   :Remarks Line 6
R7   .                                   :Remarks Line 7
R8   .        APS ran outside max bit size range of 20in causing faulty data. :Remarks Line 8
TCS  .        19 45 00                   :Time Circulation Stopped
TLAB .        01 15 00                   :Time Logger At Bottom
NMT  .        NOBARITE                   :HRDD Mud Type for Nuclear Devices
EPD  .C3         675.699951              :Elevation of Permanent Datum above Mean Sea Level
APD  .F          15.500000               :Elevation of Depth Reference (LMF) above Permanent Datum
#-----------------------------------------------------------------------------
~CURVE INFORMATION
#MNEM.UNIT   API CODE                                  DESCRIPTION
#---- -----  --------                                  -----------------------
DEPT .F                                                :DEPTH (BOREHOLE) {F12.4}
AF10 .OHMM                                             :Array Induction Four Foot Resistivity A10 {F11.4}
AF20 .OHMM                                             :Array Induction Four Foot Resistivity A20 {F11.4}
AF30 .OHMM                                             :Array Induction Four Foot Resistivity A30 {F11.4}
AF60 .OHMM                                             :Array Induction Four Foot Resistivity A60 {F11.4}
AF90 .OHMM                                             :Array Induction Four Foot Resistivity A90 {F11.4}
AO10 .OHMM                                             :Array Induction One Foot Resistivity A10 {F11.4}
AO20 .OHMM                                             :Array Induction One Foot Resistivity A20 {F11.4}
AO30 .OHMM                                             :Array Induction One Foot Resistivity A30 {F11.4}
AO60 .OHMM                                             :Array Induction One Foot Resistivity A60 {F11.4}
AO90 .OHMM                                             :Array Induction One Foot Resistivity A90 {F11.4}
AT10 .OHMM                                             :Array Induction Two Foot Resistivity A10 {F11.4}
AT20 .OHMM                                             :Array Induction Two Foot Resistivity A20 {F11.4}
AT30 .OHMM                                             :Array Induction Two Foot Resistivity A30 {F11.4}
AT60 .OHMM                                             :Array Induction Two Foot Resistivity A60 {F11.4}
AT90 .OHMM                                             :Array Induction Two Foot Resistivity A90 {F11.4}
AFEC .HZ                                               :Far Detector Count Rate {F11.4}
ANEC .HZ                                               :Near Detector Count Rate {F11.4}
AORT .OHMM                                             :Array Induction One Foot Rt {F11.4}
AORX .OHMM                                             :Array Induction One Foot Rxo {F11.4}
APDC .CFCF                                             :Near/Array Corrected Dolomite Porosity {F11.4}
APLC .PU                                               :Near/Array Corrected Limestone Porosity {F11.4}
APSC .CFCF                                             :Near/Array Corrected Sandstone Porosity {F11.4}
CDF  .LBF                                              :Calibrated Downhole Force {F11.4}
CTEM .DEGF                                             :Cartridge Temperature {F11.4}
DCAL .IN                                               :Differential Caliper {F11.4}
ED   .F                                                :East Departure {F11.4}
FPLC .CFCF                                             :Near/Far Corrected Limestone Porosity {F11.4}
GR_EDTC.GAPI                                           :Gamma Ray {F11.4}
GTEM .DEGF                                             :Generalized Borehole Temperature {F11.4}
HASC .CFCF                                             :APS High Resolution Near/Array Corrected Sandstone Porosity {F11.4}
HSIG .CU                                               :APS High Resolution Formation Capture Cross Section {F11.4}
HSTO .IN                                               :APS High Resolution Effective Standoff in Limestone {F11.4}
ND   .F                                                :North Departure {F11.4}
QSGF .                                                 :Quality of Formation Sigma {F11.4}
SIGF .CU                                               :Formation Capture Cross Section {F11.4}
SP   .MV                                               :Spontaneous Potential {F11.4}
SPAR .MV                                               :SP, Armor Return Compensated {F11.4}
STIT .F                                                :Stuck Tool Indicator, Total {F11.4}
STOF .IN                                               :Effective Standoff in Limestone {F11.4}
STPC .CFCF                                             :Corrected Standoff Porosity {F11.4}
TENS .LBF                                              :Cable Tension {F11.4}
#-----------------------------------------------------------------------------
# 
#      DEPT        AF10       AF20       AF30       AF60       AF90       AO10       AO20       AO30       AO60       AO90       AT10       AT20       AT30       AT60       AT90       AFEC       ANEC       AORT       AORX       APDC       APLC       APSC       CDF        CTEM       DCAL        ED        FPLC     GR_EDTC      GTEM       HASC       HSIG       HSTO        ND        QSGF       SIGF        SP        SPAR       STIT       STOF       STPC       TENS
#
~A  
# ...
     26.0000     8.8817    14.8733    22.1560    41.0204    41.9873     8.8677    15.1048    21.6647    47.8051    47.4179     8.8794    14.9306    22.2246    40.4829    40.7879   349.2000  2385.6001    51.5400     7.7328     0.9689    96.9287     0.9695   694.9464    90.4471     0.0000     0.2237     1.1110    46.2514    54.7701  -999.2500  -999.2500  -999.2500    -0.2335     0.2304    26.0559  -999.2500  -999.2500     0.0000     0.0862     0.7918   771.4055
     26.5000     8.8817    14.8733    22.1560    41.0204    41.9873     8.8677    15.1048    21.6647    47.8051    47.4179     8.8794    14.9306    22.2246    40.4829    40.7879   349.2000  2434.6667    51.5400     7.7328     0.9689    96.9287     0.9695   694.9464    90.4471     0.0000     0.2237     1.1110    45.1354    54.7751     0.9291    18.3145     1.3144    -0.2335     0.2304    26.0559  -999.2500  -999.2500     0.0000     0.0862     0.7918   771.4055
     27.0000     8.8817    14.8733    22.1560    41.0204    41.9873     8.8677    15.1048    21.6647    47.8051    47.4179     8.8794    14.9306    22.2246    40.4829    40.7879   349.2000  2452.0000    51.5400     7.7328     0.9689    96.9287     0.9695   694.9464    90.4471     0.0000     0.2237     1.1110    44.1454    54.7801     0.9652    26.0814     0.0251    -0.2335     0.2304    26.0559  -999.2500  -999.2500     0.0000     0.0862     0.7918   771.4055
     27.5000     8.8817    14.8733    22.1560    41.0204    41.9873     8.8677    15.1048    21.6647    47.8051    47.4179     8.8794    14.9306    22.2246    40.4829    40.7879   329.6000  2377.7778    51.5400     7.7328     0.8350    83.7062     0.8398   694.9464    90.4471     0.0000     0.2237     1.2854    44.8958    54.7851     0.9158    24.9493    -0.3475    -0.2335     0.2846    22.2067  -999.2500  -999.2500     0.0000    -0.2666     0.7637   771.4055
     28.0000     8.8817    14.8733    22.1560    41.0204    41.9873     8.8677    15.1048    21.6647    47.8051    47.4179     8.8794    14.9306    22.2246    40.4829    40.7879   345.7778  2378.0000    51.5400     7.7328     0.8908    89.2128     0.8935   694.9464    90.4471     0.0000     0.2237     1.0592    44.7892    54.7901     0.8729    25.2269    -0.3209    -0.2335     0.2666    24.5218  -999.2500  -999.2500     0.0000    -0.3560     0.7904   771.4055
     28.5000     8.8817    14.8733    22.1560    41.0204    41.9873     8.8677    15.1048    21.6647    47.8051    47.4179     8.8794    14.9306    22.2246    40.4829    40.7879   363.2000  2394.3999    51.5400     7.7328     0.8760    87.7489     0.8792   694.9464    90.4471     0.0000     0.2237     1.0162    47.1494    54.7951     0.8686    26.5821    -0.3113    -0.2335     0.2616    24.5126  -999.2500  -999.2500     0.0000    -0.3368     0.7905   771.4055
     29.0000     8.8817    14.8733    22.1560    41.0204    41.9873     8.8677    15.1048    21.6647    47.8051    47.4179     8.8794    14.9306    22.2246    40.4829    40.7879   347.5555  2375.5557    51.5400     7.7328     0.8173    81.9575     0.8229   694.9464    90.4471     0.0000     0.2237     0.9314    48.5518    54.8001     0.8309    26.1690    -0.1607    -0.2335     0.1977    26.7623  -999.2500  -999.2500     0.0000    -0.1023     0.7916   771.4055
     29.5000     8.8817    14.8733    22.1560    41.0204    41.9873     8.8677    15.1048    21.6647    47.8051    47.4179     8.8794    14.9306    22.2246    40.4829    40.7879   359.2000  2396.0000    51.5400     7.7328     0.8081    81.0536     0.8141   694.9464    90.4471     0.0000     0.2237     0.9434    50.0901    54.8051     0.7979    24.8570     0.0447    -0.2335     0.2220    25.4651  -999.2500  -999.2500     0.0000    -0.0463     0.7928   771.4055
     30.0000     8.8817    14.8733    22.1560    41.0204    41.9873     8.8677    15.1048    21.6647    47.8051    47.4179     8.8794    14.9306    22.2246    40.4829    40.7879   364.8000  2366.3999    51.5400     7.7328     0.7645    76.7477     0.7725   694.9464    90.4471     0.0000     0.2237     0.6333    47.1278    54.8101     0.7816    24.5287     0.1453    -0.2335     0.2681    25.4259  -999.2500  -999.2500     0.0000     0.1864     0.7919   771.4055
     30.5000     8.8817    14.8733    22.1560    41.0204    41.9873     8.8677    15.1048    21.6647    47.8051    47.4179     8.8794    14.9306    22.2246    40.4829    40.7879   425.3333  2438.2222    51.5400     7.7328     0.6793    68.3349     0.6917   694.9464    90.4471     0.0000     0.2237     0.4858    48.0076    54.8151     0.7287    25.5272     0.4260    -0.2335     0.5228    24.4882  -999.2500  -999.2500     0.0000     0.5871     0.7909   771.4055
     31.0000     8.8817    14.8733    22.1560    41.0204    41.9873     8.8677    15.1048    21.6647    47.8051    47.4179     8.8794    14.9306    22.2246    40.4829    40.7879   432.0000  2434.3999    51.5400     7.7328     0.5103    44.6916     0.4830   694.9464    90.4471     0.0000     0.2237     0.3183    49.3249    54.8201     0.5376    22.1492     0.9958    -0.2335     1.1297    22.8493  -999.2500  -999.2500     0.0000     1.0835     0.7880   771.4055
     31.5000     8.8817    14.8733    22.1560    41.0204    41.9873     8.8677    15.1048    21.6647    47.8051    47.4179     8.8794    14.9306    22.2246    40.4829    40.7879   484.0000  2450.3999    51.5400     7.7328     0.3645    32.5824     0.3671   694.9464    90.4471     0.0000     0.2237     0.2823    57.4890    54.8251     0.3095    23.2568     1.0065    -0.2335     0.7130    22.3651  -999.2500  -999.2500     0.0000     0.7118     0.6232   771.4055
     32.0000     8.8817    14.8733    22.1560    41.0204    41.9873     8.8677    15.1048    21.6647    47.8051    47.4179     8.8794    14.9306    22.2246    40.4829    40.7879   525.6000  2603.6001    51.5400     7.7328     0.2617    22.9593     0.2795   694.9464    90.4471     0.0000     0.2237     0.2335    58.9909    54.8301     0.2955    22.9035     0.5853    -0.2335     0.9471    21.5692  -999.2500  -999.2500     0.0000     0.8852     0.5660   771.4055
     32.5000     8.8817    14.8733    22.1560    41.0204    41.9873     8.8677    15.1048    21.6647    47.8051    47.4179     8.8794    14.9306    22.2246    40.4829    40.7879   520.0000  2685.3333    51.5400     7.7328     0.2314    21.6170     0.2479   694.9464    90.4471     0.0000     0.2237     0.2404    59.4910    54.8351     0.3212    21.3668     0.4752    -0.2335     1.3182    19.9154  -999.2500  -999.2500     0.0000     1.0856     0.5929   771.4055
     33.0000     8.8817    14.8733    22.1560    41.0204    41.9873     8.8677    15.1048    21.6647    47.8051    47.4179     8.8794    14.9306    22.2246    40.4829    40.7879   486.8000  2636.0000    51.5400     7.7328     0.3201    28.0073     0.3261   694.9464    90.4471     0.0000     0.2237     0.3154    55.8614    54.8401     0.3075    19.3435     0.9051    -0.2335     0.9299    20.7208  -999.2500  -999.2500     0.0000     0.8366     0.6198   771.4055
     33.5000     8.8817    14.8733    22.1560    41.0204    41.9873     8.8677    15.1048    21.6647    47.8051    47.4179     8.8794    14.9306    22.2246    40.4829    40.7879   403.2000  2601.6001    51.5400     7.7328     0.5063    48.1739     0.5090   694.9464    90.4471     0.0000     0.2237     0.5517    52.5499    54.8451     0.4782    19.6132     1.1051    -0.2335     0.6395    21.5733  -999.2500  -999.2500     0.0000     0.6096     0.7057   771.4055
     34.0000     8.8817    14.8733    22.1560    41.0204    41.9873     8.8677    15.1048    21.6647    47.8051    47.4179     8.8794    14.9306    22.2246    40.4829    40.7879   361.2000  2483.2000    51.5400     7.7328     0.7178    72.1375     0.7282   694.9464    90.4471     0.0000     0.2237     0.7945    49.4658    54.8501     0.8273    23.0103    -0.1213    -0.2335     0.4383    22.5804  -999.2500  -999.2500     0.0000     0.4046     0.7895   771.4055
     34.5000     8.8817    14.8733    22.1560    41.0204    41.9873     8.8677    15.1048    21.6647    47.8051    47.4179     8.8794    14.9306    22.2246    40.4829    40.7879   385.7778  2467.5557    51.5400     7.7328     0.8718    87.3326     0.8751   694.9464    90.4471     0.0000     0.2237     0.9049    47.4215    54.8551     0.8829    24.5322    -0.3441    -0.2335     0.2794    23.2528  -999.2500  -999.2500     0.0000    -0.3251     0.7929   771.4055
