~VERSION INFORMATION
VERS.           1.2   :CWLS Log ASCII Standard - VERSION 1.2
WRAP.           NO    :One Line per depth step
PROD.  Schlumberger   :LAS Producer
PROG.  DLIS to ASCII 2.3                               :LAS Program name and version
CREA.        2015/05/30 05:44                          :LAS Creation date {YYYY/MM/DD hh:mm}
DLIS_CREA.  2015-May-29 22:59                          :DLIS Creation date and time {YYYY-MMM-DD hh:mm}
SOURCE.     3feb4549-4107-45e4-8f62-928498d876c9       :DLIS File Name
#--------------------------------------------------
~WELL INFORMATION
#MNEM.UNIT      DATA             DESCRIPTION
#---- ------ --------------   -----------------------------
STRT .F      5218.5000       :START DEPTH     
STOP .F      7211.0000       :STOP DEPTH     
STEP .F       0.5000         :STEP       
NULL .          -999.25      :NULL VALUE
COMP .                 COMPANY:  ADM COMPANY                        
WELL .                    WELL:  CCS#2                              
FLD  .                   FIELD:  WILDCAT                            
LOC  .                LOCATION:  LAT 39.885961                      
CNTY .                  COUNTY:  MACON                              
STAT .                   STATE:  ILLINOIS                           
CTRY .                 COUNTRY:  USA                                
SRVC .         SERVICE COMPANY:  Schlumberger                       
LATI .DEG             LATITUDE:  39.885961 degrees                  
LONG .DEG            LONGITUDE:  -88.888044 degrees                 
API  .              API NUMBER:  12-115-23713-00                    
DATE .                LOG DATE:  29-May-2015
UWI  .          UNIQUE WELL ID:  12-115-23713-00                    
#-----------------------------------------------------------------------------
~PARAMETER INFORMATION
#MNEM.UNIT    VALUE                      DESCRIPTION
#---- -----   --------------------       ------------------------
CN   .        ADM COMPANY                :Company Name
WN   .        CCS#2                      :Well Name
FN   .        WILDCAT                    :Field Name
FL   .        LAT 39.885961              :Field Location
FL1  .        LONG 39.885961             :Field Location, Line 1
COUN .        MACON                      :County or Parish
STAT .        ILLINOIS                   :State or Province
NATI .        USA                        :Nation
DATE .        29-May-2015                :Tools Above Rotary Table Date
APIN .        12-115-23713-00            :API Well Number
SECT .        32                         :Section
TOWN .        17N                        :Township
RANG .        3E                         :Range
DMF  .        KB                         :Drilling Measured From (Name of Drilling Elevation Reference)
LMF  .        KB                         :Logging Measured From (Name of Logging Elevation Reference)
PDAT .        GL                         :Permanent Datum
ENGI .        H. DIMITROV / M. MOHAMMED  :Engineer s Name
WITN .        NICK MALKEWICZ             :Witness s Name
LATI .        39.885961 degrees          :Latitude
LONG .        -88.888044 degrees         :Longitude
LUL  .        BRADFORD                   :Logging Unit Location
LUN  .        3003                       :Logging Unit Number
RUN  .        Run 3C                     :Run Number
SON  .                                   :Service Order Number
BHT  .DEGF     127.00000                 :Bottom Hole Temperature
BS   .IN        12.25000                 :Bit Size
DFD  .LB/G       9.20000                 :Drilling Fluid Density
DFV  .S         66.00000                 :Drilling Fluid Viscosity
DFL  .C3         7.60000                 :Drilling Fluid Loss
RMFS .OHMM       0.17000                 :Resistivity of Mud Filtrate Sample
EKB  .F        691.19995                 :Elevation of Kelly Bushing
EGL  .F        675.69995                 :Elevation of Ground Level
BLI  .F       7192.00000                 :Bottom Log Interval
BSAL .PPM     15100.00000                :Borehole Salinity
FLEV .F          8.00000                 :Depth of Drilling Fluid Level to LMF (Log Measured From)
MCST .DEGF      72.50000                 :Mudcake Sample Temperature
MFST .DEGF      72.50000                 :Mud Filtrate Sample Temperature
MRT  .DEGF     127.00000                 :Maximum Recorded Temperature
MST  .DEGF      72.50000                 :Mud Sample Temperature
RMCS .OHMM       0.14000                 :Resistivity of Mud Cake Sample
RMS  .OHMM       0.20000                 :Resistivity of Mud Sample
RW   .OHMM       1.00000                 :Connate Water Resistivity
TDD  .F       7193.00049                 :Driller Total Depth
TDL  .F       7193.00049                 :Logger Total Depth
TLI  .F       5240.00000                 :Top Log Interval
HIDE .        WILDCAT                    :Header Identifier
MATR .        SAND                       :Rock Matrix for Neutron Porosity Corrections
FNUM .           1.00000                 :F-Numerator for Formation Factor Formula
FEXP .           2.00000                 :Exponent "m" for Formation Factor Formula
DFT  .        Fresh Water                :Drilling Fluid Type
DFPH .          11.50000                 :Drilling Fluid pH
MCSS .        Calculated                 :Mudcake Sample Source
MFSS .        Calculated                 :Mud Filtrate Sample Source
FD   .LB/G       8.34540                 :Fluid Density
MSS  .        Active Tank                :Mud Sample Source
OS1  .                                   :Other Services Line 1
OS2  .                                   :Other Services Line 2
OS3  .                                   :Other Services Line 3
OS4  .                                   :Other Services Line 4
OS5  .                                   :Other Services Line 5
R1   .        THANKS FOR CHOOSING SCHLUMBERGER!!! :Remarks Line 1
R2   .        All WELL PROPERTIES PROVIDED BY CLIENT :Remarks Line 2
R3   .        ALL SCALES ON PRESENTATIONS AS PER

CLIENT REQUEST :Remarks Line 3
R4   .        MATRIX  SANDSTONE          :Remarks Line 4
R5   .        MATRIX DENSITY  2.65 G/CC  :Remarks Line 5
R6   .        ALL LOGGING INTERVALS AS PER CLIENT REQUEST :Remarks Line 6
R7   .        MRT = 127 DEGF FROM THE THERMOMETER :Remarks Line 7
R8   .                                   :Remarks Line 8
TCS  .        20 00 00                   :Time Circulation Stopped
TLAB .        14 31 00                   :Time Logger At Bottom
EPD  .C3         675.699951              :Elevation of Permanent Datum above Mean Sea Level
APD  .F          15.500000               :Elevation of Depth Reference (LMF) above Permanent Datum
#-----------------------------------------------------------------------------
~CURVE INFORMATION
#MNEM.UNIT   API CODE                                  DESCRIPTION
#---- -----  --------                                  -----------------------
DEPT .F                                                :DEPTH (BOREHOLE) {F12.4}
BFV  .CFCF                                             :Bound Fluid Volume {F11.4}
CBP1 .CFCF                                             :CMR Bin Porosity 1 {F11.4}
CBP2 .CFCF                                             :CMR Bin Porosity 2 {F11.4}
CBP3 .CFCF                                             :CMR Bin Porosity 3 {F11.4}
CBP4 .CFCF                                             :CMR Bin Porosity 4 {F11.4}
CBP5 .CFCF                                             :CMR Bin Porosity 5 {F11.4}
CBP6 .CFCF                                             :CMR Bin Porosity 6 {F11.4}
CBP7 .CFCF                                             :CMR Bin Porosity 7 {F11.4}
CBP8 .CFCF                                             :CMR Bin Porosity 8 {F11.4}
CDF  .LBF                                              :Calibrated Downhole Force {F11.4}
CMFF .CFCF                                             :CMR Free Fluid {F11.4}
CMFF_SIG.CFCF                                          :Standard Deviation of CMR Free Fluid {F11.4}
CMR_PHI_CONV.                                          :CMR Porosity Conversion factor {F11.4}
CMRP_3MS.CFCF                                          :CMR Porosity with T2 values greater than 3 ms {F11.4}
CTEM .DEGF                                             :Cartridge Temperature {F11.4}
DCAL .IN                                               :Differential Caliper {F11.4}
ED   .F                                                :East Departure {F11.4}
GR_EDTC.GAPI                                           :Gamma Ray {F11.4}
GTEM .DEGF                                             :Generalized Borehole Temperature {F11.4}
HCGR .GAPI                                             :HNGS Computed Gamma Ray {F11.4}
HFK  .%                                                :HNGS Formation Potassium Concentration {F11.4}
HSGR .GAPI                                             :HNGS Standard Gamma-Ray {F11.4}
HTHO .PPM                                              :HNGS Formation Thorium Concentration {F11.4}
HURA .PPM                                              :HNGS Formation Uranium Concentration {F11.4}
KSDR .MD                                               :SDR Permeability {F11.4}
KTIM .MD                                               :Timur/Coates Permeability {F11.4}
ND   .F                                                :North Departure {F11.4}
STIT .F                                                :Stuck Tool Indicator, Total {F11.4}
T2LM .MS                                               :T2 Logarithmic Mean {F11.4}
T2LM_SIG.MS                                            :Standard Deviation of T2 Logarithmic Mean {F11.4}
TCMR .CFCF                                             :Total CMR Porosity {F11.4}
TENS .LBF                                              :Cable Tension {F11.4}
#-----------------------------------------------------------------------------
# 
#      DEPT        BFV        CBP1       CBP2       CBP3       CBP4       CBP5       CBP6       CBP7       CBP8       CDF        CMFF     CMFF_SIG  CMR_PHI_CO  CMRP_3MS     CTEM       DCAL        ED      GR_EDTC      GTEM       HCGR       HFK        HSGR       HTHO       HURA       KSDR       KTIM        ND        STIT       T2LM     T2LM_SIG     TCMR       TENS
#                                                                                                                                                   NV
~A  
# ...
   6142.5000     0.0506     0.0026     0.0068     0.0176     0.0235     0.0079     0.0067     0.0047     0.0014  1218.4426     0.0207     0.0035     0.0006     0.0618   124.0471     0.0000    -1.7289    45.3499   118.3942    41.2975     1.0193    48.2213     7.2703     0.9687     0.0340     0.0430    37.9360     0.0000    18.1702  -999.2500     0.0712  2758.0908
   6143.0000     0.0510     0.0005     0.0028     0.0182     0.0294     0.0085     0.0052     0.0067     0.0017  1209.0897     0.0221     0.0035     0.0006     0.0698   124.0471     0.0000    -1.7294    38.7599   118.3983    36.2578     0.9164    42.6345     6.2570     0.8661     0.0715     0.0538    37.9313     0.0000    24.6815  -999.2500     0.0731  2750.7502
   6143.5000     0.0443     0.0000     0.0007     0.0152     0.0283     0.0084     0.0038     0.0059     0.0024  1208.6754     0.0205     0.0035     0.0006     0.0641   124.0471     0.0000    -1.7299    39.0329   118.4024    37.9816     0.9729    43.2487     6.4792     0.7119     0.0600     0.0396    37.9266     0.0000    28.9892  -999.2500     0.0648  2759.8184
   6144.0000     0.0354     0.0034     0.0007     0.0110     0.0203     0.0132     0.0034     0.0073     0.0024  1209.2532     0.0262     0.0035     0.0006     0.0575   124.0471     0.0000    -1.7304    47.3210   118.4065    45.8229     1.1686    51.0296     7.8467     0.6821     0.0537     0.1364    37.9218     0.0000    30.3657  -999.2500     0.0616  2784.8181
   6144.5000     0.0304     0.0083     0.0024     0.0080     0.0118     0.0203     0.0063     0.0094     0.0014  1213.4302     0.0374     0.0034     0.0006     0.0572   124.0471     0.0000    -1.7309    55.3437   118.4106    55.8945     1.4168    61.0604     9.6222     0.6718     0.0702     0.3234    37.9173     0.0000    28.8494  -999.2500     0.0678  2782.5835
   6145.0000     0.0368     0.0077     0.0048     0.0083     0.0160     0.0193     0.0169     0.0042     0.0000  1215.1095     0.0403     0.0034     0.0006     0.0647   124.0471     0.0000    -1.7314    58.1415   118.4147    57.7185     1.4330    62.9389    10.1119     0.7176     0.0903     0.4238    37.9125     0.0000    25.2453  -999.2500     0.0771  2719.7273
   6145.5000     0.0404     0.0056     0.0062     0.0098     0.0188     0.0275     0.0154     0.0008     0.0000  1214.8943     0.0437     0.0034     0.0006     0.0723   124.0471     0.0000    -1.7319    54.7310   118.4188    53.5470     1.3111    58.0556     9.4885     0.6187     0.1119     0.5927    37.9078     0.0000    23.6200  -999.2500     0.0841  2767.8000
   6146.0000     0.0423     0.0026     0.0057     0.0114     0.0225     0.0262     0.0189     0.0000     0.0000  1219.2917     0.0450     0.0035     0.0006     0.0789   124.0471     0.0000    -1.7323    46.1172   118.4230    44.8248     1.0717    47.9602     8.0942     0.4729     0.1774     0.6582    37.9031     0.0000    27.2782  -999.2500     0.0873  2764.1819
   6146.5000     0.0427     0.0006     0.0039     0.0130     0.0253     0.0237     0.0197     0.0018     0.0011  1217.2468     0.0462     0.0035     0.0006     0.0844   124.0471     0.0000    -1.7328    42.5315   118.4270    39.6582     0.9559    42.1259     7.1163     0.3882     0.3013     0.7369    37.8985     0.0000    34.1407  -999.2500     0.0889  2718.6365
   6147.0000     0.0407     0.0000     0.0015     0.0137     0.0254     0.0230     0.0162     0.0047     0.0031  1220.8065     0.0471     0.0036     0.0006     0.0863   124.0471     0.0000    -1.7332    42.5101   118.4311    38.9300     0.9653    41.6329     6.8279     0.4375     0.4221     0.7990    37.8937     0.0000    42.4621  -999.2500     0.0878  2775.4546
   6147.5000     0.0342     0.0000     0.0000     0.0121     0.0221     0.0215     0.0127     0.0055     0.0050  1219.6523     0.0448     0.0035     0.0006     0.0790   124.0471     0.0000    -1.7337    45.6754   118.4352    41.0494     1.0882    43.3153     6.7877     0.3445     0.4026     0.6681    37.8891     0.0000    50.8301  -999.2500     0.0790  2764.0908
   6148.0000     0.0398     0.0001     0.0018     0.0145     0.0234     0.0193     0.0126     0.0055     0.0010  1215.4690     0.0384     0.0034     0.0006     0.0763   124.0471     0.0000    -1.7341    43.0194   118.4394    42.9158     1.2105    44.8484     6.6696     0.3300     0.2016     0.3687    37.8844     0.0000    35.8004  -999.2500     0.0781  2747.5833
   6148.5000     0.0515     0.0026     0.0037     0.0183     0.0268     0.0202     0.0100     0.0070     0.0003  1206.8837     0.0375     0.0035     0.0006     0.0827   124.0471     0.0000    -1.7345    38.2810   118.4435    40.8312     1.1812    42.6333     6.1730     0.3443     0.1663     0.3364    37.8797     0.0000    26.3870  -999.2500     0.0890  2773.8333
   6149.0000     0.0616     0.0048     0.0050     0.0223     0.0294     0.0202     0.0100     0.0053     0.0003  1202.0513     0.0358     0.0035     0.0006     0.0876   124.0471     0.0000    -1.7349    34.5540   118.4476    37.8523     1.1194    39.4897     5.5799     0.3085     0.1480     0.3113    37.8750     0.0000    20.2078  -999.2500     0.0974  2697.5835
   6149.5000     0.0660     0.0048     0.0057     0.0260     0.0295     0.0188     0.0121     0.0011     0.0005  1202.4861     0.0326     0.0035     0.0006     0.0880   124.0471     0.0000    -1.7353    34.6044   118.4517    35.5192     1.0519    37.3773     5.2271     0.3090     0.1082     0.2296    37.8703     0.0000    16.9325  -999.2500     0.0986  2733.1667
   6150.0000     0.0647     0.0015     0.0068     0.0297     0.0266     0.0196     0.0098     0.0003     0.0027  1202.8951     0.0324     0.0036     0.0006     0.0888   124.0471     0.0000    -1.7357    34.4576   118.4558    33.6999     1.0072    36.3181     4.9058     0.3856     0.1191     0.2237    37.8656     0.0000    18.2826  -999.2500     0.0971  2746.2729
   6150.5000     0.0625     0.0021     0.0081     0.0282     0.0241     0.0198     0.0072     0.0001     0.0040  1202.2418     0.0310     0.0037     0.0006     0.0833   124.0471     0.0000    -1.7361    34.7363   118.4599    35.3626     1.0730    37.9551     5.0537     0.3488     0.0962     0.1892    37.8609     0.0000    17.6835  -999.2500     0.0935  2701.4167
   6151.0000     0.0614     0.0040     0.0086     0.0258     0.0229     0.0177     0.0055     0.0000     0.0045  1205.1012     0.0277     0.0037     0.0006     0.0765   124.0471     0.0000    -1.7365    35.6202   118.4640    36.9181     1.1082    39.6220     5.3459     0.3966     0.0666     0.1329    37.8562     0.0000    15.9876  -999.2500     0.0891  2732.6667
   6151.5000     0.0525     0.0065     0.0083     0.0194     0.0183     0.0141     0.0068     0.0007     0.0033  1205.6881     0.0249     0.0037     0.0006     0.0626   124.0471     0.0000    -1.7368    38.9990   118.4681    37.2247     1.1225    41.3692     5.3603     0.5357     0.0355     0.0835    37.8515     0.0000    14.5912  -999.2500     0.0774  2718.3635
   6152.0000     0.0394     0.0085     0.0084     0.0109     0.0115     0.0110     0.0098     0.0017     0.0012  1203.9373     0.0237     0.0035     0.0006     0.0462   124.0471     0.0000    -1.7372    42.2069   118.4722    36.8322     1.0714    41.7158     5.5336     0.6383     0.0121     0.0573    37.8468     0.0000    13.7852  -999.2500     0.0631  2723.0000
   6152.5000     0.0376     0.0088     0.0112     0.0078     0.0098     0.0117     0.0099     0.0016     0.0008  1201.3976     0.0241     0.0035     0.0006     0.0416   124.0471     0.0000    -1.7375    43.0052   118.4763    37.5119     1.0748    43.1908     5.7316     0.7336     0.0094     0.0592    37.8421     0.0000    12.7552  -999.2500     0.0616  2752.6365
   6153.0000     0.0448     0.0084     0.0124     0.0107     0.0134     0.0102     0.0089     0.0004     0.0002  1211.1937     0.0197     0.0033     0.0006     0.0437   124.0471     0.0000    -1.7379    45.6585   118.4804    40.6962     1.1346    47.2561     6.4021     0.8152     0.0071     0.0347    37.8374     0.0000    10.1371  -999.2500     0.0645  2735.4546
