~VERSION INFORMATION
VERS.           1.2   :CWLS Log ASCII Standard - VERSION 1.2
WRAP.           NO    :One Line per depth step
PROD.  Schlumberger   :LAS Producer
PROG.  DLIS to ASCII 2.3                               :LAS Program name and version
CREA.        2015/01/14 20:42                          :LAS Creation date {YYYY/MM/DD hh:mm}
DLIS_CREA.  2015-Jan-14 13:26                          :DLIS Creation date and time {YYYY-MMM-DD hh:mm}
SOURCE.     b1232dd5-b707-4891-82b9-d24dcc6cb5d4       :DLIS File Name
#--------------------------------------------------
~WELL INFORMATION
#MNEM.UNIT      DATA             DESCRIPTION
#---- ------ --------------   -----------------------------
STRT .F      -8.0000         :START DEPTH     
STOP .F      352.5000        :STOP DEPTH     
STEP .F       0.5000         :STEP       
NULL .          -999.25      :NULL VALUE
COMP .                 COMPANY:  ADM Company                        
WELL .                    WELL:  CCS#2                              
FLD  .                   FIELD:  Wildcat                            
LOC  .                LOCATION:  Latitude: 39.885961                
CNTY .                  COUNTY:  Macon                              
STAT .                   STATE:  Illinois                           
CTRY .                 COUNTRY:  USA                                
SRVC .         SERVICE COMPANY:  Schlumberger                       
LATI .DEG             LATITUDE:  39° 53' 9.46" N                    
LONG .DEG            LONGITUDE:  88° 53' 16.959" W                  
API  .              API NUMBER:  12-115-23713-00                    
DATE .                LOG DATE:  13-Jan-2015
UWI  .          UNIQUE WELL ID:                                     
#-----------------------------------------------------------------------------
~PARAMETER INFORMATION
#MNEM.UNIT    VALUE                      DESCRIPTION
#---- -----   --------------------       ------------------------
CN   .        ADM Company                :Company Name
WN   .        CCS#2                      :Well Name
FN   .        Wildcat                    :Field Name
FL   .        Latitude  39.885961        :Field Location
FL1  .        Longitude  -88.888044      :Field Location, Line 1
COUN .        Macon                      :County or Parish
STAT .        Illinois                   :State or Province
NATI .        USA                        :Nation
DATE .        13-Jan-2015                :Tools Above Rotary Table Date
APIN .        12-115-23713-00            :API Well Number
SECT .        32                         :Section
TOWN .        17N                        :Township
RANG .        3E                         :Range
DMF  .        KB                         :Drilling Measured From (Name of Drilling Elevation Reference)
LMF  .        KB                         :Logging Measured From (Name of Logging Elevation Reference)
PDAT .        GL                         :Permanent Datum
ENGI .        Devin Arnold               :Engineer s Name
WITN .        Nick Malkewicz             :Witness s Name
LATI .        39° 53' 9.46  N            :Latitude
LONG .        88° 53' 16.959  W          :Longitude
LUL  .        Bradford                   :Logging Unit Location
LUN  .        3095                       :Logging Unit Number
RUN  .        2                          :Run Number
SON  .        D71E-00006                 :Service Order Number
BHT  .DEGF      58.00000                 :Bottom Hole Temperature
BS   .IN        26.00000                 :Bit Size
MDEN .G/C3       2.71000                 :Matrix Density for Density Porosity
DFD  .LB/G      10.10000                 :Drilling Fluid Density
DFV  .S       -999.25000                 :Drilling Fluid Viscosity
DFL  .C3      -999.25000                 :Drilling Fluid Loss
RMFS .OHMM       1.23200                 :Resistivity of Mud Filtrate Sample
EKB  .F        691.19995                 :Elevation of Kelly Bushing
EGL  .F        675.69995                 :Elevation of Ground Level
BLI  .F        345.00000                 :Bottom Log Interval
BSAL .PPM        0.00000                 :Borehole Salinity
FLEV .F          8.00000                 :Depth of Drilling Fluid Level to LMF (Log Measured From)
MCST .DEGF      42.80000                 :Mudcake Sample Temperature
MFST .DEGF      42.80000                 :Mud Filtrate Sample Temperature
MRT  .DEGF      58.00000                 :Maximum Recorded Temperature
MST  .DEGF      42.80000                 :Mud Sample Temperature
RMCS .OHMM       1.84800                 :Resistivity of Mud Cake Sample
RMS  .OHMM       1.54000                 :Resistivity of Mud Sample
RW   .OHMM       1.00000                 :Connate Water Resistivity
TDD  .F        349.00000                 :Driller Total Depth
TDL  .F        349.00000                 :Logger Total Depth
TLI  .F         50.00000                 :Top Log Interval
HIDE .        Wildcat                    :Header Identifier
MATR .        LIME                       :Rock Matrix for Neutron Porosity Corrections
FNUM .           1.00000                 :F-Numerator for Formation Factor Formula
FEXP .           2.00000                 :Exponent "m" for Formation Factor Formula
DFT  .        Fresh Mud                  :Drilling Fluid Type
DFPH .        -999.25000                 :Drilling Fluid pH
MCSS .        Calculated                 :Mudcake Sample Source
MFSS .        Calculated                 :Mud Filtrate Sample Source
FD   .G/C3       1.00000                 :Fluid Density
MSS  .        Active Tank                :Mud Sample Source
OS1  .                                   :Other Services Line 1
OS2  .                                   :Other Services Line 2
OS3  .                                   :Other Services Line 3
OS4  .                                   :Other Services Line 4
OS5  .                                   :Other Services Line 5
R1   .        Matrix Density  Limestone. :Remarks Line 1
R2   .        Mud Sample taken on location. :Remarks Line 2
R3   .        Presentations as per client request. :Remarks Line 3
R4   .        No Chemical Sources ran due to possible potable water zones. :Remarks Line 4
R5   .        Bottom Hole Temperature taken from GM2 temperature log provided by the client. 58degF :Remarks Line 5
R6   .                                   :Remarks Line 6
R7   .                                   :Remarks Line 7
R8   .                                   :Remarks Line 8
TCS  .        19 45 00                   :Time Circulation Stopped
TLAB .        03 30 00                   :Time Logger At Bottom
EPD  .C3         675.699951              :Elevation of Permanent Datum above Mean Sea Level
APD  .F          15.500000               :Elevation of Depth Reference (LMF) above Permanent Datum
#-----------------------------------------------------------------------------
~CURVE INFORMATION
#MNEM.UNIT   API CODE                                  DESCRIPTION
#---- -----  --------                                  -----------------------
DEPT .F                                                :DEPTH (BOREHOLE) {F12.4}
CDF  .LBF                                              :Calibrated Downhole Force {F11.4}
CTEM .DEGF                                             :Cartridge Temperature {F11.4}
DCAL .IN                                               :Differential Caliper {F11.4}
DT   .US/F                                             :Delta-T (also called Slowness or Interval Transit Time) {F11.4}
ED   .F                                                :East Departure {F11.4}
GR_EDTC.GAPI                                           :Gamma Ray {F11.4}
GTEM .DEGF                                             :Generalized Borehole Temperature {F11.4}
HAZI .DEG                                              :Hole Azimuth Relative to True North {F11.4}
HAZIM.DEG                                              :Memorized Hole Azimuth {F11.4}
ITT  .S                                                :Integrated Transit Time {F11.4}
ND   .F                                                :North Departure {F11.4}
P1AZ .DEG                                              :Pad 1 Azimuth in Horizontal Plane (0 = True North) {F11.4}
RB   .DEG                                              :Relative Bearing {F11.4}
SDEV .DEG                                              :Sonde Deviation {F11.4}
SDEVM.DEG                                              :Memorized Sonde Deviation {F11.4}
SPHI .CFCF                                             :Sonic Porosity {F11.4}
STIT .F                                                :Stuck Tool Indicator, Total {F11.4}
TENS .LBF                                              :Cable Tension {F11.4}
#-----------------------------------------------------------------------------
# 
#      DEPT        CDF        CTEM       DCAL        DT         ED      GR_EDTC      GTEM       HAZI      HAZIM       ITT         ND        P1AZ        RB        SDEV      SDEVM       SPHI       STIT       TENS
#
~A  
# ...
    258.0000   652.3425    71.6706    -6.2539   109.9149     0.0453    61.7240    57.0900   134.3260   106.1882     0.0105    -0.2262    86.7531   312.4541     2.4909     2.5073     0.4054     0.0000   902.9286
    258.5000   654.6177    70.9459    -6.2826   109.5726     0.0495    62.6335    57.0950   133.7298   106.0394     0.0104    -0.2271    86.0608   312.3580     2.4913     2.5079     0.4028     0.0000   900.2000
    259.0000   653.7645    70.8141    -6.3988   110.2282     0.0538    62.0497    57.1000   133.1387   105.9254     0.0104    -0.2278    85.4089   312.2975     2.4912     2.5087     0.4077     0.0000   900.7857
    259.5000   654.2623    70.6823    -6.3405   116.5936     0.0579    62.2529    57.1050   132.5474   105.7955     0.0103    -0.2285    85.0474   312.5268     2.4913     2.5093     0.4556     0.0000   965.1429
    260.0000   652.9113    70.6823    -6.2817   119.2051     0.0622    62.4269    57.1100   132.1198   105.6610     0.0103    -0.2292    84.5825   312.4896     2.4913     2.5100     0.4752     0.0000   861.9333
    260.5000   652.4442    70.6823    -6.3676   119.7495     0.0665    64.8295    57.1150   131.5499   105.5279     0.0102    -0.2299    83.8872   312.3644     2.4915     2.5106     0.4793     0.0000   887.7857
    261.0000   653.3380    70.6823    -6.1387   120.3832     0.0706    65.8028    57.1200   131.0032   105.3862     0.0101    -0.2304    83.1909   312.2145     2.4916     2.5115     0.4841     0.0000   900.4286
    261.5000   655.8721    70.6823    -6.1673   117.3356     0.0749    62.5833    57.1250   130.4796   105.2337     0.0101    -0.2310    82.7641   312.3117     2.4917     2.5123     0.4612     0.0000   899.4667
    262.0000   651.3234    70.6823    -6.2245   115.2026     0.0793    60.9174    57.1300   130.0938   105.1241     0.0100    -0.2315    82.3581   312.2912     2.4916     2.5126     0.4451     0.0000   897.8572
    262.5000   654.1201    70.6823    -6.3686   119.0168     0.0835    65.5363    57.1350   129.6098   104.9643     0.0100    -0.2320    81.7381   312.1552     2.4915     2.5133     0.4738     0.0000   903.7858
    263.0000   651.0627    70.6823    -6.1394   122.9140     0.0878    66.2468    57.1400   129.1485   104.7977     0.0099    -0.2324    81.2100   312.0886     2.4913     2.5138     0.5031     0.0000   899.8000
    263.5000   652.6743    70.6823    -6.1394   128.4338     0.0922    71.5523    57.1450   128.8309   104.6291     0.0099    -0.2328    81.0049   312.2009     2.4911     2.5143     0.5446     0.0000   946.9286
    264.0000   653.4344    70.6823    -6.1673   131.0680     0.0965    68.5593    57.1500   128.4208   104.4384     0.0098    -0.2332    80.6728   312.2790     2.4906     2.5155     0.5644     0.0000   922.5715
    264.5000   652.2951    70.6823    -6.1394   131.0267     0.1008    71.4512    57.1550   128.0399   104.2978     0.0097    -0.2335    80.2621   312.2489     2.4899     2.5159     0.5641     0.0000   905.7333
    265.0000   653.0535    70.6823    -6.1394   131.2359     0.1052    70.0545    57.1600   127.7073   104.0793     0.0097    -0.2337    79.7331   312.0526     2.4897     2.5173     0.5657     0.0000   939.0001
    265.5000   650.9680    70.6823    -6.1676   132.0280     0.1095    70.2865    57.1650   127.4519   103.8481     0.0096    -0.2340    79.5528   312.1279     2.4888     2.5184     0.5716     0.0000   935.5714
    266.0000   652.9587    70.6823    -6.1119   131.1464     0.1139    66.6085    57.1700   127.1403   103.6098     0.0095    -0.2341    79.4156   312.3020     2.4884     2.5192     0.5650     0.0000   911.9333
    266.5000   654.1708    70.6823    -6.1387   130.6877     0.1183    64.8403    57.1750   126.8146   103.3617     0.0095    -0.2343    79.2202   312.4324     2.4877     2.5199     0.5616     0.0000   892.5714
    267.0000   650.3517    70.6823    -6.2259   130.9883     0.1227    60.0557    57.1800   126.4666   103.1626     0.0094    -0.2344    78.9929   312.5531     2.4869     2.5208     0.5638     0.0000   896.8000
    267.5000   652.5795    70.6823    -6.2259   131.1927     0.1272    58.2456    57.1850   126.2110   102.9086     0.0093    -0.2344    78.6225   312.4385     2.4866     2.5216     0.5654     0.0000   928.7143
    268.0000   651.3522    70.6823    -6.2267   131.7289     0.1315    57.1090    57.1900   125.8187   102.6528     0.0093    -0.2345    78.2081   312.4159     2.4860     2.5222     0.5694     0.0000   898.8572
    268.5000   652.5795    70.6823    -6.2539   130.6739     0.1359    62.0708    57.1950   125.3995   102.3979     0.0092    -0.2344    77.7956   312.4230     2.4856     2.5229     0.5615     0.0000   914.2857
    269.0000   650.9967    70.6823    -6.2531   129.0019     0.1404    69.4869    57.2000   124.9622   102.1413     0.0091    -0.2344    77.3246   312.3890     2.4853     2.5238     0.5489     0.0000   927.2667
    269.5000   653.9304    70.6823    -6.1981   125.7966     0.1449    71.5675    57.2050   124.6096   101.9592     0.0091    -0.2343    76.8806   312.2980     2.4853     2.5241     0.5248     0.0000   958.8571
    270.0000   650.0436    70.6823    -6.3414   122.0711     0.1494    68.1206    57.2100   124.1356   101.7113     0.0090    -0.2341    76.2427   312.1339     2.4852     2.5250     0.4968     0.0000   938.2001
    270.5000   654.1201    70.6823    -6.3399   121.6244     0.1539    63.2589    57.2150   123.6337   101.4695     0.0089    -0.2339    75.7422   312.1354     2.4853     2.5255     0.4934     0.0000   958.6429
    271.0000   652.3425    70.6823    -6.3671   122.1674     0.1583    64.4893    57.2200   123.1093   101.2264     0.0089    -0.2337    75.2944   312.2122     2.4852     2.5261     0.4975     0.0000   945.0714
    271.5000   650.7072    70.6823    -6.2539   114.4634     0.1629    68.1765    57.2250   122.7009   100.9764     0.0088    -0.2334    75.0330   312.3592     2.4850     2.5264     0.4396     0.0000   941.9999
    272.0000   651.2760    70.6823    -6.4276   108.0963     0.1674    68.4090    57.2300   122.1383   100.7913     0.0088    -0.2331    74.6156   312.5042     2.4846     2.5270     0.3917     0.0000   948.2857
    272.5000   653.9067    70.6823    -6.3988   100.0472     0.1720    60.8767    57.2350   121.5645   100.5385     0.0087    -0.2328    73.8851   312.3472     2.4844     2.5276     0.3312     0.0000   920.6667
    273.0000   653.6223    70.6823    -6.3414   101.8520     0.1766    55.4115    57.2400   120.9863   100.2925     0.0087    -0.2324    73.1472   312.1875     2.4842     2.5284     0.3448     0.0000   905.5000
    273.5000   654.5009    70.6823    -6.4266   106.3860     0.1810    55.9962    57.2450   120.5445   100.0494     0.0086    -0.2319    72.6683   312.1507     2.4838     2.5298     0.3788     0.0000   908.4286
    274.0000   652.3663    70.6823    -6.5702   115.8988     0.1856    62.4055    57.2500   119.9716    99.8294     0.0086    -0.2315    72.0162   312.0716     2.4838     2.5309     0.4504     0.0000   925.4666
    274.5000   652.9587    70.6823    -6.5702   123.2148     0.1904    69.6872    57.2550   119.4117    99.6789     0.0085    -0.2309    71.3716   311.9866     2.4839     2.5319     0.5054     0.0000   896.8666
    275.0000   653.1043    70.6823    -6.6002   126.1530     0.1950    79.3520    57.2600   118.8624    99.5020     0.0084    -0.2304    70.9040   312.0685     2.4839     2.5330     0.5275     0.0000   898.6429
    275.5000   653.6223    70.6823    -6.7444   124.3191     0.1996    87.6246    57.2650   118.4579    99.3584     0.0084    -0.2298    70.6433   312.2121     2.4840     2.5340     0.5137     0.0000   917.6667
    276.0000   651.6552    70.6823    -6.7142   119.5121     0.2042   108.4654    57.2700   117.9180    99.2405     0.0083    -0.2291    70.2180   312.3268     2.4840     2.5349     0.4775     0.0000   951.4285
    276.5000   651.6789    70.6823    -6.7414   123.0576     0.2088   117.9069    57.2750   117.3697    99.1367     0.0082    -0.2284    69.9515   312.6088     2.4843     2.5359     0.5042     0.0000   894.0667
