~Version
 VERS              .         2.0                           : CWLS LOG ASCII STANDARD - VERSION 2.0
 WRAP              .         NO                            : ONE LINE PER DEPTH STEP
 DLM               .         SPACE                         : DELIMITING CHARACTER(SPACE TAB OR COMMA)
~Well Information
#_______________________________________________________________________________
#
#PARAMETER_NAME    .UNIT     VALUE                         : DESCRIPTION
#_______________________________________________________________________________
STRT               .ft       1049.0000                     : First reference value
STOP               .ft       5858.0000                     : Last reference value
STEP               .ft       0.5000                        : Step increment
NULL               .         -999.25                       : Missing value
COMP               .         PRAIRIE STATE GENERATING CO, LLC: Company
WELL               .         LIVELY GROVE #1               : Well name
FLD                .         N/A                           : Field
LOC                .                                       : Location
CNTY               .         WASHINGTON                    : County
STAT               .         ILLINOIS                      : State
CTRY               .         USA                           : Country
SRVC               .         Schlumberger                  : Service Company
DATE               .         13-Aug-2021                   : Date
UWI                .                                       : Unique Well ID
APD                .ft       16                            : Elevation of Depth Reference (LMF) Above Permanent Datum
API                .         12-189-24947-00               : 
BHS                .         OPEN                          : Borehole Status (Open or Cased Hole)
BHT                .degF     115                           : Bottom Hole Temperature
BLI                .ft       5888                          : Bottom Log Interval
BS                 .in       8.5                           : Bit Size
CBDR               .ft       1049                          : Casing Bottom of Driller
CBLO               .ft       1049                          : Logger Casing Shoe Depth
CSIZ               .in       9.625                         : Current Casing Size
CWEI               .lbm/ft   36                            : Casing Weight
DCS                .         11-Aug-2021                   : Date Circulation Stopped
DFD                .lbm/gal  9.35                          : Drilling Fluid Density
DFT                .         FRESH WBM                     : Drilling Fluid Type
DLAB               .         12-Aug-2021                   : Date Logger At Bottom
EDF                .ft       477                           : Elevation of Drill Floor
EGL                .ft       461                           : Elevation of Ground Level
EKB                .ft       477                           : Elevation of Kelly Bushing
EPD                .ft       461                           : Elevation of Permanent Datum (PDAT) above Mean Sea Level
LMF                .         KB                            : Logging Measured From (Name of Logging Elevation Reference)
LUL                .         BRADFORD, PA                  : Logging Unit Location
LUN                .         OSLC 2266                     : Logging Unit Number
LATI               .         38.352151 degrees             : Latitude
LONG               .         -89.644768 degrees            : Longitude
MCST               .degF     81.9                          : Mudcake Sample Temperature
MFST               .degF     81.9                          : Mud Filtrate Sample Temperature
MRT                .degF     115                           : Maximum Recorded Temperature
MST                .degF     81.9                          : Mud Sample Temperature
ORIGINALWELLNAME   .         LIVELY GROVE #1               : 
PDAT               .         GL                            : Permanent Datum
PRODUCER-CODE      .         440                           : 
PRODUCER-NAME      .         Schlumberger                  : 
RMB                .ohm.m    0.9233273                     : Resistivity of Mud at Bottom Hole Temperature
RMCS               .ohm.m    1.44                          : Resistivity of Mud Cake Sample
RMFS               .ohm.m    1.033                         : Resistivity of Mud Filtrate Sample
RMS                .ohm.m    1.268                         : Resistivity of Mud Sample
RUN                .         RUN 1D                        : Run Number
TCS                .         13_00_00                      : Time Circulation Stopped
TDD                .ft       5888.35                       : Driller Total Depth
TDL                .ft       5888.35                       : Logger Total Depth
TLAB               .         17_08_00                      : Time Logger At Bottom
TLI                .ft       1049                          : Top Log Interval
~Parameter Information Block
#_______________________________________________________________________________
#
#PARAMETER_NAME    .UNIT     VALUE                         : DESCRIPTION
#_______________________________________________________________________________
SET                .         0_PnS_Aniso                   : 
TLFamily_BS        .         Bit Size                      : 
TLFamily_DEVIM     .         Hole Deviation                : 
TLFamily_DPHZ      .         Density Porosity              : 
TLFamily_DTCO_MF_DDBHC .         Compressional Slowness        : 
TLFamily_DTCO_MF_R .         Compressional Slowness        : 
TLFamily_DTCO_MF_T .         Compressional Slowness        : 
TLFamily_DTSH_FAST_DDBHC .         Fast Shear Slowness           : 
TLFamily_DTSH_FAST_R .         Fast Shear Slowness           : 
TLFamily_DTSH_FAST_T .         Fast Shear Slowness           : 
TLFamily_DTSH_SLOW_DDBHC .         Slow Shear Slowness           : 
TLFamily_DTSH_SLOW_R .         Slow Shear Slowness           : 
TLFamily_DTSH_SLOW_T .         Slow Shear Slowness           : 
TLFamily_FSA_NAZ   .         Fast Shear Azimuth            : 
TLFamily_FSA_NAZ_ERR .         Fast Shear Azimuth            : 
TLFamily_FSA_NAZ_ERRMINUS .         Fast Shear Azimuth            : 
TLFamily_FSA_NAZ_ERRPLUS .         Fast Shear Azimuth            : 
TLFamily_FSA_NAZ_IN .         Fast Shear Azimuth            : 
TLFamily_GR_EDTC   .         Gamma Ray                     : 
TLFamily_HAZIM     .         Hole Azimuth                  : 
TLFamily_HDAR      .         Borehole Diameter             : 
TLFamily_MAXXENE_OVERALL .         Acoustic Energy               : 
TLFamily_MD        .         Measured Depth                : 
TLFamily_MINXENE_OVERALL .         Acoustic Energy               : 
TLFamily_P1NO_MAST .         Pad A North                   : 
TLFamily_PEFZ      .         Photoelectric Factor          : 
TLFamily_PR_FAST   .         Poisson Ratio (Dynamic)       : 
TLFamily_SDEVM     .         Sonde Deviation               : 
TLFamily_SENSOR_AZIM_QCI .         Sensor Azimuth                : 
TLFamily_SLOANI    .         Acoustic Anisotropy           : 
TLFamily_SPHI      .         Total Porosity                : 
TLFamily_TDIF_ALT_OVERALL .         Time Interval                 : 
TLFamily_TDIF_ORG_OVERALL .         Time Interval                 : 
TLFamily_TENS      .         Tension                       : 
TLFamily_TIMANI    .         Acoustic Anisotropy           : 
TLFamily_TNPH      .         Thermal Neutron Porosity      : 
TLFamily_TW_B_L6   .         Travel Time                   : 
TLFamily_TW_E_L6   .         Travel Time                   : 
TLFamily_VPVS_FAST .         VpVs (Compressional To Shear) Ratio: 
TLFamily_XENEDIF   .         Acoustic Energy               : 
~Curve Information
#_______________________________________________________________________________
#
#LOGNAME           .UNIT     LOG_ID                        : DESCRIPTION
#_______________________________________________________________________________
MD                 .ft                                     : Measured Depth
BS                 .in                                     : Bit Size 
DEVIM              .deg                                    : Memorized Deviation 
DPHZ               .ft3/ft3                                : Standard Resolution Density Porosity <_techsia_lb_>F11 
DTCO_MF_DDBHC      .us/ft                                  : Compressional slowness 
DTCO_MF_R          .us/ft                                  : Compressional slowness 
DTCO_MF_T          .us/ft                                  : Compressional slowness 
DTSH_FAST_DDBHC    .us/ft                                  : Shear slowness 
DTSH_FAST_R        .us/ft                                  : Shear slowness 
DTSH_FAST_T        .us/ft                                  : Shear slowness 
DTSH_SLOW_DDBHC    .us/ft                                  : Shear slowness 
DTSH_SLOW_R        .us/ft                                  : Shear slowness 
DTSH_SLOW_T        .us/ft                                  : Shear slowness 
FSA_NAZ            .deg                                    : Fast shear azimuth(NAZ REF90) - overall - swapped 
FSA_NAZ_ERR        .deg                                    : Fast shear azimuth error, reference frame NAZ 
FSA_NAZ_ERRMINUS   .deg                                    : Fast shear azimuth error minus(NAZ REF90) - swapped 
FSA_NAZ_ERRPLUS    .deg                                    : Fast shear azimuth error plus(NAZ REF90) - swapped 
FSA_NAZ_IN         .deg                                    : Fast Shear Azimuth Indicator 
GR_EDTC            .gAPI                                   : Gamma Ray 
HAZIM              .deg                                    : Memorized Hole Azimuth 
HDAR               .in                                     : Hole Diameter from Area 
MAXXENE_OVERALL    .unitless                               : Maximum cross energy - overall 
MINXENE_OVERALL    .unitless                               : Minimum cross energy - overall 
P1NO_MAST          .deg                                    : Pad 1 Azimuth in Plane Orthogonal to Tool Axis (0 = True North), memorized to MAST 
PEFZ               .                                       : Standard Resolution Formation Photoelectric Factor <_techsia_lb_>F11 
PR_FAST            .unitless                               : Possion's Ratio 
SDEVM              .deg                                    : Memorized Sonde Deviation 
SENSOR_AZIM_QCI    .deg                                    : Tool azimuth for input QC 
SLOANI             .%                                      : Slowness-Based Anisotropy 
SPHI               .ft3/ft3                                : Total porosity from Sonic 
TDIF_ALT_OVERALL   .s                                      : Arrival time difference between fast and slow waves(alternate) - overall - swapped 
TDIF_ORG_OVERALL   .s                                      : Arrival time difference between fast and slow waves(original) - overall - swapped 
TENS               .lbf                                    : Cable Tension 
TIMANI             .%                                      : Time-Based Anisotropy 
TNPH               .ft3/ft3                                : Thermal Neutron Porosity (Ratio Method) in Selected Lithology <_techsia_lb_>F11 
TW_B_L6            .us                                     : Time window begin - packed 
TW_E_L6            .us                                     : Time window end - packed 
VPVS_FAST          .unitless                               : VpVs Ratio 
XENEDIF            .unitless                               : Energy-Based Anisotropy 
~Ascii
# ...
3927.5000  8.5000     0.3986     -0.0206    51.2532    50.3259    52.1805    92.4725    90.7531    94.1920    95.4381    93.7951    97.0812    90.6295    2.1530     88.4765    92.7825    90.6295    15.9994    348.3640   8.8295     0.1060     0.0094     59.9807    2.9871     0.2783     0.3986     68.9615    3.1564     0.0265     -0.0004    0.0000     2559.5500  2.2948     0.1370     1691.3939  4691.3940  1.8042     9.6568    
3928.0000  8.5000     0.3990     -0.0077    51.9206    51.1224    52.7188    92.9053    91.4251    94.3854    95.4636    93.8889    97.0383    90.4132    2.0956     88.3175    92.5088    90.4132    13.7190    349.0450   8.8611     0.1151     0.0095     60.1314    3.0287     0.2729     0.3990     67.9257    2.7163     0.0312     -0.0004    0.0000     2580.5264  2.4185     0.1372     1695.3617  4695.3618  1.7894     10.5648   
3928.5000  8.5000     0.3994     0.0012     52.6388    52.1503    53.1272    93.6915    93.2862    94.0966    96.3404    95.5050    97.1758    90.2935    1.9795     88.3140    92.2729    90.2935    12.8277    349.6405   8.8333     0.1248     0.0094     60.2897    2.9862     0.2694     0.3994     67.0609    2.7879     0.0363     -0.0004    0.0000     2650.4500  2.5483     0.1373     1698.6498  4698.6499  1.7799     11.5396   
3929.0000  8.5000     0.3999     -0.0151    52.6601    52.7305    52.5897    94.2483    94.5620    93.9346    98.1791    97.7864    98.5717    90.1531    1.8623     88.2908    92.0155    90.1531    12.6587    350.1734   8.8537     0.1345     0.0092     60.4738    2.9090     0.2731     0.3999     65.7277    4.0854     0.0365     -0.0004    0.0000     2577.5500  2.6765     0.1360     1701.1481  4701.1479  1.7897     12.5243   
3929.5000  8.5000     0.4006     -0.0241    52.1098    52.0451    52.1746    94.8714    94.4239    95.3188    100.1159   98.8499    101.3820   89.8778    1.8568     88.0210    91.7346    89.8778    12.6699    350.6927   8.8449     0.1443     0.0091     60.6567    2.9256     0.2840     0.4006     64.5221    5.3794     0.0326     -0.0004    0.0000     2524.5000  2.8042     0.1352     1703.0278  4703.0273  1.8206     13.5200   
3930.0000  8.5000     0.4017     -0.0381    51.6434    50.7016    52.5851    95.8215    93.8397    97.8032    101.2296   98.5622    103.8971   89.5356    1.9183     87.6173    91.4539    89.5356    12.0954    351.1372   8.7378     0.1537     0.0090     60.8937    3.0097     0.2953     0.4017     63.9067    5.4891     0.0293     -0.0004    0.0001     2529.5715  2.9233     0.1288     1704.4366  4704.4365  1.8554     14.4653   
3930.5000  8.5000     0.4034     -0.0369    51.3323    49.8646    52.7999    96.0627    94.0267    98.0986    101.5334   98.8452    104.2216   89.1650    1.9321     87.2329    91.0971    89.1650    11.9928    351.4883   8.7210     0.1626     0.0091     61.2045    3.1508     0.3002     0.4034     62.8485    5.5373     0.0271     -0.0004    0.0001     2550.1580  3.0332     0.1329     1706.0177  4706.0176  1.8714     15.3493   
3931.0000  8.5000     0.4060     -0.0330    51.7682    50.4274    53.1091    95.6132    95.7300    95.4965    101.1850   100.2061   102.1638   88.8137    1.9389     86.8748    90.7526    88.8137    10.9562    351.8196   8.7195     0.1715     0.0093     61.4252    3.1868     0.2926     0.4060     61.3232    5.6624     0.0302     -0.0004    0.0001     2551.9001  3.1417     0.1398     1708.0165  4708.0166  1.8469     16.2251   
3931.5000  8.5000     0.4093     -0.0270    52.5142    51.8560    53.1725    95.8624    98.4592    93.2656    100.7975   102.1034   99.4915    88.4825    1.9618     86.5207    90.4443    88.4825    12.2621    352.1303   8.7197     0.1801     0.0095     61.5643    3.1220     0.2856     0.4093     60.0361    5.0189     0.0354     -0.0004    0.0001     2536.6191  3.2441     0.1500     1709.8062  4709.8062  1.8255     17.0587   
3932.0000  8.5000     0.4128     -0.0262    53.3518    54.0257    52.6780    96.6010    100.4939   92.7080    100.9694   103.5781   98.3607    88.2051    1.9600     86.2451    90.1652    88.2051    14.6035    352.4095   8.7356     0.1870     0.0097     61.8021    3.0107     0.2805     0.4128     59.3055    4.4221     0.0414     -0.0004    0.0001     2524.0000  3.3275     0.1570     1711.0778  4711.0776  1.8106     17.7284   
3932.5000  8.5000     0.4167     -0.0319    54.1174    55.9465    52.2883    97.2709    100.6787   93.8630    101.0484   103.3582   98.7386    87.9767    1.9521     86.0246    89.9288    87.9767    18.5307    352.6713   8.7053     0.1915     0.0099     62.0951    2.9432     0.2759     0.4167     59.2556    3.8095     0.0468     -0.0004    0.0001     2509.6191  3.3845     0.1644     1711.5826  4711.5825  1.7974     18.1553   
3933.0000  8.5000     0.4211     -0.0276    53.9113    55.7147    52.1078    97.3969    99.2475    95.5464    100.6540   101.9519   99.3561    87.7923    1.9490     85.8433    89.7413    87.7923    18.4701    352.9321   8.7040     0.1929     0.0100     62.4434    2.9817     0.2791     0.4211     59.4355    3.2891     0.0453     -0.0004    0.0001     2543.3159  3.4109     0.1614     1711.5884  4711.5884  1.8066     18.2919   
3933.5000  8.5000     0.4254     -0.0239    52.9038    54.3106    51.4970    96.6815    97.5365    95.8265    100.1829   100.6114   99.7545    87.6275    1.8839     85.7436    89.5115    87.6275    17.0286    353.1689   8.7191     0.1916     0.0100     62.9089    3.0158     0.2863     0.4254     59.5382    3.5572     0.0382     -0.0004    0.0001     2545.6233  3.4054     0.1575     1711.9031  4711.9033  1.8275     18.1586   
3934.0000  8.5000     0.4302     -0.0096    52.2313    52.8639    51.5987    95.8738    96.5108    95.2368    99.7308    99.6040    99.8576    87.4360    1.8155     85.6205    89.2515    87.4360    13.5468    353.3604   8.6935     0.1886     0.0101     63.2837    3.0600     0.2890     0.4302     59.6737    3.9436     0.0334     -0.0004    0.0001     2562.9253  3.3738     0.1524     1712.6592  4712.6592  1.8356     17.8500   
3934.5000  8.5000     0.4351     0.0032     52.8546    52.7960    52.9133    95.4482    96.0405    94.8558    99.5184    99.0339    100.0029   87.2290    1.8095     85.4195    89.0385    87.2290    12.2035    353.5365   8.6983     0.1843     0.0101     63.5472    3.0798     0.2789     0.4351     59.8103    4.1753     0.0378     -0.0004    0.0001     2530.1501  3.3227     0.1621     1713.6323  4713.6323  1.8059     17.4134   
3935.0000  8.5000     0.4392     0.0182     53.3261    52.9942    53.6580    95.6054    95.9699    95.2408    99.8688    98.9136    100.8239   87.0114    1.8583     85.1532    88.8697    87.0114    12.3089    353.6992   8.6879     0.1791     0.0103     63.9501    3.1276     0.2742     0.4392     59.9604    4.3621     0.0412     -0.0004    0.0001     2494.2302  3.2582     0.1722     1714.3232  4714.3232  1.7928     16.8810   
3935.5000  8.5000     0.4435     0.0138     53.5689    52.8531    54.2848    96.1791    96.0263    96.3318    100.3206   98.8048    101.8365   86.8489    1.9467     84.9021    88.7956    86.8489    13.2987    353.9125   8.6671     0.1735     0.0105     64.2223    3.1181     0.2751     0.4435     60.1170    4.2153     0.0429     -0.0004    0.0001     2548.5500  3.1875     0.1624     1714.4598  4714.4600  1.7954     16.2982   
3936.0000  8.5000     0.4475     0.0044     53.2631    52.4433    54.0829    96.4677    95.8105    97.1249    100.3351   98.7517    101.9184   86.7500    2.0395     84.7106    88.7895    86.7500    15.7491    354.1421   8.6877     0.1667     0.0105     64.2555    3.1358     0.2807     0.4475     60.2695    3.9302     0.0407     -0.0004    0.0001     2553.3000  3.1074     0.1518     1714.4128  4714.4131  1.8112     15.6215   
3936.5000  8.5000     0.4508     -0.0153    52.3214    51.5137    53.1292    96.0415    95.3761    96.7069    99.8751    99.1046    100.6456   86.6291    2.1734     84.4557    88.8025    86.6291    16.4395    354.2906   8.6801     0.1582     0.0105     64.5114    3.1108     0.2890     0.4508     60.4528    3.9135     0.0341     -0.0004    0.0001     2568.5500  3.0062     0.1445     1713.9620  4713.9624  1.8356     14.7643   
