~Version
 VERS              .         2.0                           : CWLS LOG ASCII STANDARD - VERSION 2.0
 WRAP              .         NO                            : ONE LINE PER DEPTH STEP
 DLM               .         SPACE                         : DELIMITING CHARACTER(SPACE TAB OR COMMA)
~Well Information
#_______________________________________________________________________________
#
#PARAMETER_NAME    .UNIT     VALUE                         : DESCRIPTION
#_______________________________________________________________________________
STRT               .ft       1050.0000                     : First reference value
STOP               .ft       5850.0000                     : Last reference value
STEP               .ft       0.5000                        : Step increment
NULL               .         -999.25                       : Missing value
COMP               .         PRAIRIE STATE GENERATING CO, LLC: Company
WELL               .         LIVELY GROVE #1               : Well name
FLD                .         N/A                           : Field
LOC                .                                       : Location
CNTY               .         WASHINGTON                    : County
STAT               .         ILLINOIS                      : State
CTRY               .                                       : Country
SRVC               .         Schlumberger                  : Service Company
DATE               .         12-Aug-2021                   : Date
UWI                .                                       : Unique Well ID
APD                .ft       16                            : Elevation of Depth Reference (LMF) Above Permanent Datum
API                .         12-189-24947-00               : 
BHS                .         OPEN                          : Borehole Status (Open or Cased Hole)
BHT                .degF     115                           : Bottom Hole Temperature
BLI                .ft       5885.95                       : Bottom Log Interval
BS                 .in       8.5                           : Bit Size
CBDR               .ft       1049                          : Casing Bottom of Driller
CBLO               .ft       1049                          : Logger Casing Shoe Depth
CSIZ               .in       9.625                         : Current Casing Size
CWEI               .lbm/ft   36                            : Casing Weight
DCS                .         11-Aug-2021                   : Date Circulation Stopped
DFD                .lbm/gal  9.35                          : Drilling Fluid Density
DFT                .         FRESH WBM                     : Drilling Fluid Type
DLAB               .         12-Aug-2021                   : Date Logger At Bottom
EDF                .ft       477                           : Elevation of Drill Floor
EGL                .ft       461                           : Elevation of Ground Level
EKB                .ft       477                           : Elevation of Kelly Bushing
EPD                .ft       461                           : Elevation of Permanent Datum (PDAT) above Mean Sea Level
LMF                .         KB                            : Logging Measured From (Name of Logging Elevation Reference)
LUL                .         BRADFORD, PA                  : Logging Unit Location
LUN                .         OSLC 2266                     : Logging Unit Number
LATI               .dega     0.00000000                    : Latitude
LONG               .         -89.644768 degrees            : Longitude
MCST               .degF     81.9                          : Mudcake Sample Temperature
MFST               .degF     81.9                          : Mud Filtrate Sample Temperature
MRT                .degF     115                           : Maximum Recorded Temperature
MST                .degF     81.9                          : Mud Sample Temperature
ORIGINALWELLNAME   .         LIVELY GROVE #1               : 
PDAT               .         GL                            : Permanent Datum
PRODUCER-CODE      .         440                           : 
PRODUCER-NAME      .         Schlumberger                  : 
RMB                .ohm.m    0.9233273                     : Resistivity of Mud at Bottom Hole Temperature
RMCS               .ohm.m    1.44                          : Resistivity of Mud Cake Sample
RMFS               .ohm.m    1.033                         : Resistivity of Mud Filtrate Sample
RMS                .ohm.m    1.268                         : Resistivity of Mud Sample
RUN                .         RUN 1B                        : Run Number
TCS                .         17_00_00                      : Time Circulation Stopped
TDD                .ft       5888                          : Driller Total Depth
TDL                .ft       5888.35                       : Logger Total Depth
TLAB               .         07_19_00                      : Time Logger At Bottom
TLI                .ft       1049                          : Top Log Interval
~Parameter Information Block
#_______________________________________________________________________________
#
#PARAMETER_NAME    .UNIT     VALUE                         : DESCRIPTION
#_______________________________________________________________________________
SET                .         0_CP_MP_Delivered             : 
TLFamily_BS        .         Bit Size                      : 
TLFamily_C44       .         Elastic Modulus               : 
TLFamily_C55       .         Elastic Modulus               : 
TLFamily_C66       .         Elastic Modulus               : 
TLFamily_DEVIM     .         Hole Deviation                : 
TLFamily_DPHZ      .         Density Porosity              : 
TLFamily_DTCO_MF_DDBHC .     Compressional Slowness        : 
TLFamily_DTSH_FAST_DDBHC .   Fast Shear Slowness           : 
TLFamily_DTSH_SLOW_DDBHC .   Slow Shear Slowness           : 
TLFamily_DTSH_STRVP .        Stoneley Shear Slowness       : 
TLFamily_GAMMA     .         Regularization Factor         : 
TLFamily_GR_EDTC   .         Gamma Ray                     : 
TLFamily_HCAL      .         Caliper                       : 
TLFamily_ISHE      .         Shear Strength                : 
TLFamily_MAXXENE_OVERALL .   Acoustic Energy               : 
TLFamily_MD        .         Measured Depth                : 
TLFamily_MINXENE_OVERALL .   Acoustic Energy               : 
TLFamily_PPGI      .         Pore Pressure Gradient        : 
TLFamily_PR_HH     .         Poisson Ratio (Dynamic)       : 
TLFamily_PR_VH     .         Poisson Ratio (Dynamic)       : 
TLFamily_RHOZ      .         Bulk Density                  : 
TLFamily_RHOZ_EDT  .         Bulk Density                  : 
TLFamily_SDEVM     .         Sonde Deviation               : 
TLFamily_SLOANI    .         Acoustic Anisotropy           : 
TLFamily_SPHI      .         Total Porosity                : 
TLFamily_TNPH      .         Thermal Neutron Porosity      : 
TLFamily_TSTR      .         Tensile Strength              : 
TLFamily_TXSG_ANISO .        Minimum Horizontal Stress Gradient: 
TLFamily_TXSG_ISO  .         Minimum Horizontal Stress Gradient: 
TLFamily_TXSP_ANISO .         Minimum Horizontal Stress     : 
TLFamily_TZSG      .         Vertical Stress Gradient      : 
TLFamily_UCS       .         Compressive Strength          : 
TLFamily_YME_H_STA .         Young's Modulus (Dynamic)     : 
TLFamily_YME_V_STA .         Young's Modulus (Dynamic)     : 
~Curve Information
#_______________________________________________________________________________
#
#LOGNAME           .UNIT     LOG_ID                        : DESCRIPTION
#_______________________________________________________________________________
MD                 .ft                                     : Measured Depth 
BS                 .in                                     : Bit Size 
C44                .Mpsi                                   : C44 Modulus 
C55                .Mpsi                                   : C55 Modulus 
C66                .Mpsi                                   : C66 Modulus 
DEVIM              .deg                                    : Memorized Deviation 
DPHZ               .ft3/ft3                                : Standard Resolution Density Porosity (F11 
DTCO_MF_DDBHC      .us/ft                                  : Compressional slowness 
DTSH_FAST_DDBHC    .us/ft                                  : Fast Shear slowness 
DTSH_SLOW_DDBHC    .us/ft                                  : Slow Shear slowness 
DTSH_STRVP         .us/ft                                  : Horizontal Shear
GAMMA              .unitless                               : Thomsens Anisotropy Parameter Gamma 
GR_EDTC            .gAPI                                   : Gamma Ray 
HCAL               .IN                                     : HRCC Caliper Calibrated (F11 
ISHE               .psi                                    : Cohesive Strength 
MAXXENE_OVERALL    .unitless                               : Maximum cross energy - overall 
MINXENE_OVERALL    .unitless                               : Minimum cross energy - overall 
PPGI               .psi/ft                                 : Pore Pressure Gradient 
PR_HH              .unitless                               : Poissons Ratio - Loading Horizontal - Displacement Horizontal 
PR_VH              .unitless                               : Poissons Ratio - Loading Vertical - Displacement Horizontal 
RHOZ               .g/cm3                                  : Standard Resolution Formation Density 
RHOZ_EDT           .g/cm3                                  : Standard Resolution Formation Density 
SDEVM              .deg                                    : Memorized Sonde Deviation 
SLOANI             .%                                      : Slowness-Based Anisotropy 
SPHI               .ft3/ft3                                : Total porosity from Sonic 
TNPH               .ft3/ft3                                : Thermal Neutron Porosity (Ratio Method) in Selected Lithology (F11 
TSTR               .psi                                    : Tensile Strength 
TXSG_ANISO         .psi/ft                                 : Anisotropic Minimum Horizontal Stress Gradient 
TXSG_ISO           .psi/ft                                 : Isotropic Minimum Horizontal Stress Gradient 
TXSP_ANISO         .psi                                    : Anisotropic Minimum Horizontal Stress 
TZSG               .psi/ft                                 : Overburden Stress Gradient 
UCS                .psi                                    : Unconfined Compressive Strength 
YME_H_STA          .Mpsi                                   : Static Horizontal Youngs Modulus 
YME_V_STA          .Mpsi                                   : Static Vertical Youngs Modulus 
~Ascii
# ...
2645.0000  8.5000     3.1001     3.1001     3.5548     0.8504     -0.0312    57.1856    108.0346   108.6888   101.1940   0.0733     35.8397    8.8733     5069.0439  0.0147     0.0065     0.4800     0.2787     0.2905     2.7015     2.7015     0.8504     0.6037     0.0684     0.0914     2049.4124  0.8890     0.8665     2351.0991  1.1000     24592.9473 5.6564     5.0282    
2645.5000  8.5000     3.1564     3.1564     3.5663     0.8532     -0.0337    56.8482    107.1692   107.7735   101.1064   0.0649     35.5186    8.8733     5088.3560  0.0146     0.0065     0.4800     0.2805     0.2911     2.7056     2.7056     0.8532     0.5624     0.0661     0.0932     2082.0532  0.8879     0.8677     2348.7241  1.1000     24984.6387 5.6889     5.1209    
2646.0000  8.5000     3.1747     3.1747     3.5919     0.8559     -0.0366    56.7231    106.9114   107.6024   100.8339   0.0657     35.7490    8.8733     5162.6475  0.0145     0.0065     0.4800     0.2803     0.2910     2.7103     2.7103     0.8559     0.6442     0.0652     0.0927     2110.0566  0.8897     0.8691     2353.7471  1.1000     25320.6816 5.7385     5.1594    
2646.5000  8.5000     3.1691     3.1691     3.6159     0.8585     -0.0380    56.7944    107.0636   107.7315   100.5414   0.0705     35.1320    8.8733     5215.8726  0.0143     0.0066     0.4800     0.2786     0.2900     2.7127     2.7127     0.8585     0.6219     0.0657     0.0923     2117.2454  0.8908     0.8687     2357.1064  1.1000     25406.9434 5.7767     5.1561    
2647.0000  8.5000     3.1620     3.1620     3.5854     0.8609     -0.0345    57.1055    107.0985   107.7116   100.8617   0.0670     34.1637    8.8521     5041.4785  0.0144     0.0066     0.4800     0.2771     0.2878     2.7070     2.7070     0.8609     0.5708     0.0679     0.0906     2056.8223  0.8833     0.8625     2337.7385  1.1000     24681.8672 5.7080     5.1198    
2647.5000  8.5000     3.1762     3.1762     3.6303     0.8632     -0.0365    57.5063    107.0860   107.3714   100.2981   0.0715     35.4383    8.8733     4992.4541  0.0144     0.0066     0.4800     0.2709     0.2819     2.7103     2.7103     0.8632     0.2661     0.0707     0.0897     2023.7207  0.8761     0.8540     2319.2368  1.1000     24284.6484 5.7621     5.1284    
2648.0000  8.5000     3.1737     3.1737     3.6608     0.8650     -0.0375    57.7103    107.0835   107.5242   99.9096    0.0767     35.4610    8.8733     5005.9297  0.0142     0.0066     0.4800     0.2676     0.2791     2.7119     2.7119     0.8650     0.4107     0.0722     0.0899     2014.1686  0.8743     0.8507     2314.9404  1.1000     24170.0234 5.8032     5.1223    
2648.5000  8.5000     3.1501     3.1501     3.6915     0.8666     -0.0369    57.5006    107.3929   107.9755   99.4736    0.0859     36.0626    8.8733     5194.3369  0.0140     0.0066     0.4800     0.2683     0.2813     2.7109     2.7109     0.8666     0.5411     0.0707     0.0905     2063.3999  0.8834     0.8570     2339.3386  1.1000     24760.7988 5.8675     5.1119    
2649.0000  8.5000     3.0974     3.0974     3.6691     0.8679     -0.0352    57.3539    108.2596   108.8238   99.7268    0.0923     34.8594    8.8945     5308.0493  0.0141     0.0066     0.4800     0.2715     0.2859     2.7081     2.7081     0.8679     0.5198     0.0696     0.0966     2090.3113  0.8929     0.8647     2364.8992  1.1000     25083.7344 5.8418     5.0482    
2649.5000  8.5000     3.0554     3.0554     3.6844     0.8689     -0.0368    57.9923    109.0460   109.6300   99.5668    0.1029     35.4846    8.8521     5244.0737  0.0142     0.0066     0.4800     0.2662     0.2816     2.7108     2.7108     0.8689     0.5342     0.0742     0.1039     2035.7130  0.8888     0.8580     2354.7046  1.1000     24428.5566 5.8413     4.9679    
2650.0000  8.5000     3.0125     3.0125     3.7159     0.8699     -0.0401    59.5009    109.9574   110.4897   99.2437    0.1167     39.1428    8.8733     4986.1519  0.0145     0.0067     0.4800     0.2527     0.2686     2.7162     2.7162     0.8699     0.4829     0.0848     0.1267     1889.4807  0.8703     0.8363     2305.9011  1.1000     22673.7676 5.8257     4.8445    
2650.5000  8.5000     2.9268     2.9268     3.6698     0.8705     -0.0365    61.4912    111.5393   111.8631   99.7550    0.1269     45.3405    8.9368     4565.1689  0.0149     0.0068     0.4800     0.2391     0.2545     2.7102     2.7102     0.8705     0.2898     0.0989     0.1442     1678.4895  0.8446     0.8093     2238.3140  1.1000     20141.8730 5.6590     4.6216    
2651.0000  8.5000     2.8041     2.8041     3.6026     0.8715     -0.0267    63.1780    113.5571   114.0035   100.3811   0.1424     52.3455    8.9580     4267.0464  0.0152     0.0069     0.4800     0.2298     0.2459     2.6941     2.6941     0.8715     0.3924     0.1108     0.1690     1519.9899  0.8300     0.7922     2199.9817  1.1000     18239.8789 5.4800     4.3699    
2651.5000  8.5000     2.7305     2.7305     3.6205     0.8721     -0.0199    64.2940    114.8942   115.2328   99.9241    0.1630     58.5964    8.9368     4176.0020  0.0158     0.0069     0.4800     0.2207     0.2378     2.6829     2.6829     0.8721     0.2943     0.1187     0.1806     1443.0055  0.8226     0.7808     2180.8745  1.1000     17316.0664 5.4633     4.2260    
2652.0000  8.5000     2.7050     2.7050     3.7560     0.8728     -0.0206    64.8903    115.3353   115.9254   98.1264    0.1943     62.5368    8.9368     4333.3125  0.0163     0.0070     0.4800     0.2105     0.2292     2.6840     2.6840     0.8728     0.5104     0.1229     0.1939     1446.1667  0.8234     0.7743     2183.3345  1.1000     17354.0000 5.6580     4.1886    
2652.5000  8.5000     2.6901     2.6901     3.8908     0.8737     -0.0194    64.9888    115.5000   116.3183   96.3768    0.2232     67.4262    8.9686     4570.5625  0.0166     0.0071     0.4800     0.2042     0.2247     2.6821     2.6821     0.8737     0.7060     0.1236     0.2056     1484.8527  0.8304     0.7745     2202.3298  1.1000     17818.2324 5.8729     4.1866    
2653.0000  8.5000     2.6646     2.6646     3.8723     0.8748     -0.0138    65.0251    115.8251   116.6959   96.4392    0.2266     68.8959    8.9686     4561.3862  0.0168     0.0071     0.4800     0.2048     0.2258     2.6728     2.6728     0.8748     0.7490     0.1239     0.2019     1476.9949  0.8322     0.7758     2207.6313  1.1000     17723.9395 5.8418     4.1495    
2653.5000  8.5000     2.6314     2.6314     3.7718     0.8761     -0.0090    65.2589    116.5980   117.0348   97.5712    0.2167     70.7912    8.9686     4387.5483  0.0171     0.0071     0.4800     0.2077     0.2283     2.6649     2.6649     0.8761     0.3739     0.1255     0.2064     1430.7469  0.8287     0.7752     2198.7983  1.1000     17168.9648 5.6717     4.0822    
2654.0000  8.5000     2.6196     2.6196     3.7166     0.8778     -0.0133    65.5940    117.0981   117.3707   98.4235    0.2094     67.6730    8.9580     4268.0049  0.0174     0.0071     0.4800     0.2086     0.2285     2.6720     2.6720     0.8778     0.2325     0.1279     0.2055     1397.3677  0.8243     0.7728     2187.3240  1.1000     16768.4121 5.5740     4.0483    
2654.5000  8.5000     2.6129     2.6129     3.7172     0.8799     -0.0096    65.7762    116.9447   117.5579   98.3038    0.2113     68.1553    8.9792     4224.4316  0.0174     0.0072     0.4800     0.2067     0.2264     2.6659     2.6659     0.8799     0.5230     0.1292     0.2345     1378.8558  0.8211     0.7694     2179.2617  1.1000     16546.2695 5.5641     4.0276    
2655.0000  8.5000     2.5992     2.5992     3.6926     0.8827     -0.0063    65.8029    117.1113   117.7637   98.5283    0.2103     68.3687    8.9792     4192.2061  0.0174     0.0072     0.4800     0.2075     0.2274     2.6604     2.6604     0.8827     0.5556     0.1293     0.2344     1369.2714  0.8212     0.7699     2180.0269  1.1000     16431.2578 5.5235     4.0049    
2655.5000  8.5000     2.5687     2.5687     3.6743     0.8851     0.0037     65.8174    117.4013   118.1368   98.4684    0.2152     70.0462    8.9580     4178.7305  0.0171     0.0072     0.4800     0.2078     0.2283     2.6439     2.6439     0.8851     0.6245     0.1295     0.2383     1358.8235  0.8232     0.7711     2185.5972  1.1000     16305.8828 5.4914     3.9596    
