~Version
 VERS              .         2.0                           : CWLS LOG ASCII STANDARD - VERSION 2.0
 WRAP              .         NO                            : ONE LINE PER DEPTH STEP
 DLM               .         SPACE                         : DELIMITING CHARACTER(SPACE TAB OR COMMA)
~Well Information
#_______________________________________________________________________________
#
#PARAMETER_NAME    .UNIT     VALUE                         : DESCRIPTION
#_______________________________________________________________________________
STRT               .ft       1050.0000                     : First reference value
STOP               .ft       5850.0000                     : Last reference value
STEP               .ft       0.5000                        : Step increment
NULL               .         -999.25                       : Missing value
COMP               .         PRAIRIE STATE GENERATING CO, LLC: Company
WELL               .         LIVELY GROVE #1               : Well name
FLD                .         N/A                           : Field
LOC                .                                       : Location
CNTY               .         WASHINGTON                    : County
STAT               .         ILLINOIS                      : State
CTRY               .                                       : Country
SRVC               .         Schlumberger                  : Service Company
DATE               .         12-Aug-2021                   : Date
UWI                .                                       : Unique Well ID
APD                .ft       16                            : Elevation of Depth Reference (LMF) Above Permanent Datum
API                .         12-189-24947-00               : 
BHS                .         OPEN                          : Borehole Status (Open or Cased Hole)
BHT                .degF     115                           : Bottom Hole Temperature
BLI                .ft       5885.95                       : Bottom Log Interval
BS                 .in       8.5                           : Bit Size
CBDR               .ft       1049                          : Casing Bottom of Driller
CBLO               .ft       1049                          : Logger Casing Shoe Depth
CSIZ               .in       9.625                         : Current Casing Size
CWEI               .lbm/ft   36                            : Casing Weight
DCS                .         11-Aug-2021                   : Date Circulation Stopped
DFD                .lbm/gal  9.35                          : Drilling Fluid Density
DFT                .         FRESH WBM                     : Drilling Fluid Type
DLAB               .         12-Aug-2021                   : Date Logger At Bottom
EDF                .ft       477                           : Elevation of Drill Floor
EGL                .ft       461                           : Elevation of Ground Level
EKB                .ft       477                           : Elevation of Kelly Bushing
EPD                .ft       461                           : Elevation of Permanent Datum (PDAT) above Mean Sea Level
LMF                .         KB                            : Logging Measured From (Name of Logging Elevation Reference)
LUL                .         BRADFORD, PA                  : Logging Unit Location
LUN                .         OSLC 2266                     : Logging Unit Number
LATI               .dega     0.00000000                    : Latitude
LONG               .         -89.644768 degrees            : Longitude
MCST               .degF     81.9                          : Mudcake Sample Temperature
MFST               .degF     81.9                          : Mud Filtrate Sample Temperature
MRT                .degF     115                           : Maximum Recorded Temperature
MST                .degF     81.9                          : Mud Sample Temperature
ORIGINALWELLNAME   .         LIVELY GROVE #1               : 
PDAT               .         GL                            : Permanent Datum
PRODUCER-CODE      .         440                           : 
PRODUCER-NAME      .         Schlumberger                  : 
RMB                .ohm.m    0.9233273                     : Resistivity of Mud at Bottom Hole Temperature
RMCS               .ohm.m    1.44                          : Resistivity of Mud Cake Sample
RMFS               .ohm.m    1.033                         : Resistivity of Mud Filtrate Sample
RMS                .ohm.m    1.268                         : Resistivity of Mud Sample
RUN                .         RUN 1B                        : Run Number
TCS                .         17_00_00                      : Time Circulation Stopped
TDD                .ft       5888                          : Driller Total Depth
TDL                .ft       5888.35                       : Logger Total Depth
TLAB               .         07_19_00                      : Time Logger At Bottom
TLI                .ft       1049                          : Top Log Interval
~Parameter Information Block
#_______________________________________________________________________________
#
#PARAMETER_NAME    .UNIT     VALUE                         : DESCRIPTION
#_______________________________________________________________________________
SET                .         0_CP_MP_Delivered             : 
TLFamily_BS        .         Bit Size                      : 
TLFamily_C44       .         Elastic Modulus               : 
TLFamily_C55       .         Elastic Modulus               : 
TLFamily_C66       .         Elastic Modulus               : 
TLFamily_DEVIM     .         Hole Deviation                : 
TLFamily_DPHZ      .         Density Porosity              : 
TLFamily_DTCO_MF_DDBHC .     Compressional Slowness        : 
TLFamily_DTSH_FAST_DDBHC .   Fast Shear Slowness           : 
TLFamily_DTSH_SLOW_DDBHC .   Slow Shear Slowness           : 
TLFamily_DTSH_STRVP .        Stoneley Shear Slowness       : 
TLFamily_GAMMA     .         Regularization Factor         : 
TLFamily_GR_EDTC   .         Gamma Ray                     : 
TLFamily_HCAL      .         Caliper                       : 
TLFamily_ISHE      .         Shear Strength                : 
TLFamily_MAXXENE_OVERALL .   Acoustic Energy               : 
TLFamily_MD        .         Measured Depth                : 
TLFamily_MINXENE_OVERALL .   Acoustic Energy               : 
TLFamily_PPGI      .         Pore Pressure Gradient        : 
TLFamily_PR_HH     .         Poisson Ratio (Dynamic)       : 
TLFamily_PR_VH     .         Poisson Ratio (Dynamic)       : 
TLFamily_RHOZ      .         Bulk Density                  : 
TLFamily_RHOZ_EDT  .         Bulk Density                  : 
TLFamily_SDEVM     .         Sonde Deviation               : 
TLFamily_SLOANI    .         Acoustic Anisotropy           : 
TLFamily_SPHI      .         Total Porosity                : 
TLFamily_TNPH      .         Thermal Neutron Porosity      : 
TLFamily_TSTR      .         Tensile Strength              : 
TLFamily_TXSG_ANISO .        Minimum Horizontal Stress Gradient: 
TLFamily_TXSG_ISO  .         Minimum Horizontal Stress Gradient: 
TLFamily_TXSP_ANISO .         Minimum Horizontal Stress     : 
TLFamily_TZSG      .         Vertical Stress Gradient      : 
TLFamily_UCS       .         Compressive Strength          : 
TLFamily_YME_H_STA .         Young's Modulus (Dynamic)     : 
TLFamily_YME_V_STA .         Young's Modulus (Dynamic)     : 
~Curve Information
#_______________________________________________________________________________
#
#LOGNAME           .UNIT     LOG_ID                        : DESCRIPTION
#_______________________________________________________________________________
MD                 .ft                                     : Measured Depth 
BS                 .in                                     : Bit Size 
C44                .Mpsi                                   : C44 Modulus 
C55                .Mpsi                                   : C55 Modulus 
C66                .Mpsi                                   : C66 Modulus 
DEVIM              .deg                                    : Memorized Deviation 
DPHZ               .ft3/ft3                                : Standard Resolution Density Porosity (F11 
DTCO_MF_DDBHC      .us/ft                                  : Compressional slowness 
DTSH_FAST_DDBHC    .us/ft                                  : Fast Shear slowness 
DTSH_SLOW_DDBHC    .us/ft                                  : Slow Shear slowness 
DTSH_STRVP         .us/ft                                  : Horizontal Shear
GAMMA              .unitless                               : Thomsens Anisotropy Parameter Gamma 
GR_EDTC            .gAPI                                   : Gamma Ray 
HCAL               .IN                                     : HRCC Caliper Calibrated (F11 
ISHE               .psi                                    : Cohesive Strength 
MAXXENE_OVERALL    .unitless                               : Maximum cross energy - overall 
MINXENE_OVERALL    .unitless                               : Minimum cross energy - overall 
PPGI               .psi/ft                                 : Pore Pressure Gradient 
PR_HH              .unitless                               : Poissons Ratio - Loading Horizontal - Displacement Horizontal 
PR_VH              .unitless                               : Poissons Ratio - Loading Vertical - Displacement Horizontal 
RHOZ               .g/cm3                                  : Standard Resolution Formation Density 
RHOZ_EDT           .g/cm3                                  : Standard Resolution Formation Density 
SDEVM              .deg                                    : Memorized Sonde Deviation 
SLOANI             .%                                      : Slowness-Based Anisotropy 
SPHI               .ft3/ft3                                : Total porosity from Sonic 
TNPH               .ft3/ft3                                : Thermal Neutron Porosity (Ratio Method) in Selected Lithology (F11 
TSTR               .psi                                    : Tensile Strength 
TXSG_ANISO         .psi/ft                                 : Anisotropic Minimum Horizontal Stress Gradient 
TXSG_ISO           .psi/ft                                 : Isotropic Minimum Horizontal Stress Gradient 
TXSP_ANISO         .psi                                    : Anisotropic Minimum Horizontal Stress 
TZSG               .psi/ft                                 : Overburden Stress Gradient 
UCS                .psi                                    : Unconfined Compressive Strength 
YME_H_STA          .Mpsi                                   : Static Horizontal Youngs Modulus 
YME_V_STA          .Mpsi                                   : Static Vertical Youngs Modulus 
~Ascii
# ...
5516.0000  8.5000     4.4580     4.4580     4.9205     1.2370     -0.0958    46.0746    91.9561    92.3001    87.6917    0.0519     7.4082     8.9368     11870.1387 0.0715     0.0357     0.4800     0.3117     0.3221     2.8081     2.8081     1.2370     0.3735     0.0000     0.1408     4950.5479  0.8898     0.8758     4907.3213  1.1000     59406.5742 8.7296     8.0465    
5516.5000  8.5000     4.7211     4.7211     5.2715     1.2324     -0.1102    46.3781    89.6729    90.1293    85.0778    0.0583     9.3364     8.9051     12203.6416 0.0715     0.0341     0.4800     0.2952     0.3057     2.8318     2.8318     1.2324     0.5078     0.0000     0.1195     5041.7646  0.8728     0.8568     4813.9409  1.1000     60501.1758 9.3595     8.5272    
5517.0000  8.5000     4.8828     4.8828     5.3249     1.2278     -0.1098    47.4101    88.2553    88.5239    84.6411    0.0453     11.0255    8.8945     10932.8311 0.0709     0.0320     0.4800     0.2802     0.2875     2.8311     2.8311     1.2278     0.3039     0.0000     0.1102     4604.7515  0.8358     0.8235     4610.7056  1.1000     55257.0156 9.3414     8.6625    
5517.5000  8.5000     4.7885     4.7885     5.1833     1.2225     -0.0981    47.9132    88.7493    89.1541    85.4962    0.0412     9.7273     8.9051     10228.3643 0.0735     0.0307     0.4800     0.2794     0.2860     2.8118     2.8118     1.2225     0.4551     0.0029     0.1180     4334.3735  0.8269     0.8159     4561.7241  1.1000     52012.4844 9.0277     8.4240    
5518.0000  8.5000     4.4659     4.4659     4.7734     1.2176     -0.0862    49.6081    91.4958    92.0817    88.7819    0.0344     7.7970     8.9157     8608.5938  0.0745     0.0302     0.4800     0.2801     0.2856     2.7923     2.7923     1.2176     0.6383     0.0149     0.1297     3686.0522  0.8102     0.8015     4470.1519  1.1000     44232.6289 8.1576     7.6955    
5518.5000  8.5000     4.3594     4.3594     4.6582     1.2115     -0.0687    50.4004    92.1702    92.6684    89.4051    0.0343     6.9897     8.8874     7926.9321  0.0742     0.0355     0.4800     0.2749     0.2802     2.7633     2.7633     1.2115     0.5390     0.0205     0.1446     3394.9785  0.7970     0.7886     4397.8994  1.1000     40739.7422 7.8756     7.4280    
5519.0000  8.5000     4.3840     4.3840     4.7565     1.2062     -0.0623    50.3371    91.7641    92.2041    88.3074    0.0425     6.7722     8.8839     8109.0410  0.0760     0.0451     0.4800     0.2699     0.2762     2.7528     2.7528     1.2062     0.4783     0.0200     0.1556     3429.7065  0.7962     0.7858     4393.5352  1.1000     41156.4766 8.0422     7.4817    
5519.5000  8.5000     4.4578     4.4578     4.9263     1.2016     -0.0644    48.8347    91.0865    91.4651    86.8264    0.0526     6.7954     8.8874     9395.9580  0.0757     0.0494     0.4800     0.2789     0.2874     2.7562     2.7562     1.2016     0.4149     0.0094     0.1577     3914.6899  0.8249     0.8116     4552.5166  1.1000     46976.2813 8.4731     7.7682    
5520.0000  8.5000     4.6511     4.6511     5.1104     1.1966     -0.0782    48.2018    89.4325    90.0256    85.6005    0.0494     7.2423     8.9015     9983.9785  0.0728     0.0504     0.4800     0.2779     0.2857     2.7791     2.7791     1.1966     0.6610     0.0050     0.1575     4179.3291  0.8268     0.8140     4563.5962  1.1000     50151.9492 8.8578     8.1595    
5520.5000  8.5000     4.8440     4.8440     5.3634     1.1922     -0.0814    47.3397    87.6479    88.3659    83.6350    0.0536     7.3063     8.9015     10910.0332 0.0693     0.0505     0.4800     0.2756     0.2840     2.7842     2.7842     1.1922     0.8158     0.0000     0.1494     4538.3857  0.8335     0.8191     4600.8247  1.1000     54460.6250 9.3830     8.5845    
5521.0000  8.5000     4.9632     4.9632     5.3915     1.1884     -0.0725    46.7030    86.4325    86.9952    83.1969    0.0431     7.7418     8.9051     11055.4424 0.0666     0.0506     0.4800     0.2787     0.2856     2.7696     2.7696     1.1884     0.6489     0.0000     0.1370     4671.2480  0.8337     0.8219     4602.1973  1.1000     56054.9766 9.4727     8.8119    
5521.5000  8.5000     5.0231     5.0231     5.4032     1.1831     -0.0582    46.5566    85.5952    86.0610    82.7529    0.0378     7.4536     8.8945     10853.8223 0.0649     0.0506     0.4800     0.2767     0.2826     2.7460     2.7460     1.1831     0.5428     0.0000     0.1296     4623.1646  0.8267     0.8163     4564.0459  1.1000     55477.9766 9.4793     8.8907    
5522.0000  8.5000     5.0755     5.0755     5.4430     1.1767     -0.0574    46.5289    85.0645    85.6637    82.4301    0.0362     7.5335     8.8945     10828.6855 0.0622     0.0504     0.4800     0.2745     0.2801     2.7447     2.7447     1.1767     0.7018     0.0000     0.1251     4623.9834  0.8228     0.8128     4543.0283  1.1000     55487.8008 9.5456     8.9746    
5522.5000  8.5000     5.1452     5.1452     5.3912     1.1697     -0.0593    46.8301    84.5451    85.1178    82.8720    0.0239     7.4526     8.8945     10211.8672 0.0589     0.0503     0.4800     0.2715     0.2751     2.7478     2.7478     1.1697     0.6751     0.0000     0.1201     4444.6973  0.8077     0.8011     4459.9575  1.1000     53336.3672 9.4055     9.0220    
5523.0000  8.5000     5.2632     5.2632     5.4292     1.1628     -0.0723    47.3379    83.9816    84.4205    82.9029    0.0000     7.1497     8.9051     9226.8281  0.0597     0.0531     0.4800     0.2654     0.2654     2.7693     2.7693     1.1628     0.5213     0.0000     0.1156     4174.1934  0.7797     0.7797     4305.6523  1.1000     50090.3203 9.1935     9.1935    
5523.5000  8.5000     5.2411     5.2411     5.4385     1.1564     -0.0789    47.7286    84.3059    84.7841    82.9955    0.0000     8.3029     8.9262     8997.0156  0.0672     0.0582     0.4800     0.2618     0.2618     2.7802     2.7802     1.1564     0.5656     0.0016     0.1145     4070.2268  0.7732     0.7732     4270.0645  1.1000     48842.7227 9.1366     9.1366    
5524.0000  8.5000     5.1716     5.1716     5.3946     1.1486     -0.0881    47.7497    85.1345    85.5505    83.5592    0.0000     10.5826    8.9157     9081.8037  0.0665     0.0558     0.4800     0.2673     0.2673     2.7953     2.7953     1.1486     0.4875     0.0018     0.1123     4108.5845  0.7808     0.7808     4312.3667  1.1000     49303.0156 9.0561     9.0561    
5524.5000  8.5000     4.9287     4.9287     5.1550     1.1415     -0.0944    47.0363    87.3998    87.7680    85.6390    0.0000     13.3550    8.9157     9665.1973  0.0612     0.0497     0.4800     0.2930     0.2930     2.8058     2.8058     1.1415     0.4203     0.0000     0.1051     4372.5103  0.8182     0.8182     4519.3491  1.1000     52470.1250 8.7565     8.7565    
5525.0000  8.5000     4.5261     4.5261     4.7932     1.1378     -0.0947    45.9778    91.1967    91.6088    88.8192    0.0295     15.5761    8.9227     11226.2891 0.0573     0.0428     0.4800     0.3181     0.3241     2.8062     2.8062     1.1378     0.4508     0.0000     0.0983     4843.6270  0.8810     0.8729     4866.6709  1.1000     58123.5234 8.5019     8.1074    
5525.5000  8.5000     4.0491     4.0491     4.3628     1.1329     -0.0564    46.1470    95.3233    95.7628    92.0433    0.0387     16.4910    8.9227     10553.6260 0.0555     0.0404     0.4800     0.3311     0.3399     2.7431     2.7275     1.1329     0.4600     0.0000     0.1036     4489.1450  0.8998     0.8898     4971.2021  1.1000     53869.7422 7.6604     7.2129    
5526.0000  8.5000     3.6011     3.6011     3.6319     1.1278     0.0490     48.2818    97.8299    98.2631    97.6291    0.0000     16.4291    8.9227     6960.4834  0.0553     0.0399     0.4800     0.3393     0.3393     2.5691     2.7275     1.1278     0.4418     0.0055     0.1210     3148.9048  0.8566     0.8566     4733.0601  1.1000     37786.8594 6.1085     6.1085    
5526.5000  8.5000     3.2186     3.2186     3.2345     1.1236     0.1651     51.3368    99.5214    100.0156   99.5214    0.0000     16.2715    8.9368     4793.4893  0.0558     0.0392     0.4800     0.3195     0.3195     2.3776     2.7435     1.1236     0.4954     0.0271     0.1489     2168.5623  0.8063     0.8063     4455.3647  1.1000     26022.7461 5.2111     5.2111    
