~Version
 VERS              .         2.0                           : CWLS LOG ASCII STANDARD - VERSION 2.0
 WRAP              .         NO                            : ONE LINE PER DEPTH STEP
 DLM               .         SPACE                         : DELIMITING CHARACTER(SPACE TAB OR COMMA)
~Well Information
#_______________________________________________________________________________
#
#PARAMETER_NAME    .UNIT     VALUE                         : DESCRIPTION
#_______________________________________________________________________________
STRT               .ft       1050.0000                     : First reference value
STOP               .ft       5850.0000                     : Last reference value
STEP               .ft       0.5000                        : Step increment
NULL               .         -999.25                       : Missing value
COMP               .         PRAIRIE STATE GENERATING CO, LLC: Company
WELL               .         LIVELY GROVE #1               : Well name
FLD                .         N/A                           : Field
LOC                .                                       : Location
CNTY               .         WASHINGTON                    : County
STAT               .         ILLINOIS                      : State
CTRY               .                                       : Country
SRVC               .         Schlumberger                  : Service Company
DATE               .         12-Aug-2021                   : Date
UWI                .                                       : Unique Well ID
APD                .ft       16                            : Elevation of Depth Reference (LMF) Above Permanent Datum
API                .         12-189-24947-00               : 
BHS                .         OPEN                          : Borehole Status (Open or Cased Hole)
BHT                .degF     115                           : Bottom Hole Temperature
BLI                .ft       5885.95                       : Bottom Log Interval
BS                 .in       8.5                           : Bit Size
CBDR               .ft       1049                          : Casing Bottom of Driller
CBLO               .ft       1049                          : Logger Casing Shoe Depth
CSIZ               .in       9.625                         : Current Casing Size
CWEI               .lbm/ft   36                            : Casing Weight
DCS                .         11-Aug-2021                   : Date Circulation Stopped
DFD                .lbm/gal  9.35                          : Drilling Fluid Density
DFT                .         FRESH WBM                     : Drilling Fluid Type
DLAB               .         12-Aug-2021                   : Date Logger At Bottom
EDF                .ft       477                           : Elevation of Drill Floor
EGL                .ft       461                           : Elevation of Ground Level
EKB                .ft       477                           : Elevation of Kelly Bushing
EPD                .ft       461                           : Elevation of Permanent Datum (PDAT) above Mean Sea Level
LMF                .         KB                            : Logging Measured From (Name of Logging Elevation Reference)
LUL                .         BRADFORD, PA                  : Logging Unit Location
LUN                .         OSLC 2266                     : Logging Unit Number
LATI               .dega     0.00000000                    : Latitude
LONG               .         -89.644768 degrees            : Longitude
MCST               .degF     81.9                          : Mudcake Sample Temperature
MFST               .degF     81.9                          : Mud Filtrate Sample Temperature
MRT                .degF     115                           : Maximum Recorded Temperature
MST                .degF     81.9                          : Mud Sample Temperature
ORIGINALWELLNAME   .         LIVELY GROVE #1               : 
PDAT               .         GL                            : Permanent Datum
PRODUCER-CODE      .         440                           : 
PRODUCER-NAME      .         Schlumberger                  : 
RMB                .ohm.m    0.9233273                     : Resistivity of Mud at Bottom Hole Temperature
RMCS               .ohm.m    1.44                          : Resistivity of Mud Cake Sample
RMFS               .ohm.m    1.033                         : Resistivity of Mud Filtrate Sample
RMS                .ohm.m    1.268                         : Resistivity of Mud Sample
RUN                .         RUN 1B                        : Run Number
TCS                .         17_00_00                      : Time Circulation Stopped
TDD                .ft       5888                          : Driller Total Depth
TDL                .ft       5888.35                       : Logger Total Depth
TLAB               .         07_19_00                      : Time Logger At Bottom
TLI                .ft       1049                          : Top Log Interval
~Parameter Information Block
#_______________________________________________________________________________
#
#PARAMETER_NAME    .UNIT     VALUE                         : DESCRIPTION
#_______________________________________________________________________________
SET                .         0_CP_MP_Delivered             : 
TLFamily_BS        .         Bit Size                      : 
TLFamily_C44       .         Elastic Modulus               : 
TLFamily_C55       .         Elastic Modulus               : 
TLFamily_C66       .         Elastic Modulus               : 
TLFamily_DEVIM     .         Hole Deviation                : 
TLFamily_DPHZ      .         Density Porosity              : 
TLFamily_DTCO_MF_DDBHC .     Compressional Slowness        : 
TLFamily_DTSH_FAST_DDBHC .   Fast Shear Slowness           : 
TLFamily_DTSH_SLOW_DDBHC .   Slow Shear Slowness           : 
TLFamily_DTSH_STRVP .        Stoneley Shear Slowness       : 
TLFamily_GAMMA     .         Regularization Factor         : 
TLFamily_GR_EDTC   .         Gamma Ray                     : 
TLFamily_HCAL      .         Caliper                       : 
TLFamily_ISHE      .         Shear Strength                : 
TLFamily_MAXXENE_OVERALL .   Acoustic Energy               : 
TLFamily_MD        .         Measured Depth                : 
TLFamily_MINXENE_OVERALL .   Acoustic Energy               : 
TLFamily_PPGI      .         Pore Pressure Gradient        : 
TLFamily_PR_HH     .         Poisson Ratio (Dynamic)       : 
TLFamily_PR_VH     .         Poisson Ratio (Dynamic)       : 
TLFamily_RHOZ      .         Bulk Density                  : 
TLFamily_RHOZ_EDT  .         Bulk Density                  : 
TLFamily_SDEVM     .         Sonde Deviation               : 
TLFamily_SLOANI    .         Acoustic Anisotropy           : 
TLFamily_SPHI      .         Total Porosity                : 
TLFamily_TNPH      .         Thermal Neutron Porosity      : 
TLFamily_TSTR      .         Tensile Strength              : 
TLFamily_TXSG_ANISO .        Minimum Horizontal Stress Gradient: 
TLFamily_TXSG_ISO  .         Minimum Horizontal Stress Gradient: 
TLFamily_TXSP_ANISO .         Minimum Horizontal Stress     : 
TLFamily_TZSG      .         Vertical Stress Gradient      : 
TLFamily_UCS       .         Compressive Strength          : 
TLFamily_YME_H_STA .         Young's Modulus (Dynamic)     : 
TLFamily_YME_V_STA .         Young's Modulus (Dynamic)     : 
~Curve Information
#_______________________________________________________________________________
#
#LOGNAME           .UNIT     LOG_ID                        : DESCRIPTION
#_______________________________________________________________________________
MD                 .ft                                     : Measured Depth 
BS                 .in                                     : Bit Size 
C44                .Mpsi                                   : C44 Modulus 
C55                .Mpsi                                   : C55 Modulus 
C66                .Mpsi                                   : C66 Modulus 
DEVIM              .deg                                    : Memorized Deviation 
DPHZ               .ft3/ft3                                : Standard Resolution Density Porosity (F11 
DTCO_MF_DDBHC      .us/ft                                  : Compressional slowness 
DTSH_FAST_DDBHC    .us/ft                                  : Fast Shear slowness 
DTSH_SLOW_DDBHC    .us/ft                                  : Slow Shear slowness 
DTSH_STRVP         .us/ft                                  : Horizontal Shear
GAMMA              .unitless                               : Thomsens Anisotropy Parameter Gamma 
GR_EDTC            .gAPI                                   : Gamma Ray 
HCAL               .IN                                     : HRCC Caliper Calibrated (F11 
ISHE               .psi                                    : Cohesive Strength 
MAXXENE_OVERALL    .unitless                               : Maximum cross energy - overall 
MINXENE_OVERALL    .unitless                               : Minimum cross energy - overall 
PPGI               .psi/ft                                 : Pore Pressure Gradient 
PR_HH              .unitless                               : Poissons Ratio - Loading Horizontal - Displacement Horizontal 
PR_VH              .unitless                               : Poissons Ratio - Loading Vertical - Displacement Horizontal 
RHOZ               .g/cm3                                  : Standard Resolution Formation Density 
RHOZ_EDT           .g/cm3                                  : Standard Resolution Formation Density 
SDEVM              .deg                                    : Memorized Sonde Deviation 
SLOANI             .%                                      : Slowness-Based Anisotropy 
SPHI               .ft3/ft3                                : Total porosity from Sonic 
TNPH               .ft3/ft3                                : Thermal Neutron Porosity (Ratio Method) in Selected Lithology (F11 
TSTR               .psi                                    : Tensile Strength 
TXSG_ANISO         .psi/ft                                 : Anisotropic Minimum Horizontal Stress Gradient 
TXSG_ISO           .psi/ft                                 : Isotropic Minimum Horizontal Stress Gradient 
TXSP_ANISO         .psi                                    : Anisotropic Minimum Horizontal Stress 
TZSG               .psi/ft                                 : Overburden Stress Gradient 
UCS                .psi                                    : Unconfined Compressive Strength 
YME_H_STA          .Mpsi                                   : Static Horizontal Youngs Modulus 
YME_V_STA          .Mpsi                                   : Static Vertical Youngs Modulus 
~Ascii
# ...
2964.0000  8.5000     3.9632     3.9632     4.1508     1.4179     -0.0047    49.7270    94.7706    95.3504    92.8866    0.0237     17.1068    9.1591     7387.0381  0.0636     0.0155     0.4800     0.3018     0.3062     2.6578     2.6578     1.4179     0.6099     0.0157     0.0551     3216.4219  0.9191     0.9107     2723.9585  1.1000     38597.0625 7.0064     6.7355    
2964.5000  8.5000     4.0374     4.0374     4.1623     1.4178     -0.0071    50.3744    93.9692    94.5362    92.8265    0.0000     15.0894    9.1485     6597.9229  0.0655     0.0154     0.4800     0.2972     0.2972     2.6618     2.6618     1.4178     0.6016     0.0203     0.0532     2984.8833  0.8881     0.8881     2632.3877  1.1000     35818.5977 6.8266     6.8266    
2965.0000  8.5000     3.9781     3.9781     4.0813     1.4200     -0.0095    50.3537    94.4661    95.5860    93.8123    0.0000     14.5320    9.1697     6607.2539  0.0751     0.0157     0.4800     0.3024     0.3024     2.6657     2.6657     1.4200     1.1785     0.0202     0.0493     2989.1047  0.8947     0.8947     2652.3000  1.1000     35869.2578 6.7225     6.7225    
2965.5000  8.5000     3.8897     3.8897     4.0128     1.4204     -0.0086    49.7167    95.3681    96.7819    94.5824    0.0000     13.6881    9.1485     6877.7500  0.0835     0.0160     0.4800     0.3145     0.3145     2.6641     2.6641     1.4204     1.4716     0.0157     0.0488     3111.4766  0.9145     0.9145     2711.4932  1.1000     37337.7188 6.6285     6.6285    
2966.0000  8.5000     3.8565     3.8565     4.0330     1.4196     -0.0181    49.6097    95.9550    97.5942    94.6234    0.0229     12.2332    9.1697     7486.3618  0.0897     0.0158     0.4800     0.3120     0.3165     2.6799     2.6799     1.4196     1.6939     0.0149     0.0454     3263.6953  0.9332     0.9251     2767.3474  1.1000     39164.3438 6.8269     6.5751    
2966.5000  8.5000     3.6901     3.6901     3.8821     1.4188     -0.0194    49.7151    98.2642    99.6778    96.4853    0.0260     11.4602    9.1697     7416.0444  0.0952     0.0151     0.4800     0.3201     0.3255     2.6821     2.6821     1.4188     1.4283     0.0157     0.0431     3217.1521  0.9436     0.9346     2798.8418  1.1000     38605.8242 6.5617     6.2919    
2967.0000  8.5000     3.6842     3.6842     3.8666     1.4188     -0.0230    49.9753    98.6365    99.6740    96.7849    0.0247     12.0770    9.1697     7282.1475  0.1003     0.0145     0.4800     0.3191     0.3243     2.6880     2.6880     1.4188     1.0463     0.0175     0.0396     3165.3442  0.9395     0.9309     2787.0208  1.1000     37984.1328 6.5235     6.2671    
2967.5000  8.5000     3.8410     3.8410     3.9692     1.4194     -0.0183    49.8516    96.5777    97.3582    95.3862    0.0000     12.8712    9.1274     6864.2461  0.1043     0.0141     0.4800     0.3176     0.3176     2.6802     2.6802     1.4194     0.8049     0.0166     0.0418     3105.3674  0.9180     0.9180     2723.8882  1.1000     37264.4102 6.5500     6.5500    
2968.0000  8.5000     3.8808     3.8808     3.9158     1.4212     -0.0209    49.2685    96.2765    96.8167    96.1121    0.0000     13.0321    9.1909     7173.7319  0.1074     0.0140     0.4800     0.3232     0.3232     2.6845     2.6845     1.4212     0.5594     0.0125     0.0419     3245.3779  0.9305     0.9305     2761.2900  1.1000     38944.5352 6.6028     6.6028    
2968.5000  8.5000     3.8190     3.8190     3.8487     1.4231     -0.0267    48.7149    97.1187    97.8763    97.1187    0.0000     12.8121    9.2015     7460.0259  0.1099     0.0144     0.4800     0.3331     0.3331     2.6941     2.6941     1.4231     0.7770     0.0086     0.0430     3374.8965  0.9477     0.9477     2812.7715  1.1000     40498.7578 6.5292     6.5292    
2969.0000  8.5000     3.9206     3.9206     3.9652     1.4260     -0.0318    48.5155    95.8310    96.9278    95.8310    0.0000     12.9233    9.2121     7670.9102  0.1130     0.0150     0.4800     0.3294     0.3294     2.7025     2.7025     1.4260     1.1380     0.0072     0.0417     3470.3000  0.9467     0.9467     2810.4067  1.1000     41643.6016 6.7321     6.7321    
2969.5000  8.5000     4.1124     4.1124     4.2441     1.4291     -0.0377    49.0780    93.6991    94.8473    92.7944    0.0000     13.1339    9.2226     7527.6670  0.1170     0.0155     0.4800     0.3114     0.3114     2.7122     2.7122     1.4291     1.2180     0.0112     0.0425     3405.4971  0.9220     0.9220     2737.5200  1.1000     40865.9648 7.0817     7.0817    
2970.0000  8.5000     4.1251     4.1251     4.3452     1.4319     -0.0404    49.6377    93.6796    94.7323    91.7845    0.0267     13.4017    9.2121     7870.5952  0.1187     0.0150     0.4800     0.2968     0.3016     2.7167     2.7167     1.4319     1.1174     0.0151     0.0419     3410.7776  0.9223     0.9125     2738.8259  1.1000     40929.3320 7.3798     7.0581    
2970.5000  8.5000     4.0514     4.0514     4.2055     1.4361     -0.0394    49.8697    94.5254    95.5346    93.2685    0.0000     14.4071    9.2544     7103.3457  0.1194     0.0137     0.4800     0.3066     0.3066     2.7151     2.7151     1.4361     1.0619     0.0167     0.0401     3213.5354  0.9086     0.9086     2698.5149  1.1000     38562.4258 6.9378     6.9378    
2971.0000  8.5000     4.0404     4.0404     4.1669     1.4380     -0.0330    49.7331    94.4607    95.4881    93.5173    0.0000     14.7684    9.2756     7116.3896  0.1235     0.0122     0.4800     0.3083     0.3083     2.7045     2.7045     1.4380     1.0817     0.0158     0.0392     3219.4365  0.9109     0.9109     2705.8931  1.1000     38633.2383 6.9069     6.9069    
2971.5000  8.5000     3.9882     3.9882     4.1270     1.4387     -0.0262    49.7398    94.8802    95.9102    93.7729    0.0000     14.0370    9.3179     7042.1548  0.1290     0.0109     0.4800     0.3103     0.3103     2.6933     2.6933     1.4387     1.0798     0.0158     0.0391     3185.8528  0.9119     0.9119     2709.3831  1.1000     38230.2344 6.8189     6.8189    
2972.0000  8.5000     3.8822     3.8822     4.0342     1.4369     -0.0271    50.1378    96.1860    97.2396    94.8700    0.0000     12.9015    9.3603     6812.5918  0.1337     0.0100     0.4800     0.3129     0.3129     2.6946     2.6946     1.4369     1.0895     0.0186     0.0368     3081.9990  0.9109     0.9109     2706.9226  1.1000     36983.9883 6.6234     6.6234    
2972.5000  8.5000     3.7142     3.7142     3.8483     1.4362     -0.0268    51.0654    98.5082    99.2265    97.1272    0.0000     12.8568    9.3814     6316.3901  0.1389     0.0094     0.4800     0.3151     0.3151     2.6943     2.6943     1.4362     0.7266     0.0252     0.0357     2857.5188  0.9044     0.9044     2688.0159  1.1000     34290.2227 6.2754     6.2754    
2973.0000  8.5000     3.6702     3.6702     3.7907     1.4367     -0.0340    51.3002    99.5865    99.7613    98.0768    0.0000     14.6042    9.4449     6243.3228  0.1449     0.0089     0.4800     0.3171     0.3171     2.7061     2.7061     1.4367     0.1753     0.0269     0.0355     2824.4631  0.9056     0.9056     2692.0085  1.1000     33893.5586 6.1873     6.1873    
2973.5000  8.5000     3.7248     3.7248     3.8583     1.4384     -0.0295    50.3838    98.5533    99.0553    97.0791    0.0000     15.6885    9.5296     6641.9717  0.1502     0.0082     0.4800     0.3214     0.3214     2.6986     2.6986     1.4384     0.5081     0.0204     0.0368     3004.8110  0.9184     0.9184     2730.3672  1.1000     36057.7305 6.3347     6.3347    
2974.0000  8.5000     3.8965     3.8965     4.0543     1.4406     -0.0220    50.1046    96.2043    96.5627    94.4883    0.0000     14.7395    9.6143     6797.8115  0.1561     0.0078     0.4800     0.3114     0.3114     2.6863     2.6863     1.4406     0.3719     0.0184     0.0390     3075.3125  0.9087     0.9087     2701.9563  1.1000     36903.7500 6.6476     6.6476    
2974.5000  8.5000     3.9265     3.9265     4.0678     1.4430     -0.0117    50.4190    95.4716    95.9468    94.0318    0.0000     13.6768    9.6990     6580.4731  0.1628     0.0077     0.4800     0.3047     0.3047     2.6693     2.6693     1.4430     0.4965     0.0206     0.0427     2976.9893  0.8964     0.8964     2665.9204  1.1000     35723.8711 6.6567     6.6567    
