~Version
 VERS              .         2.0                           : CWLS LOG ASCII STANDARD - VERSION 2.0
 WRAP              .         NO                            : ONE LINE PER DEPTH STEP
 DLM               .         SPACE                         : DELIMITING CHARACTER(SPACE TAB OR COMMA)
~Well Information
#_______________________________________________________________________________
#
#PARAMETER_NAME    .UNIT     VALUE                         : DESCRIPTION
#_______________________________________________________________________________
STRT               .ft       1050.0000                     : First reference value
STOP               .ft       5850.0000                     : Last reference value
STEP               .ft       0.5000                        : Step increment
NULL               .         -999.25                       : Missing value
COMP               .         PRAIRIE STATE GENERATING CO, LLC: Company
WELL               .         LIVELY GROVE #1               : Well name
FLD                .         N/A                           : Field
LOC                .                                       : Location
CNTY               .         WASHINGTON                    : County
STAT               .         ILLINOIS                      : State
CTRY               .                                       : Country
SRVC               .         Schlumberger                  : Service Company
DATE               .         12-Aug-2021                   : Date
UWI                .                                       : Unique Well ID
APD                .ft       16                            : Elevation of Depth Reference (LMF) Above Permanent Datum
API                .         12-189-24947-00               : 
BHS                .         OPEN                          : Borehole Status (Open or Cased Hole)
BHT                .degF     115                           : Bottom Hole Temperature
BLI                .ft       5885.95                       : Bottom Log Interval
BS                 .in       8.5                           : Bit Size
CBDR               .ft       1049                          : Casing Bottom of Driller
CBLO               .ft       1049                          : Logger Casing Shoe Depth
CSIZ               .in       9.625                         : Current Casing Size
CWEI               .lbm/ft   36                            : Casing Weight
DCS                .         11-Aug-2021                   : Date Circulation Stopped
DFD                .lbm/gal  9.35                          : Drilling Fluid Density
DFT                .         FRESH WBM                     : Drilling Fluid Type
DLAB               .         12-Aug-2021                   : Date Logger At Bottom
EDF                .ft       477                           : Elevation of Drill Floor
EGL                .ft       461                           : Elevation of Ground Level
EKB                .ft       477                           : Elevation of Kelly Bushing
EPD                .ft       461                           : Elevation of Permanent Datum (PDAT) above Mean Sea Level
LMF                .         KB                            : Logging Measured From (Name of Logging Elevation Reference)
LUL                .         BRADFORD, PA                  : Logging Unit Location
LUN                .         OSLC 2266                     : Logging Unit Number
LATI               .dega     0.00000000                    : Latitude
LONG               .         -89.644768 degrees            : Longitude
MCST               .degF     81.9                          : Mudcake Sample Temperature
MFST               .degF     81.9                          : Mud Filtrate Sample Temperature
MRT                .degF     115                           : Maximum Recorded Temperature
MST                .degF     81.9                          : Mud Sample Temperature
ORIGINALWELLNAME   .         LIVELY GROVE #1               : 
PDAT               .         GL                            : Permanent Datum
PRODUCER-CODE      .         440                           : 
PRODUCER-NAME      .         Schlumberger                  : 
RMB                .ohm.m    0.9233273                     : Resistivity of Mud at Bottom Hole Temperature
RMCS               .ohm.m    1.44                          : Resistivity of Mud Cake Sample
RMFS               .ohm.m    1.033                         : Resistivity of Mud Filtrate Sample
RMS                .ohm.m    1.268                         : Resistivity of Mud Sample
RUN                .         RUN 1B                        : Run Number
TCS                .         17_00_00                      : Time Circulation Stopped
TDD                .ft       5888                          : Driller Total Depth
TDL                .ft       5888.35                       : Logger Total Depth
TLAB               .         07_19_00                      : Time Logger At Bottom
TLI                .ft       1049                          : Top Log Interval
~Parameter Information Block
#_______________________________________________________________________________
#
#PARAMETER_NAME    .UNIT     VALUE                         : DESCRIPTION
#_______________________________________________________________________________
SET                .         0_CP_MP_Delivered             : 
TLFamily_BS        .         Bit Size                      : 
TLFamily_C44       .         Elastic Modulus               : 
TLFamily_C55       .         Elastic Modulus               : 
TLFamily_C66       .         Elastic Modulus               : 
TLFamily_DEVIM     .         Hole Deviation                : 
TLFamily_DPHZ      .         Density Porosity              : 
TLFamily_DTCO_MF_DDBHC .     Compressional Slowness        : 
TLFamily_DTSH_FAST_DDBHC .   Fast Shear Slowness           : 
TLFamily_DTSH_SLOW_DDBHC .   Slow Shear Slowness           : 
TLFamily_DTSH_STRVP .        Stoneley Shear Slowness       : 
TLFamily_GAMMA     .         Regularization Factor         : 
TLFamily_GR_EDTC   .         Gamma Ray                     : 
TLFamily_HCAL      .         Caliper                       : 
TLFamily_ISHE      .         Shear Strength                : 
TLFamily_MAXXENE_OVERALL .   Acoustic Energy               : 
TLFamily_MD        .         Measured Depth                : 
TLFamily_MINXENE_OVERALL .   Acoustic Energy               : 
TLFamily_PPGI      .         Pore Pressure Gradient        : 
TLFamily_PR_HH     .         Poisson Ratio (Dynamic)       : 
TLFamily_PR_VH     .         Poisson Ratio (Dynamic)       : 
TLFamily_RHOZ      .         Bulk Density                  : 
TLFamily_RHOZ_EDT  .         Bulk Density                  : 
TLFamily_SDEVM     .         Sonde Deviation               : 
TLFamily_SLOANI    .         Acoustic Anisotropy           : 
TLFamily_SPHI      .         Total Porosity                : 
TLFamily_TNPH      .         Thermal Neutron Porosity      : 
TLFamily_TSTR      .         Tensile Strength              : 
TLFamily_TXSG_ANISO .        Minimum Horizontal Stress Gradient: 
TLFamily_TXSG_ISO  .         Minimum Horizontal Stress Gradient: 
TLFamily_TXSP_ANISO .         Minimum Horizontal Stress     : 
TLFamily_TZSG      .         Vertical Stress Gradient      : 
TLFamily_UCS       .         Compressive Strength          : 
TLFamily_YME_H_STA .         Young's Modulus (Dynamic)     : 
TLFamily_YME_V_STA .         Young's Modulus (Dynamic)     : 
~Curve Information
#_______________________________________________________________________________
#
#LOGNAME           .UNIT     LOG_ID                        : DESCRIPTION
#_______________________________________________________________________________
MD                 .ft                                     : Measured Depth 
BS                 .in                                     : Bit Size 
C44                .Mpsi                                   : C44 Modulus 
C55                .Mpsi                                   : C55 Modulus 
C66                .Mpsi                                   : C66 Modulus 
DEVIM              .deg                                    : Memorized Deviation 
DPHZ               .ft3/ft3                                : Standard Resolution Density Porosity (F11 
DTCO_MF_DDBHC      .us/ft                                  : Compressional slowness 
DTSH_FAST_DDBHC    .us/ft                                  : Fast Shear slowness 
DTSH_SLOW_DDBHC    .us/ft                                  : Slow Shear slowness 
DTSH_STRVP         .us/ft                                  : Horizontal Shear
GAMMA              .unitless                               : Thomsens Anisotropy Parameter Gamma 
GR_EDTC            .gAPI                                   : Gamma Ray 
HCAL               .IN                                     : HRCC Caliper Calibrated (F11 
ISHE               .psi                                    : Cohesive Strength 
MAXXENE_OVERALL    .unitless                               : Maximum cross energy - overall 
MINXENE_OVERALL    .unitless                               : Minimum cross energy - overall 
PPGI               .psi/ft                                 : Pore Pressure Gradient 
PR_HH              .unitless                               : Poissons Ratio - Loading Horizontal - Displacement Horizontal 
PR_VH              .unitless                               : Poissons Ratio - Loading Vertical - Displacement Horizontal 
RHOZ               .g/cm3                                  : Standard Resolution Formation Density 
RHOZ_EDT           .g/cm3                                  : Standard Resolution Formation Density 
SDEVM              .deg                                    : Memorized Sonde Deviation 
SLOANI             .%                                      : Slowness-Based Anisotropy 
SPHI               .ft3/ft3                                : Total porosity from Sonic 
TNPH               .ft3/ft3                                : Thermal Neutron Porosity (Ratio Method) in Selected Lithology (F11 
TSTR               .psi                                    : Tensile Strength 
TXSG_ANISO         .psi/ft                                 : Anisotropic Minimum Horizontal Stress Gradient 
TXSG_ISO           .psi/ft                                 : Isotropic Minimum Horizontal Stress Gradient 
TXSP_ANISO         .psi                                    : Anisotropic Minimum Horizontal Stress 
TZSG               .psi/ft                                 : Overburden Stress Gradient 
UCS                .psi                                    : Unconfined Compressive Strength 
YME_H_STA          .Mpsi                                   : Static Horizontal Youngs Modulus 
YME_V_STA          .Mpsi                                   : Static Vertical Youngs Modulus 
~Ascii
# ...
3283.0000  8.5000     4.0802     4.0802     4.0984     0.7388     -0.0389    48.7672    94.4680    94.8828    94.4645    0.0000     10.7953    8.9368     7675.3613  0.0283     0.0073     0.4800     0.3191     0.3191     2.7142     2.7142     0.7388     0.4381     0.0090     0.0242     3472.3137  0.9135     0.9135     2998.6345  1.1000     41667.7656 6.9848     6.9848    
3283.5000  8.5000     4.0538     4.0538     4.0705     0.7387     -0.0230    48.5538    94.3285    94.7180    94.3285    0.0000     10.9925    8.9474     7649.1260  0.0278     0.0073     0.4800     0.3204     0.3204     2.6879     2.6879     0.7387     0.4121     0.0074     0.0258     3460.4448  0.9148     0.9148     3003.3811  1.1000     41525.3398 6.9369     6.9369    
3284.0000  8.5000     4.0818     4.0818     4.0953     0.7387     -0.0266    48.6687    94.1452    94.4567    94.1452    0.0000     11.2735    8.9686     7628.9370  0.0276     0.0074     0.4800     0.3182     0.3182     2.6938     2.6938     0.7387     0.3304     0.0083     0.0262     3451.3115  0.9117     0.9117     2993.4075  1.1000     41415.7383 6.9792     6.9792    
3284.5000  8.5000     4.0917     4.0917     4.1009     0.7389     -0.0351    48.8458    94.3255    94.5371    94.3255    0.0000     13.3508    8.9792     7605.5796  0.0276     0.0074     0.4800     0.3172     0.3172     2.7079     2.7079     0.7389     0.2240     0.0095     0.0268     3440.7446  0.9100     0.9100     2988.3135  1.1000     41288.9375 6.9904     6.9904    
3285.0000  8.5000     4.0867     4.0867     4.2054     0.7392     -0.0448    48.9852    94.6362    94.9004    93.4215    0.0000     13.4281    8.9792     7622.8442  0.0277     0.0075     0.4800     0.3153     0.3153     2.7239     2.7239     0.7392     0.2788     0.0105     0.0277     3448.5552  0.9079     0.9079     2981.8499  1.1000     41382.6641 7.0445     7.0445    
3285.5000  8.5000     4.0868     4.0868     4.2009     0.7395     -0.0487    49.0967    94.6788    95.0814    93.5822    0.0000     13.3724    9.0003     7593.2266  0.0277     0.0075     0.4800     0.3148     0.3148     2.7304     2.7304     0.7395     0.4242     0.0113     0.0267     3435.1563  0.9068     0.9068     2978.7695  1.1000     41221.8750 7.0385     7.0385    
3286.0000  8.5000     4.0886     4.0886     4.1299     0.7397     -0.0481    48.9876    94.5963    95.0881    94.3659    0.0000     12.1768    8.9792     7637.1514  0.0276     0.0075     0.4800     0.3172     0.3172     2.7293     2.7293     0.7397     0.5185     0.0105     0.0274     3455.0276  0.9104     0.9104     2991.2810  1.1000     41460.3320 7.0068     7.0068    
3286.5000  8.5000     4.0902     4.0902     4.1362     0.7398     -0.0493    48.9481    94.5966    95.1211    94.3290    0.0000     12.1807    8.9792     7670.1699  0.0275     0.0075     0.4800     0.3176     0.3176     2.7314     2.7314     0.7398     0.5529     0.0102     0.0283     3469.9651  0.9114     0.9114     2994.9648  1.1000     41639.5820 7.0161     7.0161    
3287.0000  8.5000     4.1067     4.1067     4.1630     0.7398     -0.0526    48.9005    94.5103    95.0117    94.1163    0.0000     13.2038    8.9686     7732.0356  0.0273     0.0075     0.4800     0.3174     0.3174     2.7367     2.7367     0.7398     0.5291     0.0099     0.0273     3497.9531  0.9121     0.9121     2997.5398  1.1000     41975.4375 7.0567     7.0567    
3287.5000  8.5000     4.1107     4.1107     4.1574     0.7397     -0.0488    48.7967    94.3984    94.8137    94.0722    0.0000     13.5792    8.9792     7758.8809  0.0272     0.0076     0.4800     0.3178     0.3178     2.7305     2.7305     0.7397     0.4390     0.0092     0.0274     3510.0979  0.9130     0.9130     3001.0837  1.1000     42121.1758 7.0613     7.0613    
3288.0000  8.5000     4.0971     4.0971     4.1240     0.7396     -0.0399    48.7117    94.3247    94.6891    94.1985    0.0000     14.0227    8.9580     7723.3564  0.0271     0.0076     0.4800     0.3186     0.3186     2.7158     2.7158     0.7396     0.3856     0.0086     0.0281     3494.0266  0.9134     0.9134     3002.6797  1.1000     41928.3203 7.0235     7.0235    
3288.5000  8.5000     4.0797     4.0797     4.0979     0.7394     -0.0265    48.5925    94.1145    94.5340    94.1145    0.0000     12.4666    8.9686     7670.0679  0.0271     0.0076     0.4800     0.3190     0.3190     2.6938     2.6938     0.7394     0.4448     0.0077     0.0291     3469.9189  0.9130     0.9130     3002.0627  1.1000     41639.0273 6.9833     6.9833    
3289.0000  8.5000     4.0952     4.0952     4.1203     0.7392     -0.0304    48.6296    93.9704    94.5482    93.9704    0.0000     13.0882    8.9580     7690.2729  0.0273     0.0076     0.4800     0.3181     0.3181     2.7002     2.7002     0.7392     0.6131     0.0080     0.0289     3479.0598  0.9122     0.9122     2999.9121  1.1000     41748.7188 7.0152     7.0152    
3289.5000  8.5000     4.1091     4.1091     4.1773     0.7390     -0.0439    48.8465    94.1930    94.7792    93.7097    0.0000     14.8609    8.9368     7694.3633  0.0274     0.0076     0.4800     0.3162     0.3162     2.7224     2.7224     0.7390     0.6204     0.0095     0.0296     3480.9102  0.9099     0.9099     2992.6909  1.1000     41770.9219 7.0626     7.0626    
3290.0000  8.5000     4.1383     4.1383     4.2346     0.7386     -0.0518    48.9103    94.1542    94.5999    93.2968    0.0000     17.1289    8.9474     7741.5547  0.0272     0.0076     0.4800     0.3144     0.3144     2.7355     2.7355     0.7386     0.4723     0.0100     0.0299     3502.2593  0.9084     0.9084     2988.0874  1.1000     42027.1133 7.1323     7.1323    
3290.5000  8.5000     4.1732     4.1732     4.2935     0.7382     -0.0547    48.9984    93.8024    94.3237    92.7343    0.0000     17.9915    8.9580     7734.2944  0.0271     0.0075     0.4800     0.3113     0.3113     2.7402     2.7402     0.7382     0.5543     0.0106     0.0299     3498.9749  0.9044     0.9044     2975.3152  1.1000     41987.6992 7.2019     7.2019    
3291.0000  8.5000     4.1739     4.1739     4.2556     0.7378     -0.0459    49.0383    93.5500    94.0588    92.8985    0.0000     17.8604    8.9580     7634.5107  0.0272     0.0075     0.4800     0.3103     0.3103     2.7257     2.7257     0.7378     0.5424     0.0109     0.0307     3453.8330  0.9014     0.9014     2966.1448  1.1000     41445.9961 7.1691     7.1691    
3291.5000  8.5000     4.1623     4.1623     4.2524     0.7372     -0.0401    49.1082    93.6319    93.9080    92.7711    0.0000     18.8254    8.9368     7545.1250  0.0271     0.0076     0.4800     0.3092     0.3092     2.7161     2.7161     0.7372     0.2944     0.0114     0.0318     3413.3953  0.8986     0.8986     2957.2561  1.1000     40960.7422 7.1430     7.1430    
3292.0000  8.5000     4.1266     4.1266     4.2909     0.7362     -0.0375    49.3337    93.9545    94.2496    92.2827    0.0000     18.9019    8.9580     7397.8818  0.0269     0.0076     0.4800     0.3070     0.3070     2.7119     2.7119     0.7362     0.3135     0.0130     0.0328     3346.7827  0.8935     0.8935     2941.0618  1.1000     40161.3945 7.1054     7.1054    
3292.5000  8.5000     4.1037     4.1037     4.4030     0.7350     -0.0414    49.4872    94.3140    94.6399    91.2085    0.0365     19.3253    8.9157     8196.0127  0.0267     0.0075     0.4800     0.2961     0.3026     2.7184     2.7184     0.7350     0.3450     0.0140     0.0319     3498.3860  0.9095     0.8971     2994.1897  1.1000     41980.6328 7.4960     7.0587    
3293.0000  8.5000     4.1215     4.1215     4.4870     0.7342     -0.0448    49.6400    94.1120    94.6242    90.4422    0.0443     19.4944    8.9157     8336.5107  0.0266     0.0075     0.4800     0.2909     0.2986     2.7239     2.7239     0.7342     0.5428     0.0151     0.0344     3516.1118  0.9086     0.8936     2991.6213  1.1000     42193.3398 7.6354     7.0992    
3293.5000  8.5000     4.1572     4.1572     4.5045     0.7333     -0.0428    49.7455    93.6900    94.1243    90.2131    0.0418     22.4778    8.9368     8207.8301  0.0266     0.0075     0.4800     0.2882     0.2953     2.7207     2.7207     0.7333     0.4624     0.0159     0.0343     3475.2449  0.9021     0.8879     2970.7075  1.1000     41702.9375 7.6528     7.1415    
