~Version
 VERS              .         2.0                           : CWLS LOG ASCII STANDARD - VERSION 2.0
 WRAP              .         NO                            : ONE LINE PER DEPTH STEP
 DLM               .         SPACE                         : DELIMITING CHARACTER(SPACE TAB OR COMMA)
~Well Information
#_______________________________________________________________________________
#
#PARAMETER_NAME    .UNIT     VALUE                         : DESCRIPTION
#_______________________________________________________________________________
STRT               .ft       1049.0000                     : First reference value
STOP               .ft       5858.0000                     : Last reference value
STEP               .ft       0.5000                        : Step increment
NULL               .         -999.25                       : Missing value
COMP               .         PRAIRIE STATE GENERATING CO, LLC: Company
WELL               .         LIVELY GROVE #1               : Well name
FLD                .         N/A                           : Field
LOC                .                                       : Location
CNTY               .         WASHINGTON                    : County
STAT               .         ILLINOIS                      : State
CTRY               .         USA                           : Country
SRVC               .         Schlumberger                  : Service Company
DATE               .         13-Aug-2021                   : Date
UWI                .                                       : Unique Well ID
APD                .ft       16                            : Elevation of Depth Reference (LMF) Above Permanent Datum
API                .         12-189-24947-00               : 
BHS                .         OPEN                          : Borehole Status (Open or Cased Hole)
BHT                .degF     115                           : Bottom Hole Temperature
BLI                .ft       5888                          : Bottom Log Interval
BS                 .in       8.5                           : Bit Size
CBDR               .ft       1049                          : Casing Bottom of Driller
CBLO               .ft       1049                          : Logger Casing Shoe Depth
CSIZ               .in       9.625                         : Current Casing Size
CWEI               .lbm/ft   36                            : Casing Weight
DCS                .         11-Aug-2021                   : Date Circulation Stopped
DFD                .lbm/gal  9.35                          : Drilling Fluid Density
DFT                .         FRESH WBM                     : Drilling Fluid Type
DLAB               .         12-Aug-2021                   : Date Logger At Bottom
EDF                .ft       477                           : Elevation of Drill Floor
EGL                .ft       461                           : Elevation of Ground Level
EKB                .ft       477                           : Elevation of Kelly Bushing
EPD                .ft       461                           : Elevation of Permanent Datum (PDAT) above Mean Sea Level
LMF                .         KB                            : Logging Measured From (Name of Logging Elevation Reference)
LUL                .         BRADFORD, PA                  : Logging Unit Location
LUN                .         OSLC 2266                     : Logging Unit Number
LATI               .         38.352151 degrees             : Latitude
LONG               .         -89.644768 degrees            : Longitude
MCST               .degF     81.9                          : Mudcake Sample Temperature
MFST               .degF     81.9                          : Mud Filtrate Sample Temperature
MRT                .degF     115                           : Maximum Recorded Temperature
MST                .degF     81.9                          : Mud Sample Temperature
ORIGINALWELLNAME   .         LIVELY GROVE #1               : 
PDAT               .         GL                            : Permanent Datum
PRODUCER-CODE      .         440                           : 
PRODUCER-NAME      .         Schlumberger                  : 
RMB                .ohm.m    0.9233273                     : Resistivity of Mud at Bottom Hole Temperature
RMCS               .ohm.m    1.44                          : Resistivity of Mud Cake Sample
RMFS               .ohm.m    1.033                         : Resistivity of Mud Filtrate Sample
RMS                .ohm.m    1.268                         : Resistivity of Mud Sample
RUN                .         RUN 1D                        : Run Number
TCS                .         13_00_00                      : Time Circulation Stopped
TDD                .ft       5888.35                       : Driller Total Depth
TDL                .ft       5888.35                       : Logger Total Depth
TLAB               .         17_08_00                      : Time Logger At Bottom
TLI                .ft       1049                          : Top Log Interval
~Parameter Information Block
#_______________________________________________________________________________
#
#PARAMETER_NAME    .UNIT     VALUE                         : DESCRIPTION
#_______________________________________________________________________________
SET                .         0_PnS_Aniso                   : 
TLFamily_BS        .         Bit Size                      : 
TLFamily_DEVIM     .         Hole Deviation                : 
TLFamily_DPHZ      .         Density Porosity              : 
TLFamily_DTCO_MF_DDBHC .         Compressional Slowness        : 
TLFamily_DTCO_MF_R .         Compressional Slowness        : 
TLFamily_DTCO_MF_T .         Compressional Slowness        : 
TLFamily_DTSH_FAST_DDBHC .         Fast Shear Slowness           : 
TLFamily_DTSH_FAST_R .         Fast Shear Slowness           : 
TLFamily_DTSH_FAST_T .         Fast Shear Slowness           : 
TLFamily_DTSH_SLOW_DDBHC .         Slow Shear Slowness           : 
TLFamily_DTSH_SLOW_R .         Slow Shear Slowness           : 
TLFamily_DTSH_SLOW_T .         Slow Shear Slowness           : 
TLFamily_FSA_NAZ   .         Fast Shear Azimuth            : 
TLFamily_FSA_NAZ_ERR .         Fast Shear Azimuth            : 
TLFamily_FSA_NAZ_ERRMINUS .         Fast Shear Azimuth            : 
TLFamily_FSA_NAZ_ERRPLUS .         Fast Shear Azimuth            : 
TLFamily_FSA_NAZ_IN .         Fast Shear Azimuth            : 
TLFamily_GR_EDTC   .         Gamma Ray                     : 
TLFamily_HAZIM     .         Hole Azimuth                  : 
TLFamily_HDAR      .         Borehole Diameter             : 
TLFamily_MAXXENE_OVERALL .         Acoustic Energy               : 
TLFamily_MD        .         Measured Depth                : 
TLFamily_MINXENE_OVERALL .         Acoustic Energy               : 
TLFamily_P1NO_MAST .         Pad A North                   : 
TLFamily_PEFZ      .         Photoelectric Factor          : 
TLFamily_PR_FAST   .         Poisson Ratio (Dynamic)       : 
TLFamily_SDEVM     .         Sonde Deviation               : 
TLFamily_SENSOR_AZIM_QCI .         Sensor Azimuth                : 
TLFamily_SLOANI    .         Acoustic Anisotropy           : 
TLFamily_SPHI      .         Total Porosity                : 
TLFamily_TDIF_ALT_OVERALL .         Time Interval                 : 
TLFamily_TDIF_ORG_OVERALL .         Time Interval                 : 
TLFamily_TENS      .         Tension                       : 
TLFamily_TIMANI    .         Acoustic Anisotropy           : 
TLFamily_TNPH      .         Thermal Neutron Porosity      : 
TLFamily_TW_B_L6   .         Travel Time                   : 
TLFamily_TW_E_L6   .         Travel Time                   : 
TLFamily_VPVS_FAST .         VpVs (Compressional To Shear) Ratio: 
TLFamily_XENEDIF   .         Acoustic Energy               : 
~Curve Information
#_______________________________________________________________________________
#
#LOGNAME           .UNIT     LOG_ID                        : DESCRIPTION
#_______________________________________________________________________________
MD                 .ft                                     : Measured Depth
BS                 .in                                     : Bit Size 
DEVIM              .deg                                    : Memorized Deviation 
DPHZ               .ft3/ft3                                : Standard Resolution Density Porosity <_techsia_lb_>F11 
DTCO_MF_DDBHC      .us/ft                                  : Compressional slowness 
DTCO_MF_R          .us/ft                                  : Compressional slowness 
DTCO_MF_T          .us/ft                                  : Compressional slowness 
DTSH_FAST_DDBHC    .us/ft                                  : Shear slowness 
DTSH_FAST_R        .us/ft                                  : Shear slowness 
DTSH_FAST_T        .us/ft                                  : Shear slowness 
DTSH_SLOW_DDBHC    .us/ft                                  : Shear slowness 
DTSH_SLOW_R        .us/ft                                  : Shear slowness 
DTSH_SLOW_T        .us/ft                                  : Shear slowness 
FSA_NAZ            .deg                                    : Fast shear azimuth(NAZ REF90) - overall - swapped 
FSA_NAZ_ERR        .deg                                    : Fast shear azimuth error, reference frame NAZ 
FSA_NAZ_ERRMINUS   .deg                                    : Fast shear azimuth error minus(NAZ REF90) - swapped 
FSA_NAZ_ERRPLUS    .deg                                    : Fast shear azimuth error plus(NAZ REF90) - swapped 
FSA_NAZ_IN         .deg                                    : Fast Shear Azimuth Indicator 
GR_EDTC            .gAPI                                   : Gamma Ray 
HAZIM              .deg                                    : Memorized Hole Azimuth 
HDAR               .in                                     : Hole Diameter from Area 
MAXXENE_OVERALL    .unitless                               : Maximum cross energy - overall 
MINXENE_OVERALL    .unitless                               : Minimum cross energy - overall 
P1NO_MAST          .deg                                    : Pad 1 Azimuth in Plane Orthogonal to Tool Axis (0 = True North), memorized to MAST 
PEFZ               .                                       : Standard Resolution Formation Photoelectric Factor <_techsia_lb_>F11 
PR_FAST            .unitless                               : Possion's Ratio 
SDEVM              .deg                                    : Memorized Sonde Deviation 
SENSOR_AZIM_QCI    .deg                                    : Tool azimuth for input QC 
SLOANI             .%                                      : Slowness-Based Anisotropy 
SPHI               .ft3/ft3                                : Total porosity from Sonic 
TDIF_ALT_OVERALL   .s                                      : Arrival time difference between fast and slow waves(alternate) - overall - swapped 
TDIF_ORG_OVERALL   .s                                      : Arrival time difference between fast and slow waves(original) - overall - swapped 
TENS               .lbf                                    : Cable Tension 
TIMANI             .%                                      : Time-Based Anisotropy 
TNPH               .ft3/ft3                                : Thermal Neutron Porosity (Ratio Method) in Selected Lithology <_techsia_lb_>F11 
TW_B_L6            .us                                     : Time window begin - packed 
TW_E_L6            .us                                     : Time window end - packed 
VPVS_FAST          .unitless                               : VpVs Ratio 
XENEDIF            .unitless                               : Energy-Based Anisotropy 
~Ascii
# ...
1372.0000  8.5000     1.3130     0.0761     60.2607    61.2134    59.3079    120.8575   120.5508   121.1641   121.6960   121.3410   122.0511   35.1072    5.2196     29.8876    40.3268    -999.2500  16.7283    253.6322   12.3809    0.0301     0.0074     337.6075   4.9194     0.3346     1.3130     329.8947   0.6915     0.0902     -0.0004    0.0000     1852.0751  0.8521     0.1506     2140.3313  5140.3311  2.0056     2.2728    
1372.5000  8.5000     1.3109     0.0745     60.1980    60.9773    59.4187    121.7750   120.2564   123.2936   122.5380   120.8770   124.1989   35.1956    4.8842     30.3114    40.0798    -999.2500  17.4320    253.6323   12.3094    0.0292     0.0070     338.4043   4.9111     0.3383     1.3109     330.9232   0.6246     0.0897     -0.0004    0.0000     1864.2750  0.8438     0.1499     2139.3188  5139.3188  2.0229     2.2181    
1373.0000  8.5000     1.3099     0.0839     60.1310    61.0023    59.2597    121.2541   119.5552   122.9530   122.1976   120.5879   123.8073   35.3372    4.7615     30.5757    40.0987    -999.2500  16.1882    253.6380   12.3614    0.0280     0.0067     338.4699   4.9415     0.3369     1.3099     331.7469   0.7751     0.0893     -0.0004    0.0000     1870.8999  0.8286     0.1565     2136.7190  5136.7188  2.0165     2.1201    
1373.5000  8.5000     1.3093     0.0819     60.1700    61.3265    59.0135    119.6787   118.5871   120.7703   120.6887   119.6099   121.7675   35.5788    4.8367     30.7421    40.4155    -999.2500  14.6489    253.6904   12.3577    0.0264     0.0066     338.7195   4.9774     0.3309     1.3093     332.5256   0.8404     0.0895     -0.0004    0.0000     1861.1499  0.8131     0.1515     2131.6536  5131.6533  1.9890     1.9802    
1374.0000  8.5000     1.3097     0.0737     59.8293    61.5045    58.1541    117.7457   118.5201   116.9713   118.6351   119.5961   117.6742   35.9103    5.1880     30.7223    41.0982    -999.2500  12.6467    253.8111   12.3527    0.0253     0.0067     339.5908   5.0360     0.3260     1.3097     333.2464   0.7526     0.0871     -0.0004    0.0000     1871.3750  0.8156     0.1487     2124.2983  5124.2983  1.9680     1.8566    
1374.5000  8.5000     1.3105     0.0609     58.7852    61.1166    56.4537    115.5289   117.5833   113.4744   116.2799   118.5847   113.9751   37.4978    5.7011     31.7967    43.1989    -999.2500  12.3948    253.9765   12.2584    0.0246     0.0067     340.0512   5.0579     0.3253     1.3105     333.4975   0.6479     0.0798     -0.0004    0.0000     1864.8500  0.8301     0.1317     2114.4612  5114.4614  1.9653     1.7893    
1375.0000  8.5000     1.3117     0.0501     57.1818    60.0604    54.3033    111.4867   114.4557   108.5177   112.0220   115.3099   108.7342   38.2508    5.7508     32.5000    44.0017    -999.2500  11.9172    254.2365   12.2006    0.0237     0.0066     339.9836   5.1149     0.3215     1.3117     333.4137   0.4790     0.0684     -0.0004    0.0000     1852.6000  0.8181     0.1120     2103.0259  5103.0259  1.9497     1.7069    
1375.5000  8.5000     1.3138     0.0432     55.4038    58.2380    52.5696    107.7506   110.5846   104.9166   108.1775   111.0902   105.2647   39.2621    5.6245     33.6376    44.8866    -999.2500  11.4670    254.5988   12.0032    0.0229     0.0064     340.1656   5.1283     0.3203     1.3138     333.5067   0.3953     0.0559     -0.0004    0.0000     1846.9500  0.8053     0.0919     2090.7412  5090.7412  1.9448     1.6466    
1376.0000  8.5000     1.3166     0.0302     53.8717    55.9599    51.7836    104.5924   107.8256   101.3593   105.0005   108.2141   101.7870   40.2111    5.4774     34.7337    45.6886    -999.2500  12.7794    255.1187   11.9341    0.0221     0.0062     340.6812   5.1726     0.3195     1.3166     333.9924   0.3894     0.0450     -0.0004    0.0000     1813.8250  0.7861     0.0809     2077.1768  5077.1768  1.9415     1.5952    
1376.5000  8.5000     1.3192     0.0227     52.7788    53.9803    51.5773    103.1637   106.7256   99.6018    103.5491   107.2140   99.8842    41.1224    5.2246     35.8978    46.3471    -999.2500  12.2092    255.5986   11.7591    0.0214     0.0060     341.8160   5.1776     0.3227     1.3192     335.1935   0.3729     0.0373     -0.0004    0.0000     1805.6001  0.7609     0.0737     2062.5190  5062.5190  1.9546     1.5409    
1377.0000  8.5000     1.3216     0.0151     52.1555    52.9188    51.3921    101.6135   104.9817   98.2454    102.0601   105.2846   98.8356    41.5245    5.3693     36.1552    46.8937    -999.2500  13.7308    256.1482   11.6713    0.0209     0.0060     342.9371   5.2344     0.3212     1.3216     336.2899   0.4385     0.0329     -0.0004    0.0000     1813.6001  0.7380     0.0711     2048.4453  5048.4453  1.9483     1.4937    
1377.5000  8.5000     1.3237     0.0182     52.0426    52.8785    51.2066    101.5181   104.2731   98.7632    102.0017   104.7660   99.2374    42.7687    5.6537     37.1151    48.4224    -999.2500  13.5282    256.7766   11.6589    0.0212     0.0060     343.7158   5.2612     0.3218     1.3237     338.5412   0.4752     0.0321     -0.0004    0.0000     1822.9501  0.7319     0.0689     2035.6998  5035.6997  1.9507     1.5201    
1378.0000  8.5000     1.3256     0.0186     52.1411    53.2362    51.0461    101.7987   104.1123   99.4851    102.3011   104.8606   99.7417    42.9901    5.7263     37.2638    48.7164    -999.2500  14.8008    257.3418   11.6490    0.0213     0.0060     344.2979   5.3284     0.3222     1.3256     339.9949   0.4924     0.0328     -0.0004    0.0000     1833.2000  0.7088     0.0646     2023.2798  5023.2798  1.9524     1.5380    
1378.5000  8.5000     1.3270     0.0171     52.2676    53.4817    51.0535    101.8028   104.1205   99.4851    102.3753   104.6840   100.0667   43.2034    5.5853     37.6181    48.7888    -999.2500  13.3761    257.8894   11.6539    0.0217     0.0059     344.1801   5.3053     0.3210     1.3270     338.5270   0.5608     0.0337     -0.0004    0.0000     1849.2250  0.6834     0.0617     2010.7422  5010.7422  1.9477     1.5743    
1379.0000  8.5000     1.3279     0.0082     52.4896    53.5326    51.4467    101.8490   104.1309   99.5670    102.3215   104.5473   100.0957   43.2578    5.4841     37.7737    48.7419    -999.2500  12.5542    258.4129   11.6360    0.0218     0.0059     344.0318   5.2584     0.3192     1.3279     337.6625   0.4629     0.0353     -0.0004    0.0000     1846.8500  0.6521     0.0603     1998.7118  4998.7119  1.9404     1.5888    
1379.5000  8.5000     1.3282     0.0059     52.5318    53.4891    51.5746    102.0476   103.9321   100.1632   102.4539   104.5381   100.3697   43.0117    5.5142     37.4975    48.5259    -999.2500  12.2775    258.9366   11.6176    0.0213     0.0058     343.6648   5.1742     0.3197     1.3282     337.6075   0.3973     0.0356     -0.0004    0.0000     1828.2750  0.6067     0.0628     1988.4816  4988.4814  1.9426     1.5478    
1380.0000  8.5000     1.3283     0.0066     52.4152    53.3362    51.4942    103.1279   104.6831   101.5728   103.4350   105.0449   101.8251   42.3782    5.5738     36.8045    47.9520    -999.2500  12.7395    259.3482   11.5182    0.0206     0.0058     342.8461   5.1295     0.3259     1.3283     338.4043   0.2973     0.0347     -0.0004    0.0000     1827.1001  0.5617     0.0660     1980.6796  4980.6797  1.9675     1.4786    
1380.5000  8.5000     1.3284     0.0160     52.3571    53.0796    51.6346    103.7752   104.0451   103.5054   104.3074   104.4698   104.1450   42.5202    5.9569     36.5633    48.4772    -999.2500  13.8561    259.7328   11.4162    0.0205     0.0060     342.1837   5.0753     0.3293     1.3284     338.4699   0.5115     0.0343     -0.0004    0.0000     1820.6500  0.5326     0.0685     1973.9830  4973.9829  1.9821     1.4475    
1381.0000  8.5000     1.3279     0.0245     52.6640    53.0573    52.2707    104.9035   103.7179   106.0891   105.7182   104.5311   106.9052   42.2128    6.3467     35.8661    48.5595    -999.2500  15.0279    260.1281   11.3218    0.0202     0.0061     343.1668   4.9829     0.3315     1.3279     338.7195   0.7736     0.0365     -0.0004    0.0000     1836.7566  0.4768     0.0775     1966.9279  4966.9277  1.9919     1.4084    
