~Version
 VERS              .         2.0                           : CWLS LOG ASCII STANDARD - VERSION 2.0
 WRAP              .         NO                            : ONE LINE PER DEPTH STEP
 DLM               .         SPACE                         : DELIMITING CHARACTER(SPACE TAB OR COMMA)
~Well Information
#_______________________________________________________________________________
#
#PARAMETER_NAME    .UNIT     VALUE                         : DESCRIPTION
#_______________________________________________________________________________
STRT               .ft       1050.0000                     : First reference value
STOP               .ft       5850.0000                     : Last reference value
STEP               .ft       0.5000                        : Step increment
NULL               .         -999.25                       : Missing value
COMP               .         PRAIRIE STATE GENERATING CO, LLC: Company
WELL               .         LIVELY GROVE #1               : Well name
FLD                .         N/A                           : Field
LOC                .                                       : Location
CNTY               .         WASHINGTON                    : County
STAT               .         ILLINOIS                      : State
CTRY               .                                       : Country
SRVC               .         Schlumberger                  : Service Company
DATE               .         12-Aug-2021                   : Date
UWI                .                                       : Unique Well ID
APD                .ft       16                            : Elevation of Depth Reference (LMF) Above Permanent Datum
API                .         12-189-24947-00               : 
BHS                .         OPEN                          : Borehole Status (Open or Cased Hole)
BHT                .degF     115                           : Bottom Hole Temperature
BLI                .ft       5885.95                       : Bottom Log Interval
BS                 .in       8.5                           : Bit Size
CBDR               .ft       1049                          : Casing Bottom of Driller
CBLO               .ft       1049                          : Logger Casing Shoe Depth
CSIZ               .in       9.625                         : Current Casing Size
CWEI               .lbm/ft   36                            : Casing Weight
DCS                .         11-Aug-2021                   : Date Circulation Stopped
DFD                .lbm/gal  9.35                          : Drilling Fluid Density
DFT                .         FRESH WBM                     : Drilling Fluid Type
DLAB               .         12-Aug-2021                   : Date Logger At Bottom
EDF                .ft       477                           : Elevation of Drill Floor
EGL                .ft       461                           : Elevation of Ground Level
EKB                .ft       477                           : Elevation of Kelly Bushing
EPD                .ft       461                           : Elevation of Permanent Datum (PDAT) above Mean Sea Level
LMF                .         KB                            : Logging Measured From (Name of Logging Elevation Reference)
LUL                .         BRADFORD, PA                  : Logging Unit Location
LUN                .         OSLC 2266                     : Logging Unit Number
LATI               .dega     0.00000000                    : Latitude
LONG               .         -89.644768 degrees            : Longitude
MCST               .degF     81.9                          : Mudcake Sample Temperature
MFST               .degF     81.9                          : Mud Filtrate Sample Temperature
MRT                .degF     115                           : Maximum Recorded Temperature
MST                .degF     81.9                          : Mud Sample Temperature
ORIGINALWELLNAME   .         LIVELY GROVE #1               : 
PDAT               .         GL                            : Permanent Datum
PRODUCER-CODE      .         440                           : 
PRODUCER-NAME      .         Schlumberger                  : 
RMB                .ohm.m    0.9233273                     : Resistivity of Mud at Bottom Hole Temperature
RMCS               .ohm.m    1.44                          : Resistivity of Mud Cake Sample
RMFS               .ohm.m    1.033                         : Resistivity of Mud Filtrate Sample
RMS                .ohm.m    1.268                         : Resistivity of Mud Sample
RUN                .         RUN 1B                        : Run Number
TCS                .         17_00_00                      : Time Circulation Stopped
TDD                .ft       5888                          : Driller Total Depth
TDL                .ft       5888.35                       : Logger Total Depth
TLAB               .         07_19_00                      : Time Logger At Bottom
TLI                .ft       1049                          : Top Log Interval
~Parameter Information Block
#_______________________________________________________________________________
#
#PARAMETER_NAME    .UNIT     VALUE                         : DESCRIPTION
#_______________________________________________________________________________
SET                .         0_CP_MP_Delivered             : 
TLFamily_BS        .         Bit Size                      : 
TLFamily_C44       .         Elastic Modulus               : 
TLFamily_C55       .         Elastic Modulus               : 
TLFamily_C66       .         Elastic Modulus               : 
TLFamily_DEVIM     .         Hole Deviation                : 
TLFamily_DPHZ      .         Density Porosity              : 
TLFamily_DTCO_MF_DDBHC .     Compressional Slowness        : 
TLFamily_DTSH_FAST_DDBHC .   Fast Shear Slowness           : 
TLFamily_DTSH_SLOW_DDBHC .   Slow Shear Slowness           : 
TLFamily_DTSH_STRVP .        Stoneley Shear Slowness       : 
TLFamily_GAMMA     .         Regularization Factor         : 
TLFamily_GR_EDTC   .         Gamma Ray                     : 
TLFamily_HCAL      .         Caliper                       : 
TLFamily_ISHE      .         Shear Strength                : 
TLFamily_MAXXENE_OVERALL .   Acoustic Energy               : 
TLFamily_MD        .         Measured Depth                : 
TLFamily_MINXENE_OVERALL .   Acoustic Energy               : 
TLFamily_PPGI      .         Pore Pressure Gradient        : 
TLFamily_PR_HH     .         Poisson Ratio (Dynamic)       : 
TLFamily_PR_VH     .         Poisson Ratio (Dynamic)       : 
TLFamily_RHOZ      .         Bulk Density                  : 
TLFamily_RHOZ_EDT  .         Bulk Density                  : 
TLFamily_SDEVM     .         Sonde Deviation               : 
TLFamily_SLOANI    .         Acoustic Anisotropy           : 
TLFamily_SPHI      .         Total Porosity                : 
TLFamily_TNPH      .         Thermal Neutron Porosity      : 
TLFamily_TSTR      .         Tensile Strength              : 
TLFamily_TXSG_ANISO .        Minimum Horizontal Stress Gradient: 
TLFamily_TXSG_ISO  .         Minimum Horizontal Stress Gradient: 
TLFamily_TXSP_ANISO .         Minimum Horizontal Stress     : 
TLFamily_TZSG      .         Vertical Stress Gradient      : 
TLFamily_UCS       .         Compressive Strength          : 
TLFamily_YME_H_STA .         Young's Modulus (Dynamic)     : 
TLFamily_YME_V_STA .         Young's Modulus (Dynamic)     : 
~Curve Information
#_______________________________________________________________________________
#
#LOGNAME           .UNIT     LOG_ID                        : DESCRIPTION
#_______________________________________________________________________________
MD                 .ft                                     : Measured Depth 
BS                 .in                                     : Bit Size 
C44                .Mpsi                                   : C44 Modulus 
C55                .Mpsi                                   : C55 Modulus 
C66                .Mpsi                                   : C66 Modulus 
DEVIM              .deg                                    : Memorized Deviation 
DPHZ               .ft3/ft3                                : Standard Resolution Density Porosity (F11 
DTCO_MF_DDBHC      .us/ft                                  : Compressional slowness 
DTSH_FAST_DDBHC    .us/ft                                  : Fast Shear slowness 
DTSH_SLOW_DDBHC    .us/ft                                  : Slow Shear slowness 
DTSH_STRVP         .us/ft                                  : Horizontal Shear
GAMMA              .unitless                               : Thomsens Anisotropy Parameter Gamma 
GR_EDTC            .gAPI                                   : Gamma Ray 
HCAL               .IN                                     : HRCC Caliper Calibrated (F11 
ISHE               .psi                                    : Cohesive Strength 
MAXXENE_OVERALL    .unitless                               : Maximum cross energy - overall 
MINXENE_OVERALL    .unitless                               : Minimum cross energy - overall 
PPGI               .psi/ft                                 : Pore Pressure Gradient 
PR_HH              .unitless                               : Poissons Ratio - Loading Horizontal - Displacement Horizontal 
PR_VH              .unitless                               : Poissons Ratio - Loading Vertical - Displacement Horizontal 
RHOZ               .g/cm3                                  : Standard Resolution Formation Density 
RHOZ_EDT           .g/cm3                                  : Standard Resolution Formation Density 
SDEVM              .deg                                    : Memorized Sonde Deviation 
SLOANI             .%                                      : Slowness-Based Anisotropy 
SPHI               .ft3/ft3                                : Total porosity from Sonic 
TNPH               .ft3/ft3                                : Thermal Neutron Porosity (Ratio Method) in Selected Lithology (F11 
TSTR               .psi                                    : Tensile Strength 
TXSG_ANISO         .psi/ft                                 : Anisotropic Minimum Horizontal Stress Gradient 
TXSG_ISO           .psi/ft                                 : Isotropic Minimum Horizontal Stress Gradient 
TXSP_ANISO         .psi                                    : Anisotropic Minimum Horizontal Stress 
TZSG               .psi/ft                                 : Overburden Stress Gradient 
UCS                .psi                                    : Unconfined Compressive Strength 
YME_H_STA          .Mpsi                                   : Static Horizontal Youngs Modulus 
YME_V_STA          .Mpsi                                   : Static Vertical Youngs Modulus 
~Ascii
# ...
5197.0000  8.5000     5.0533     5.0533     5.2707     1.5246     -0.0962    44.6541    86.2721    86.8127    84.7377    0.0000     10.9425    9.8578     11740.7139 0.2193     0.0879     0.4800     0.3150     0.3150     2.8087     2.8087     1.5246     0.6246     0.0000     0.0732     5311.4688  0.8737     0.8737     4539.8750  1.1000     63737.6289 9.2116     9.2116    
5197.5000  8.5000     5.0421     5.0421     5.2874     1.5207     -0.1031    44.8327    86.4923    87.1380    84.7756    0.0243     10.2622    9.8401     12534.6367 0.2199     0.0864     0.4800     0.3079     0.3126     2.8202     2.8202     1.5207     0.7437     0.0000     0.0740     5452.0664  0.8840     0.8767     4593.9619  1.1000     65424.8008 9.5087     9.1348    
5198.0000  8.5000     5.0465     5.0465     5.3358     1.5173     -0.0975    44.3008    86.3313    86.9371    84.2509    0.0287     10.1829    9.8331     13165.1172 0.2215     0.0843     0.4800     0.3109     0.3165     2.8109     2.8109     1.5173     0.6993     0.0000     0.0730     5687.5146  0.8952     0.8865     4652.5459  1.1000     68250.1797 9.6435     9.2031    
5198.5000  8.5000     5.1811     5.1811     5.5203     1.5139     -0.1002    43.9434    85.3856    85.7523    82.8982    0.0327     10.6380    9.8260     13844.3604 0.2220     0.0814     0.4800     0.3072     0.3135     2.8154     2.8154     1.5139     0.4286     0.0000     0.0716     5943.4321  0.8977     0.8876     4666.1460  1.1000     71321.1797 10.0231    9.5026    
5199.0000  8.5000     5.3247     5.3247     5.6353     1.5106     -0.0973    43.9436    84.2117    84.4572    81.9768    0.0292     10.6215    9.8190     13750.1514 0.2133     0.0780     0.4800     0.3016     0.3070     2.8105     2.8105     1.5106     0.2911     0.0000     0.0692     5935.6309  0.8877     0.8786     4614.6753  1.1000     71227.5703 10.2271    9.7458    
5199.5000  8.5000     5.3400     5.3400     5.7233     1.5073     -0.1008    45.4240    84.1734    84.4248    81.4274    0.0359     10.7746    9.8190     12501.7686 0.1876     0.0673     0.4800     0.2812     0.2870     2.8163     2.8163     1.5073     0.2983     0.0000     0.0738     5341.0542  0.8545     0.8437     4442.6187  1.1000     64092.6484 10.2236    9.6229    
5200.0000  8.5000     5.0391     5.0391     5.4279     1.5037     -0.0923    47.8924    86.4454    86.6835    83.4062    0.0386     10.4753    9.7907     10154.0195 0.1551     0.0478     0.4800     0.2647     0.2702     2.8023     2.8023     1.5037     0.2750     0.0028     0.0832     4320.2070  0.8143     0.8034     4233.6411  1.1000     51842.4844 9.4223     8.8165    
5200.5000  8.5000     4.4504     4.4504     4.8188     1.5005     -0.0625    49.5823    91.1510    91.4508    87.7407    0.0414     10.4038    9.7943     8574.0430  0.1363     0.0345     0.4800     0.2747     0.2811     2.7532     2.7757     1.5005     0.3284     0.0147     0.1024     3632.4067  0.8140     0.8033     4232.5435  1.1000     43588.8789 8.2114     7.6565    
5201.0000  8.5000     3.7246     3.7246     3.8868     1.4976     0.0087     52.6337    97.3657    97.9319    95.5881    0.0000     11.6107    9.7837     5443.8247  0.1331     0.0336     0.4800     0.2910     0.2910     2.6357     2.7757     1.4976     0.5799     0.0363     0.1282     2462.7725  0.7805     0.7805     4058.8816  1.1000     29553.2695 6.1736     6.1736    
5201.5000  8.5000     3.0108     3.0108     3.0317     1.4945     0.1392     52.9043    103.7167   104.4384   103.7167   0.0000     13.5057    9.7943     4375.0132  0.1338     0.0350     0.4800     0.3252     0.3252     2.4203     2.7757     1.4945     0.6934     0.0382     0.1628     1979.2448  0.8148     0.8148     4237.5796  1.1000     23750.9375 4.8276     4.8276    
5202.0000  8.5000     2.6784     2.6784     2.6913     1.4922     0.2015     55.6007    107.7179   108.2379   107.7179   0.0000     15.2899    9.8613     3311.3833  0.1351     0.0362     0.4800     0.3192     0.3192     2.3176     2.7757     1.4922     0.4817     0.0572     0.1790     1498.0613  0.7925     0.7925     4121.8579  1.1000     17976.7363 4.1497     4.1497    
5202.5000  8.5000     2.8401     2.8401     2.8542     1.4893     0.1691     55.1655    105.7975   106.3225   105.7975   0.0000     15.4450    9.8366     3594.6763  0.1372     0.0375     0.4800     0.3141     0.3141     2.3710     2.7757     1.4893     0.4950     0.0542     0.1794     1626.2223  0.7891     0.7891     4104.5527  1.1000     19514.6680 4.4411     4.4411    
5203.0000  8.5000     3.5765     3.5765     3.6575     1.4873     0.0381     53.6921    98.4486    99.0081    97.6273    0.0000     15.6267    9.6778     4849.7954  0.1376     0.0396     0.4800     0.2877     0.2877     2.5871     2.7677     1.4873     0.5667     0.0438     0.1310     2194.0349  0.7691     0.7691     4000.9622  1.1000     26328.4199 5.8031     5.8031    
5203.5000  8.5000     4.5137     4.5137     4.8299     1.4866     -0.0515    49.3836    90.1557    90.5596    87.3484    0.0350     15.4459    9.6672     8447.5508  0.1328     0.0429     0.4800     0.2734     0.2787     2.7349     2.7677     1.4866     0.4470     0.0133     0.1030     3613.6943  0.8077     0.7986     4202.3804  1.1000     43364.3320 8.2240     7.7460    
5204.0000  8.5000     5.0869     5.0869     5.4928     1.4856     -0.0874    47.5190    85.8022    86.2606    82.7906    0.0399     15.7132    9.6425     10454.7852 0.1260     0.0485     0.4800     0.2653     0.2710     2.7941     2.7941     1.4856     0.5328     0.0001     0.0920     4439.2476  0.8182     0.8069     4257.1465  1.1000     53270.9727 9.5669     8.9331    
5204.5000  8.5000     5.0656     5.0656     5.3705     1.4856     -0.0833    46.3356    85.9158    86.3030    83.6287    0.0301     13.9226    9.6214     11111.0879 0.1215     0.0570     0.4800     0.2842     0.2891     2.7875     2.7875     1.4856     0.4497     0.0000     0.0989     4789.5181  0.8437     0.8349     4390.3125  1.1000     57474.2188 9.4765     9.0055    
5205.0000  8.5000     4.9036     4.9036     5.1171     1.4855     -0.0766    45.7314    87.1559    87.5363    85.5033    0.0000     13.4763    9.6461     10497.8975 0.1211     0.0679     0.4800     0.3074     0.3074     2.7764     2.7764     1.4855     0.4355     0.0000     0.1007     4749.2222  0.8527     0.8527     4437.9644  1.1000     56990.6641 8.8131     8.8131    
5205.5000  8.5000     4.7383     4.7383     4.8536     1.4855     -0.0695    46.1046    88.4728    88.8646    87.6079    0.0000     12.5015    9.6708     10031.9365 0.1226     0.0823     0.4800     0.3127     0.3127     2.7647     2.7647     1.4855     0.4418     0.0000     0.1039     4538.4224  0.8555     0.8555     4452.4844  1.1000     54461.0664 8.4229     8.4229    
5206.0000  8.5000     4.8273     4.8273     4.9622     1.4850     -0.0720    47.0955    87.6933    88.1342    86.7097    0.0000     11.9419    9.6002     9350.4102  0.1215     0.0969     0.4800     0.2961     0.2961     2.7689     2.7689     1.4850     0.5015     0.0000     0.1047     4230.1016  0.8277     0.8277     4308.2954  1.1000     50761.2188 8.4975     8.4975    
5206.5000  8.5000     5.0603     5.0603     5.2132     1.4842     -0.0680    47.9533    85.5357    85.9898    84.4944    0.0000     13.1451    9.5826     8717.8730  0.1192     0.1060     0.4800     0.2692     0.2692     2.7622     2.7622     1.4842     0.5295     0.0032     0.1058     3943.9431  0.7877     0.7877     4100.8696  1.1000     47327.3203 8.7854     8.7854    
5207.0000  8.5000     5.1612     5.1612     5.3484     1.4827     -0.0666    48.7289    84.6299    85.1402    83.3853    0.0000     12.2842    9.5720     8141.9063  0.1181     0.1100     0.4800     0.2498     0.2498     2.7599     2.7599     1.4827     0.6013     0.0087     0.0968     3683.3774  0.7584     0.7584     3948.3376  1.1000     44200.5313 8.8541     8.8541    
5207.5000  8.5000     5.1063     5.1063     5.2651     1.4807     -0.0574    48.4631    84.8616    85.3485    83.8104    0.0000     13.7296    9.5649     8242.7324  0.1226     0.1082     0.4800     0.2563     0.2563     2.7447     2.7447     1.4807     0.5722     0.0068     0.0868     3728.9910  0.7673     0.7673     3995.0000  1.1000     44747.8906 8.7760     8.7760    
