~Version
 VERS              .         2.0                           : CWLS LOG ASCII STANDARD - VERSION 2.0
 WRAP              .         NO                            : ONE LINE PER DEPTH STEP
 DLM               .         SPACE                         : DELIMITING CHARACTER(SPACE TAB OR COMMA)
~Well Information
#_______________________________________________________________________________
#
#PARAMETER_NAME    .UNIT     VALUE                         : DESCRIPTION
#_______________________________________________________________________________
STRT               .ft       1049.0000                     : First reference value
STOP               .ft       5858.0000                     : Last reference value
STEP               .ft       0.5000                        : Step increment
NULL               .         -999.25                       : Missing value
COMP               .         PRAIRIE STATE GENERATING CO, LLC: Company
WELL               .         LIVELY GROVE #1               : Well name
FLD                .         N/A                           : Field
LOC                .                                       : Location
CNTY               .         WASHINGTON                    : County
STAT               .         ILLINOIS                      : State
CTRY               .         USA                           : Country
SRVC               .         Schlumberger                  : Service Company
DATE               .         13-Aug-2021                   : Date
UWI                .                                       : Unique Well ID
APD                .ft       16                            : Elevation of Depth Reference (LMF) Above Permanent Datum
API                .         12-189-24947-00               : 
BHS                .         OPEN                          : Borehole Status (Open or Cased Hole)
BHT                .degF     115                           : Bottom Hole Temperature
BLI                .ft       5888                          : Bottom Log Interval
BS                 .in       8.5                           : Bit Size
CBDR               .ft       1049                          : Casing Bottom of Driller
CBLO               .ft       1049                          : Logger Casing Shoe Depth
CSIZ               .in       9.625                         : Current Casing Size
CWEI               .lbm/ft   36                            : Casing Weight
DCS                .         11-Aug-2021                   : Date Circulation Stopped
DFD                .lbm/gal  9.35                          : Drilling Fluid Density
DFT                .         FRESH WBM                     : Drilling Fluid Type
DLAB               .         12-Aug-2021                   : Date Logger At Bottom
EDF                .ft       477                           : Elevation of Drill Floor
EGL                .ft       461                           : Elevation of Ground Level
EKB                .ft       477                           : Elevation of Kelly Bushing
EPD                .ft       461                           : Elevation of Permanent Datum (PDAT) above Mean Sea Level
LMF                .         KB                            : Logging Measured From (Name of Logging Elevation Reference)
LUL                .         BRADFORD, PA                  : Logging Unit Location
LUN                .         OSLC 2266                     : Logging Unit Number
LATI               .         38.352151 degrees             : Latitude
LONG               .         -89.644768 degrees            : Longitude
MCST               .degF     81.9                          : Mudcake Sample Temperature
MFST               .degF     81.9                          : Mud Filtrate Sample Temperature
MRT                .degF     115                           : Maximum Recorded Temperature
MST                .degF     81.9                          : Mud Sample Temperature
ORIGINALWELLNAME   .         LIVELY GROVE #1               : 
PDAT               .         GL                            : Permanent Datum
PRODUCER-CODE      .         440                           : 
PRODUCER-NAME      .         Schlumberger                  : 
RMB                .ohm.m    0.9233273                     : Resistivity of Mud at Bottom Hole Temperature
RMCS               .ohm.m    1.44                          : Resistivity of Mud Cake Sample
RMFS               .ohm.m    1.033                         : Resistivity of Mud Filtrate Sample
RMS                .ohm.m    1.268                         : Resistivity of Mud Sample
RUN                .         RUN 1D                        : Run Number
TCS                .         13_00_00                      : Time Circulation Stopped
TDD                .ft       5888.35                       : Driller Total Depth
TDL                .ft       5888.35                       : Logger Total Depth
TLAB               .         17_08_00                      : Time Logger At Bottom
TLI                .ft       1049                          : Top Log Interval
~Parameter Information Block
#_______________________________________________________________________________
#
#PARAMETER_NAME    .UNIT     VALUE                         : DESCRIPTION
#_______________________________________________________________________________
SET                .         0_PnS_Aniso                   : 
TLFamily_BS        .         Bit Size                      : 
TLFamily_DEVIM     .         Hole Deviation                : 
TLFamily_DPHZ      .         Density Porosity              : 
TLFamily_DTCO_MF_DDBHC .         Compressional Slowness        : 
TLFamily_DTCO_MF_R .         Compressional Slowness        : 
TLFamily_DTCO_MF_T .         Compressional Slowness        : 
TLFamily_DTSH_FAST_DDBHC .         Fast Shear Slowness           : 
TLFamily_DTSH_FAST_R .         Fast Shear Slowness           : 
TLFamily_DTSH_FAST_T .         Fast Shear Slowness           : 
TLFamily_DTSH_SLOW_DDBHC .         Slow Shear Slowness           : 
TLFamily_DTSH_SLOW_R .         Slow Shear Slowness           : 
TLFamily_DTSH_SLOW_T .         Slow Shear Slowness           : 
TLFamily_FSA_NAZ   .         Fast Shear Azimuth            : 
TLFamily_FSA_NAZ_ERR .         Fast Shear Azimuth            : 
TLFamily_FSA_NAZ_ERRMINUS .         Fast Shear Azimuth            : 
TLFamily_FSA_NAZ_ERRPLUS .         Fast Shear Azimuth            : 
TLFamily_FSA_NAZ_IN .         Fast Shear Azimuth            : 
TLFamily_GR_EDTC   .         Gamma Ray                     : 
TLFamily_HAZIM     .         Hole Azimuth                  : 
TLFamily_HDAR      .         Borehole Diameter             : 
TLFamily_MAXXENE_OVERALL .         Acoustic Energy               : 
TLFamily_MD        .         Measured Depth                : 
TLFamily_MINXENE_OVERALL .         Acoustic Energy               : 
TLFamily_P1NO_MAST .         Pad A North                   : 
TLFamily_PEFZ      .         Photoelectric Factor          : 
TLFamily_PR_FAST   .         Poisson Ratio (Dynamic)       : 
TLFamily_SDEVM     .         Sonde Deviation               : 
TLFamily_SENSOR_AZIM_QCI .         Sensor Azimuth                : 
TLFamily_SLOANI    .         Acoustic Anisotropy           : 
TLFamily_SPHI      .         Total Porosity                : 
TLFamily_TDIF_ALT_OVERALL .         Time Interval                 : 
TLFamily_TDIF_ORG_OVERALL .         Time Interval                 : 
TLFamily_TENS      .         Tension                       : 
TLFamily_TIMANI    .         Acoustic Anisotropy           : 
TLFamily_TNPH      .         Thermal Neutron Porosity      : 
TLFamily_TW_B_L6   .         Travel Time                   : 
TLFamily_TW_E_L6   .         Travel Time                   : 
TLFamily_VPVS_FAST .         VpVs (Compressional To Shear) Ratio: 
TLFamily_XENEDIF   .         Acoustic Energy               : 
~Curve Information
#_______________________________________________________________________________
#
#LOGNAME           .UNIT     LOG_ID                        : DESCRIPTION
#_______________________________________________________________________________
MD                 .ft                                     : Measured Depth
BS                 .in                                     : Bit Size 
DEVIM              .deg                                    : Memorized Deviation 
DPHZ               .ft3/ft3                                : Standard Resolution Density Porosity <_techsia_lb_>F11 
DTCO_MF_DDBHC      .us/ft                                  : Compressional slowness 
DTCO_MF_R          .us/ft                                  : Compressional slowness 
DTCO_MF_T          .us/ft                                  : Compressional slowness 
DTSH_FAST_DDBHC    .us/ft                                  : Shear slowness 
DTSH_FAST_R        .us/ft                                  : Shear slowness 
DTSH_FAST_T        .us/ft                                  : Shear slowness 
DTSH_SLOW_DDBHC    .us/ft                                  : Shear slowness 
DTSH_SLOW_R        .us/ft                                  : Shear slowness 
DTSH_SLOW_T        .us/ft                                  : Shear slowness 
FSA_NAZ            .deg                                    : Fast shear azimuth(NAZ REF90) - overall - swapped 
FSA_NAZ_ERR        .deg                                    : Fast shear azimuth error, reference frame NAZ 
FSA_NAZ_ERRMINUS   .deg                                    : Fast shear azimuth error minus(NAZ REF90) - swapped 
FSA_NAZ_ERRPLUS    .deg                                    : Fast shear azimuth error plus(NAZ REF90) - swapped 
FSA_NAZ_IN         .deg                                    : Fast Shear Azimuth Indicator 
GR_EDTC            .gAPI                                   : Gamma Ray 
HAZIM              .deg                                    : Memorized Hole Azimuth 
HDAR               .in                                     : Hole Diameter from Area 
MAXXENE_OVERALL    .unitless                               : Maximum cross energy - overall 
MINXENE_OVERALL    .unitless                               : Minimum cross energy - overall 
P1NO_MAST          .deg                                    : Pad 1 Azimuth in Plane Orthogonal to Tool Axis (0 = True North), memorized to MAST 
PEFZ               .                                       : Standard Resolution Formation Photoelectric Factor <_techsia_lb_>F11 
PR_FAST            .unitless                               : Possion's Ratio 
SDEVM              .deg                                    : Memorized Sonde Deviation 
SENSOR_AZIM_QCI    .deg                                    : Tool azimuth for input QC 
SLOANI             .%                                      : Slowness-Based Anisotropy 
SPHI               .ft3/ft3                                : Total porosity from Sonic 
TDIF_ALT_OVERALL   .s                                      : Arrival time difference between fast and slow waves(alternate) - overall - swapped 
TDIF_ORG_OVERALL   .s                                      : Arrival time difference between fast and slow waves(original) - overall - swapped 
TENS               .lbf                                    : Cable Tension 
TIMANI             .%                                      : Time-Based Anisotropy 
TNPH               .ft3/ft3                                : Thermal Neutron Porosity (Ratio Method) in Selected Lithology <_techsia_lb_>F11 
TW_B_L6            .us                                     : Time window begin - packed 
TW_E_L6            .us                                     : Time window end - packed 
VPVS_FAST          .unitless                               : VpVs Ratio 
XENEDIF            .unitless                               : Energy-Based Anisotropy 
~Ascii
# ...
5846.5000  8.5000     0.4527     -0.2150    48.5440    49.1712    47.9168    89.1624    92.0564    86.2684    89.7322    92.9362    86.5282    137.8668   15.8322    122.0346   153.6991   -999.2500  72.9928    329.4956   8.3292     0.1285     0.0830     300.8956   4.8821     0.2893     0.4527     317.1803   0.6370     0.0074     -0.0004    0.0000     3163.3442  0.8404     0.1717     1624.3431  4624.3428  1.8367     4.5499    
5847.0000  8.5000     0.4658     -0.2098    48.1176    49.2337    47.0015    88.9507    92.1245    85.7770    89.7323    93.2629    86.2017    140.5302   16.7729    123.7572   157.3032   -999.2500  72.9928    330.9149   8.3427     0.1419     0.0933     300.9075   4.6951     0.2932     0.4658     300.5355   0.8748     0.0044     -0.0004    0.0000     3174.4238  0.8803     0.1711     1629.8618  4629.8618  1.8486     4.8559    
5847.5000  8.5000     0.4756     -0.1799    48.0291    49.2514    46.8068    89.2232    92.1843    86.2622    89.9578    93.0221    86.8935    142.8022   17.4820    125.3202   160.2842   -999.2500  72.9928    332.4060   8.3509     0.1557     0.1025     300.9215   4.4906     0.2960     0.4756     295.7022   0.8199     0.0037     -0.0004    0.0000     3169.5625  0.9769     0.1855     1634.6453  4634.6450  1.8577     5.3184    
5848.0000  8.5000     0.4854     -0.1336    48.8328    49.2513    48.4143    89.2765    92.0650    86.4880    89.9225    92.7562    87.0888    144.5177   17.8073    126.7103   162.3249   -999.2500  72.9928    333.5744   8.3448     0.1674     0.1041     300.9190   4.3363     0.2865     0.4854     300.2408   0.7210     0.0094     -0.0004    0.0000     3167.9792  1.1194     0.1914     1636.0326  4636.0322  1.8282     6.3231    
5848.5000  8.5000     0.4960     -0.0873    50.1228    49.2526    50.9929    89.9071    91.9414    87.8729    90.6259    92.6807    88.5711    146.1470   15.4530    130.6938   161.6001   -999.2500  72.9928    333.5754   8.3399     0.1797     0.0967     300.9058   4.2281     0.2745     0.4960     301.2218   0.7962     0.0185     -0.0004    0.0000     3175.8335  1.2797     0.2002     1635.9283  4635.9282  1.7937     8.3035    
5849.0000  8.5000     0.5052     -0.0797    51.0291    49.2760    52.7822    91.3128    91.9748    90.6507    92.0591    92.8207    91.2974    148.1586   13.8356    134.3230   161.9941   -999.2500  72.9928    332.3154   8.3467     0.1943     0.0964     300.9034   4.1306     0.2729     0.5052     301.0390   0.8139     0.0249     -0.0004    0.0000     3177.7710  1.4507     0.2020     1636.4349  4636.4351  1.7894     9.7833    
5849.5000  8.5000     0.5123     -0.0881    50.5653    49.3294    51.8011    91.3889    92.0230    90.7549    91.9726    92.7440    91.2012    149.7398   12.8058    136.9340   162.5456   -999.2500  72.9928    330.2065   8.3366     0.2069     0.0980     300.8714   4.0406     0.2794     0.5123     300.9250   0.6366     0.0217     -0.0004    0.0000     3187.7241  1.5725     0.2057     1638.3385  4638.3384  1.8073     10.8991   
5850.0000  8.5000     0.5197     -0.0859    48.8792    49.3390    48.4195    90.7062    92.1195    89.2928    91.2052    92.5828    89.8276    151.5014   11.9159    139.5855   163.4173   -999.2500  72.9928    327.7395   8.3046     0.2161     0.1005     300.8549   3.9509     0.2954     0.5197     300.8803   0.5487     0.0097     -0.0004    0.0000     3196.9456  1.5335     0.2110     1639.8826  4639.8828  1.8557     11.5598   
5850.5000  8.5000     0.5256     -0.0449    48.5578    49.3235    47.7921    90.9344    92.1441    89.7248    91.4026    92.3733    90.4320    153.4716   11.4192    142.0525   164.8908   -999.2500  72.9928    325.5948   8.2011     0.2200     0.1016     300.8523   3.8633     0.3006     0.5256     300.8383   0.5135     0.0075     -0.0004    0.0000     3104.5186  1.4279     0.2199     1640.2723  4640.2725  1.8727     11.8431   
5851.0000  8.5000     0.5302     -0.0214    50.0765    49.3067    50.8463    90.9086    92.0924    89.7248    91.2763    92.2608    90.2918    154.3619   11.2590    143.1029   165.6209   -999.2500  72.9928    324.6780   8.2589     0.2216     0.1021     300.8523   3.7423     0.2822     0.5302     300.8683   0.4037     0.0182     -0.0004    0.0000     2898.0291  1.3911     0.2205     1640.0673  4640.0674  1.8154     11.9485   
5851.5000  8.5000     0.5316     0.0230     51.6089    49.2977    53.9202    90.9019    92.0790    89.7248    91.3434    92.4055    90.2813    154.5025   11.2858    143.2168   165.7883   -999.2500  72.9928    326.1790   8.2568     0.2234     0.1031     300.8523   3.6999     0.2622     0.5316     300.9289   0.4845     0.0290     -0.0004    0.0000     3154.0940  1.3880     0.2210     1640.0841  4640.0840  1.7614     12.0349   
5852.0000  8.5000     0.5347     0.0425     52.2849    49.3059    55.2638    90.9433    92.0566    89.8300    91.4098    92.4619    90.3577    154.5783   11.3436    143.2347   165.9219   -999.2500  72.9928    329.3628   8.1018     0.2252     0.1043     300.8523   3.6889     0.2531     0.5347     300.9365   0.5116     0.0338     -0.0004    0.0000     3500.7917  1.3875     0.2261     1640.1394  4640.1392  1.7394     12.0829   
5852.5000  8.5000     0.5437     0.0641     53.2696    49.3107    57.2284    91.7313    92.0564    91.4062    92.0581    92.4618    91.6543    154.6636   11.4231    143.2405   166.0867   -999.2500  72.9928    333.2191   7.9231     0.2264     0.1055     300.8523   3.7658     0.2456     0.5437     300.9005   0.3556     0.0408     -0.0004    0.0000     3386.8149  1.3842     0.2314     1640.4067  4640.4067  1.7220     12.0910   
5853.0000  8.5000     0.5609     0.0528     53.6098    49.3107    57.9088    92.5527    92.0559    93.0496    92.9718    92.4618    93.4817    154.7341   11.4762    143.2579   166.2103   -999.2500  72.9928    336.2694   7.9301     0.2272     0.1063     300.8523   3.8582     0.2475     0.5609     300.8987   0.4517     0.0432     -0.0004    0.0000     3234.8845  1.3804     0.2360     1640.9796  4640.9795  1.7264     12.0863   
5853.5000  8.5000     0.5844     0.0874     52.2370    49.3107    55.1632    92.3967    92.0558    92.7377    92.8172    92.4615    93.1729    154.8058   11.5182    143.2877   166.3240   -999.2500  72.9928    338.0070   7.9984     0.2273     0.1068     300.8523   3.9803     0.2651     0.5844     300.8985   0.4540     0.0335     -0.0004    0.0000     3184.0000  1.3764     0.2297     1641.0540  4641.0537  1.7688     12.0470   
5854.0000  8.5000     0.6112     0.1662     50.7950    49.3107    52.2793    92.0375    92.0560    92.0190    92.3767    92.4606    92.2927    154.8785   11.5595    143.3190   166.4380   -999.2500  72.9928    338.4553   8.3364     0.2269     0.1070     300.8523   4.0819     0.2810     0.6112     300.9185   0.3678     0.0233     -0.0004    0.0000     3182.3704  1.3701     0.2129     1641.0524  4641.0522  1.8119     11.9903   
5854.5000  8.5000     0.6392     0.1742     49.4932    49.3107    49.6756    91.7936    92.0567    91.5306    92.1092    92.4595    91.7589    154.9597   11.5804    143.3793   166.5402   -999.2500  72.9928    337.9956   8.3399     0.2264     0.1068     300.8523   4.1628     0.2951     0.6392     300.9221   0.3432     0.0141     -0.0004    0.0000     3283.4231  1.3648     0.2124     1641.0994  4641.0996  1.8547     11.9508   
5855.0000  8.5000     0.6635     0.0851     48.7450    49.3107    48.1792    91.6544    92.0573    91.2514    91.9652    92.4585    91.4718    155.0125   11.5914    143.4211   166.6038   -999.2500  72.9928    337.4733   8.3795     0.2260     0.1066     300.8523   4.3171     0.3028     0.6635     300.9148   0.3386     0.0088     -0.0004    0.0000     3213.2593  1.3629     0.2129     1641.1215  4641.1216  1.8803     11.9409   
5855.5000  8.5000     0.6803     -0.0427    48.4753    49.3107    47.6399    91.6708    92.0578    91.2839    92.0234    92.4582    91.5886    155.0041   11.5955    143.4086   166.5996   -999.2500  72.9928    337.5151   8.3112     0.2259     0.1064     300.8523   4.4944     0.3059     0.6803     300.9068   0.3838     0.0069     -0.0004    0.0000     3263.7039  1.3640     0.2140     1641.0973  4641.0972  1.8911     11.9539   
