~Version
 VERS              .         2.0                           : CWLS LOG ASCII STANDARD - VERSION 2.0
 WRAP              .         NO                            : ONE LINE PER DEPTH STEP
 DLM               .         SPACE                         : DELIMITING CHARACTER(SPACE TAB OR COMMA)
~Well Information
#_______________________________________________________________________________
#
#PARAMETER_NAME    .UNIT     VALUE                         : DESCRIPTION
#_______________________________________________________________________________
STRT               .ft       1049.0000                     : First reference value
STOP               .ft       5858.0000                     : Last reference value
STEP               .ft       0.5000                        : Step increment
NULL               .         -999.25                       : Missing value
COMP               .         PRAIRIE STATE GENERATING CO, LLC: Company
WELL               .         LIVELY GROVE #1               : Well name
FLD                .         N/A                           : Field
LOC                .                                       : Location
CNTY               .         WASHINGTON                    : County
STAT               .         ILLINOIS                      : State
CTRY               .         USA                           : Country
SRVC               .         Schlumberger                  : Service Company
DATE               .         13-Aug-2021                   : Date
UWI                .                                       : Unique Well ID
APD                .ft       16                            : Elevation of Depth Reference (LMF) Above Permanent Datum
API                .         12-189-24947-00               : 
BHS                .         OPEN                          : Borehole Status (Open or Cased Hole)
BHT                .degF     115                           : Bottom Hole Temperature
BLI                .ft       5888                          : Bottom Log Interval
BS                 .in       8.5                           : Bit Size
CBDR               .ft       1049                          : Casing Bottom of Driller
CBLO               .ft       1049                          : Logger Casing Shoe Depth
CSIZ               .in       9.625                         : Current Casing Size
CWEI               .lbm/ft   36                            : Casing Weight
DCS                .         11-Aug-2021                   : Date Circulation Stopped
DFD                .lbm/gal  9.35                          : Drilling Fluid Density
DFT                .         FRESH WBM                     : Drilling Fluid Type
DLAB               .         12-Aug-2021                   : Date Logger At Bottom
EDF                .ft       477                           : Elevation of Drill Floor
EGL                .ft       461                           : Elevation of Ground Level
EKB                .ft       477                           : Elevation of Kelly Bushing
EPD                .ft       461                           : Elevation of Permanent Datum (PDAT) above Mean Sea Level
LMF                .         KB                            : Logging Measured From (Name of Logging Elevation Reference)
LUL                .         BRADFORD, PA                  : Logging Unit Location
LUN                .         OSLC 2266                     : Logging Unit Number
LATI               .         38.352151 degrees             : Latitude
LONG               .         -89.644768 degrees            : Longitude
MCST               .degF     81.9                          : Mudcake Sample Temperature
MFST               .degF     81.9                          : Mud Filtrate Sample Temperature
MRT                .degF     115                           : Maximum Recorded Temperature
MST                .degF     81.9                          : Mud Sample Temperature
ORIGINALWELLNAME   .         LIVELY GROVE #1               : 
PDAT               .         GL                            : Permanent Datum
PRODUCER-CODE      .         440                           : 
PRODUCER-NAME      .         Schlumberger                  : 
RMB                .ohm.m    0.9233273                     : Resistivity of Mud at Bottom Hole Temperature
RMCS               .ohm.m    1.44                          : Resistivity of Mud Cake Sample
RMFS               .ohm.m    1.033                         : Resistivity of Mud Filtrate Sample
RMS                .ohm.m    1.268                         : Resistivity of Mud Sample
RUN                .         RUN 1D                        : Run Number
TCS                .         13_00_00                      : Time Circulation Stopped
TDD                .ft       5888.35                       : Driller Total Depth
TDL                .ft       5888.35                       : Logger Total Depth
TLAB               .         17_08_00                      : Time Logger At Bottom
TLI                .ft       1049                          : Top Log Interval
~Parameter Information Block
#_______________________________________________________________________________
#
#PARAMETER_NAME    .UNIT     VALUE                         : DESCRIPTION
#_______________________________________________________________________________
SET                .         0_PnS_Aniso                   : 
TLFamily_BS        .         Bit Size                      : 
TLFamily_DEVIM     .         Hole Deviation                : 
TLFamily_DPHZ      .         Density Porosity              : 
TLFamily_DTCO_MF_DDBHC .         Compressional Slowness        : 
TLFamily_DTCO_MF_R .         Compressional Slowness        : 
TLFamily_DTCO_MF_T .         Compressional Slowness        : 
TLFamily_DTSH_FAST_DDBHC .         Fast Shear Slowness           : 
TLFamily_DTSH_FAST_R .         Fast Shear Slowness           : 
TLFamily_DTSH_FAST_T .         Fast Shear Slowness           : 
TLFamily_DTSH_SLOW_DDBHC .         Slow Shear Slowness           : 
TLFamily_DTSH_SLOW_R .         Slow Shear Slowness           : 
TLFamily_DTSH_SLOW_T .         Slow Shear Slowness           : 
TLFamily_FSA_NAZ   .         Fast Shear Azimuth            : 
TLFamily_FSA_NAZ_ERR .         Fast Shear Azimuth            : 
TLFamily_FSA_NAZ_ERRMINUS .         Fast Shear Azimuth            : 
TLFamily_FSA_NAZ_ERRPLUS .         Fast Shear Azimuth            : 
TLFamily_FSA_NAZ_IN .         Fast Shear Azimuth            : 
TLFamily_GR_EDTC   .         Gamma Ray                     : 
TLFamily_HAZIM     .         Hole Azimuth                  : 
TLFamily_HDAR      .         Borehole Diameter             : 
TLFamily_MAXXENE_OVERALL .         Acoustic Energy               : 
TLFamily_MD        .         Measured Depth                : 
TLFamily_MINXENE_OVERALL .         Acoustic Energy               : 
TLFamily_P1NO_MAST .         Pad A North                   : 
TLFamily_PEFZ      .         Photoelectric Factor          : 
TLFamily_PR_FAST   .         Poisson Ratio (Dynamic)       : 
TLFamily_SDEVM     .         Sonde Deviation               : 
TLFamily_SENSOR_AZIM_QCI .         Sensor Azimuth                : 
TLFamily_SLOANI    .         Acoustic Anisotropy           : 
TLFamily_SPHI      .         Total Porosity                : 
TLFamily_TDIF_ALT_OVERALL .         Time Interval                 : 
TLFamily_TDIF_ORG_OVERALL .         Time Interval                 : 
TLFamily_TENS      .         Tension                       : 
TLFamily_TIMANI    .         Acoustic Anisotropy           : 
TLFamily_TNPH      .         Thermal Neutron Porosity      : 
TLFamily_TW_B_L6   .         Travel Time                   : 
TLFamily_TW_E_L6   .         Travel Time                   : 
TLFamily_VPVS_FAST .         VpVs (Compressional To Shear) Ratio: 
TLFamily_XENEDIF   .         Acoustic Energy               : 
~Curve Information
#_______________________________________________________________________________
#
#LOGNAME           .UNIT     LOG_ID                        : DESCRIPTION
#_______________________________________________________________________________
MD                 .ft                                     : Measured Depth
BS                 .in                                     : Bit Size 
DEVIM              .deg                                    : Memorized Deviation 
DPHZ               .ft3/ft3                                : Standard Resolution Density Porosity <_techsia_lb_>F11 
DTCO_MF_DDBHC      .us/ft                                  : Compressional slowness 
DTCO_MF_R          .us/ft                                  : Compressional slowness 
DTCO_MF_T          .us/ft                                  : Compressional slowness 
DTSH_FAST_DDBHC    .us/ft                                  : Shear slowness 
DTSH_FAST_R        .us/ft                                  : Shear slowness 
DTSH_FAST_T        .us/ft                                  : Shear slowness 
DTSH_SLOW_DDBHC    .us/ft                                  : Shear slowness 
DTSH_SLOW_R        .us/ft                                  : Shear slowness 
DTSH_SLOW_T        .us/ft                                  : Shear slowness 
FSA_NAZ            .deg                                    : Fast shear azimuth(NAZ REF90) - overall - swapped 
FSA_NAZ_ERR        .deg                                    : Fast shear azimuth error, reference frame NAZ 
FSA_NAZ_ERRMINUS   .deg                                    : Fast shear azimuth error minus(NAZ REF90) - swapped 
FSA_NAZ_ERRPLUS    .deg                                    : Fast shear azimuth error plus(NAZ REF90) - swapped 
FSA_NAZ_IN         .deg                                    : Fast Shear Azimuth Indicator 
GR_EDTC            .gAPI                                   : Gamma Ray 
HAZIM              .deg                                    : Memorized Hole Azimuth 
HDAR               .in                                     : Hole Diameter from Area 
MAXXENE_OVERALL    .unitless                               : Maximum cross energy - overall 
MINXENE_OVERALL    .unitless                               : Minimum cross energy - overall 
P1NO_MAST          .deg                                    : Pad 1 Azimuth in Plane Orthogonal to Tool Axis (0 = True North), memorized to MAST 
PEFZ               .                                       : Standard Resolution Formation Photoelectric Factor <_techsia_lb_>F11 
PR_FAST            .unitless                               : Possion's Ratio 
SDEVM              .deg                                    : Memorized Sonde Deviation 
SENSOR_AZIM_QCI    .deg                                    : Tool azimuth for input QC 
SLOANI             .%                                      : Slowness-Based Anisotropy 
SPHI               .ft3/ft3                                : Total porosity from Sonic 
TDIF_ALT_OVERALL   .s                                      : Arrival time difference between fast and slow waves(alternate) - overall - swapped 
TDIF_ORG_OVERALL   .s                                      : Arrival time difference between fast and slow waves(original) - overall - swapped 
TENS               .lbf                                    : Cable Tension 
TIMANI             .%                                      : Time-Based Anisotropy 
TNPH               .ft3/ft3                                : Thermal Neutron Porosity (Ratio Method) in Selected Lithology <_techsia_lb_>F11 
TW_B_L6            .us                                     : Time window begin - packed 
TW_E_L6            .us                                     : Time window end - packed 
VPVS_FAST          .unitless                               : VpVs Ratio 
XENEDIF            .unitless                               : Energy-Based Anisotropy 
~Ascii
# ...
2968.0000  8.5000     1.4212     -0.0209    49.2685    49.4884    49.0487    96.2765    96.9289    95.6242    96.8167    97.6897    95.9436    73.7986    4.3467     69.4519    78.1454    -999.2500  13.0321    257.6359   9.1309     0.1074     0.0140     341.5335   5.1999     0.3226     1.4212     351.6827   0.5594     0.0125     -0.0004    0.0000     2387.8000  1.0638     0.0419     1802.2991  4802.2988  1.9541     9.3372    
2968.5000  8.5000     1.4231     -0.0267    48.7149    49.4077    48.0221    97.1187    96.1896    98.0478    97.8763    97.0723    98.6802    73.2390    4.5383     68.7007    77.7773    -999.2500  12.8121    257.8493   9.1372     0.1099     0.0144     341.4602   5.1847     0.3319     1.4231     347.6841   0.7770     0.0086     -0.0004    0.0000     2350.1001  1.1576     0.0430     1770.7072  4770.7070  1.9936     9.5531    
2969.0000  8.5000     1.4260     -0.0318    48.5155    49.2854    47.7455    95.8310    95.1948    96.4672    96.9278    96.5581    97.2974    72.6577    4.8923     67.7653    77.5500    -999.2500  12.9233    258.0756   9.1484     0.1130     0.0150     341.4154   5.1672     0.3277     1.4260     343.4294   1.1380     0.0072     -0.0004    0.0000     2330.1580  1.2085     0.0417     1740.6091  4740.6089  1.9753     9.7961    
2969.5000  8.5000     1.4291     -0.0377    49.0780    49.2901    48.8660    93.6991    94.9421    92.4560    94.8473    96.4182    93.2764    72.0031    5.1822     66.8209    77.1853    -999.2500  13.1339    258.2896   9.1540     0.1170     0.0155     341.3506   5.2245     0.3110     1.4291     341.6378   1.2180     0.0112     -0.0004    0.0000     2347.8948  1.2323     0.0425     1718.3033  4718.3032  1.9092     10.1575   
2970.0000  8.5000     1.4319     -0.0404    49.6377    49.1791    50.0963    93.6796    95.2766    92.0826    94.7323    96.6519    92.8127    71.1998    5.5657     65.6341    76.7655    -999.2500  13.4017    258.4616   9.1514     0.1187     0.0150     341.3493   5.2682     0.3048     1.4319     342.5732   1.1174     0.0151     -0.0004    0.0000     2595.7000  1.2958     0.0419     1704.5765  4704.5767  1.8873     10.3704   
2970.5000  8.5000     1.4361     -0.0394    49.8697    49.0080    50.7315    94.5254    95.6945    93.3564    95.5346    97.0905    93.9786    68.9166    5.3743     63.5423    74.2909    -999.2500  14.4071    258.6707   9.1578     0.1194     0.0137     341.1983   5.2439     0.3072     1.4361     342.8792   1.0619     0.0167     -0.0004    0.0000     2438.0999  1.3672     0.0401     1698.5641  4698.5640  1.8954     10.5706   
2971.0000  8.5000     1.4380     -0.0330    49.7331    49.2893    50.1769    94.4607    95.8670    93.0544    95.4881    97.2023    93.7739    67.2641    4.5911     62.6730    71.8551    -999.2500  14.7684    258.7454   9.1819     0.1235     0.0122     341.1349   5.1628     0.3082     1.4380     342.8511   1.0817     0.0158     -0.0004    0.0000     2337.8501  1.4301     0.0392     1697.1346  4697.1348  1.8994     11.1388   
2971.5000  8.5000     1.4387     -0.0262    49.7398    49.7135    49.7661    94.8802    95.5855    94.1748    95.9102    96.8665    94.9539    66.0991    3.8426     62.2565    69.9416    -999.2500  14.0370    258.7422   9.1905     0.1290     0.0109     341.1150   5.0791     0.3105     1.4387     342.7898   1.0798     0.0158     -0.0004    0.0000     2321.9473  1.4379     0.0391     1697.6675  4697.6675  1.9075     11.8099   
2972.0000  8.5000     1.4369     -0.0271    50.1378    49.6193    50.6563    96.1860    95.2927    97.0792    97.2396    96.6023    97.8769    65.1083    3.1601     61.9482    68.2684    -999.2500  12.9015    258.7044   9.2025     0.1337     0.0100     341.0578   5.1038     0.3135     1.4369     342.7376   1.0895     0.0186     -0.0004    0.0000     2269.7371  1.4467     0.0368     1698.8058  4698.8057  1.9184     12.3713   
2972.5000  8.5000     1.4362     -0.0268    51.0654    49.0726    53.0582    98.5082    95.4539    101.5624   99.2265    96.4586    101.9944   64.2819    2.5511     61.7308    66.8330    -999.2500  12.8568    258.7061   9.2317     0.1389     0.0094     340.9709   5.1324     0.3163     1.4362     342.6349   0.7266     0.0252     -0.0004    0.0000     2348.3000  1.4877     0.0357     1699.1047  4699.1045  1.9291     12.9529   
2973.0000  8.5000     1.4367     -0.0340    51.3002    48.6158    53.9846    99.5865    95.6593    103.5138   99.7613    95.7828    103.7398   63.6361    2.1906     61.4455    65.8267    -999.2500  14.6042    258.7578   9.2585     0.1449     0.0089     340.9372   5.1783     0.3194     1.4367     342.2200   0.1753     0.0269     -0.0004    0.0000     2372.7896  1.5173     0.0355     1699.2261  4699.2261  1.9413     13.6040   
2973.5000  8.5000     1.4384     -0.0295    50.3838    48.3625    52.4050    98.5533    94.6496    102.4569   99.0553    95.1680    102.9426   62.9885    1.8937     61.0948    64.8822    -999.2500  15.6885    258.8319   9.2998     0.1502     0.0082     340.9149   5.1582     0.3231     1.4384     341.9194   0.5081     0.0204     -0.0004    0.0000     2418.7368  1.5095     0.0368     1699.4586  4699.4585  1.9561     14.1955   
2974.0000  8.5000     1.4406     -0.0220    50.1046    48.2758    51.9333    96.2043    94.6466    97.7620    96.5627    94.9164    98.2091    62.6715    1.7695     60.9020    64.4410    -999.2500  14.7395    258.9411   9.3760     0.1561     0.0078     340.8919   5.1889     0.3139     1.4406     341.7158   0.3719     0.0184     -0.0004    0.0000     2362.3501  1.5293     0.0390     1699.0464  4699.0464  1.9201     14.8335   
2974.5000  8.5000     1.4430     -0.0117    50.4190    48.3754    52.4625    95.4716    95.3444    95.5988    95.9468    95.6481    96.2456    62.5565    1.7134     60.8431    64.2699    -999.2500  13.6768    259.0714   9.4798     0.1628     0.0077     341.0093   5.1902     0.3066     1.4430     341.6024   0.4965     0.0206     -0.0004    0.0000     2430.4001  1.5799     0.0427     1698.6459  4698.6460  1.8936     15.5160   
2975.0000  8.5000     1.4460     -0.0108    51.1208    48.7847    53.4569    96.2663    96.4259    96.1066    96.9176    97.1042    96.7310    62.4417    1.6371     60.8045    64.0788    -999.2500  14.4946    259.2157   9.5768     0.1687     0.0077     341.1939   5.1910     0.3036     1.4460     341.5335   0.6743     0.0256     -0.0004    0.0000     2442.7896  1.6341     0.0485     1698.7612  4698.7612  1.8831     16.0947   
2975.5000  8.5000     1.4502     -0.0113    51.4569    49.3461    53.5677    96.9657    96.4740    97.4573    97.5462    97.2182    97.8743    62.3064    1.5314     60.7750    63.8379    -999.2500  17.0989    259.3842   9.6188     0.1738     0.0078     341.0726   5.1745     0.3040     1.4502     341.4602   0.5969     0.0280     -0.0004    0.0000     2398.6001  1.6779     0.0523     1699.5116  4699.5117  1.8844     16.6047   
2976.0000  8.5000     1.4545     -0.0089    51.1793    49.7510    52.6076    97.3593    97.0287    97.6899    97.9792    97.6551    98.3034    62.1626    1.4441     60.7185    63.6067    -999.2500  18.3585    259.5679   9.6095     0.1779     0.0078     340.3711   5.1815     0.3091     1.4545     341.4154   0.6347     0.0260     -0.0004    0.0000     2387.3157  1.7145     0.0564     1700.4332  4700.4331  1.9023     17.0011   
2976.5000  8.5000     1.4584     -0.0092    50.8410    50.0429    51.6391    97.5334    97.3481    97.7187    98.1786    98.0207    98.3364    62.0459    1.3568     60.6890    63.4027    -999.2500  17.8407    259.7428   9.6227     0.1819     0.0078     340.0939   5.1818     0.3135     1.4584     341.3506   0.6593     0.0236     -0.0004    0.0000     2403.2002  1.7608     0.0513     1701.8196  4701.8198  1.9184     17.4086   
2977.0000  8.5000     1.4618     -0.0165    50.5281    50.1384    50.9178    97.1745    97.3231    97.0259    98.6932    99.5795    97.8068    61.9161    1.2690     60.6471    63.1851    -999.2500  16.3450    259.9041   9.6028     0.1871     0.0078     340.2799   5.2367     0.3147     1.4618     341.3493   1.5507     0.0214     -0.0004    0.0000     2375.5500  1.8232     0.0517     1702.8716  4702.8716  1.9232     17.9297   
