~Version
 VERS              .         2.0                           : CWLS LOG ASCII STANDARD - VERSION 2.0
 WRAP              .         NO                            : ONE LINE PER DEPTH STEP
 DLM               .         SPACE                         : DELIMITING CHARACTER(SPACE TAB OR COMMA)
~Well Information
#_______________________________________________________________________________
#
#PARAMETER_NAME    .UNIT     VALUE                         : DESCRIPTION
#_______________________________________________________________________________
STRT               .ft       1050.0000                     : First reference value
STOP               .ft       5850.0000                     : Last reference value
STEP               .ft       0.5000                        : Step increment
NULL               .         -999.25                       : Missing value
COMP               .         PRAIRIE STATE GENERATING CO, LLC: Company
WELL               .         LIVELY GROVE #1               : Well name
FLD                .         N/A                           : Field
LOC                .                                       : Location
CNTY               .         WASHINGTON                    : County
STAT               .         ILLINOIS                      : State
CTRY               .                                       : Country
SRVC               .         Schlumberger                  : Service Company
DATE               .         12-Aug-2021                   : Date
UWI                .                                       : Unique Well ID
APD                .ft       16                            : Elevation of Depth Reference (LMF) Above Permanent Datum
API                .         12-189-24947-00               : 
BHS                .         OPEN                          : Borehole Status (Open or Cased Hole)
BHT                .degF     115                           : Bottom Hole Temperature
BLI                .ft       5885.95                       : Bottom Log Interval
BS                 .in       8.5                           : Bit Size
CBDR               .ft       1049                          : Casing Bottom of Driller
CBLO               .ft       1049                          : Logger Casing Shoe Depth
CSIZ               .in       9.625                         : Current Casing Size
CWEI               .lbm/ft   36                            : Casing Weight
DCS                .         11-Aug-2021                   : Date Circulation Stopped
DFD                .lbm/gal  9.35                          : Drilling Fluid Density
DFT                .         FRESH WBM                     : Drilling Fluid Type
DLAB               .         12-Aug-2021                   : Date Logger At Bottom
EDF                .ft       477                           : Elevation of Drill Floor
EGL                .ft       461                           : Elevation of Ground Level
EKB                .ft       477                           : Elevation of Kelly Bushing
EPD                .ft       461                           : Elevation of Permanent Datum (PDAT) above Mean Sea Level
LMF                .         KB                            : Logging Measured From (Name of Logging Elevation Reference)
LUL                .         BRADFORD, PA                  : Logging Unit Location
LUN                .         OSLC 2266                     : Logging Unit Number
LATI               .dega     0.00000000                    : Latitude
LONG               .         -89.644768 degrees            : Longitude
MCST               .degF     81.9                          : Mudcake Sample Temperature
MFST               .degF     81.9                          : Mud Filtrate Sample Temperature
MRT                .degF     115                           : Maximum Recorded Temperature
MST                .degF     81.9                          : Mud Sample Temperature
ORIGINALWELLNAME   .         LIVELY GROVE #1               : 
PDAT               .         GL                            : Permanent Datum
PRODUCER-CODE      .         440                           : 
PRODUCER-NAME      .         Schlumberger                  : 
RMB                .ohm.m    0.9233273                     : Resistivity of Mud at Bottom Hole Temperature
RMCS               .ohm.m    1.44                          : Resistivity of Mud Cake Sample
RMFS               .ohm.m    1.033                         : Resistivity of Mud Filtrate Sample
RMS                .ohm.m    1.268                         : Resistivity of Mud Sample
RUN                .         RUN 1B                        : Run Number
TCS                .         17_00_00                      : Time Circulation Stopped
TDD                .ft       5888                          : Driller Total Depth
TDL                .ft       5888.35                       : Logger Total Depth
TLAB               .         07_19_00                      : Time Logger At Bottom
TLI                .ft       1049                          : Top Log Interval
~Parameter Information Block
#_______________________________________________________________________________
#
#PARAMETER_NAME    .UNIT     VALUE                         : DESCRIPTION
#_______________________________________________________________________________
SET                .         0_CP_MP_Delivered             : 
TLFamily_BS        .         Bit Size                      : 
TLFamily_C44       .         Elastic Modulus               : 
TLFamily_C55       .         Elastic Modulus               : 
TLFamily_C66       .         Elastic Modulus               : 
TLFamily_DEVIM     .         Hole Deviation                : 
TLFamily_DPHZ      .         Density Porosity              : 
TLFamily_DTCO_MF_DDBHC .     Compressional Slowness        : 
TLFamily_DTSH_FAST_DDBHC .   Fast Shear Slowness           : 
TLFamily_DTSH_SLOW_DDBHC .   Slow Shear Slowness           : 
TLFamily_DTSH_STRVP .        Stoneley Shear Slowness       : 
TLFamily_GAMMA     .         Regularization Factor         : 
TLFamily_GR_EDTC   .         Gamma Ray                     : 
TLFamily_HCAL      .         Caliper                       : 
TLFamily_ISHE      .         Shear Strength                : 
TLFamily_MAXXENE_OVERALL .   Acoustic Energy               : 
TLFamily_MD        .         Measured Depth                : 
TLFamily_MINXENE_OVERALL .   Acoustic Energy               : 
TLFamily_PPGI      .         Pore Pressure Gradient        : 
TLFamily_PR_HH     .         Poisson Ratio (Dynamic)       : 
TLFamily_PR_VH     .         Poisson Ratio (Dynamic)       : 
TLFamily_RHOZ      .         Bulk Density                  : 
TLFamily_RHOZ_EDT  .         Bulk Density                  : 
TLFamily_SDEVM     .         Sonde Deviation               : 
TLFamily_SLOANI    .         Acoustic Anisotropy           : 
TLFamily_SPHI      .         Total Porosity                : 
TLFamily_TNPH      .         Thermal Neutron Porosity      : 
TLFamily_TSTR      .         Tensile Strength              : 
TLFamily_TXSG_ANISO .        Minimum Horizontal Stress Gradient: 
TLFamily_TXSG_ISO  .         Minimum Horizontal Stress Gradient: 
TLFamily_TXSP_ANISO .         Minimum Horizontal Stress     : 
TLFamily_TZSG      .         Vertical Stress Gradient      : 
TLFamily_UCS       .         Compressive Strength          : 
TLFamily_YME_H_STA .         Young's Modulus (Dynamic)     : 
TLFamily_YME_V_STA .         Young's Modulus (Dynamic)     : 
~Curve Information
#_______________________________________________________________________________
#
#LOGNAME           .UNIT     LOG_ID                        : DESCRIPTION
#_______________________________________________________________________________
MD                 .ft                                     : Measured Depth 
BS                 .in                                     : Bit Size 
C44                .Mpsi                                   : C44 Modulus 
C55                .Mpsi                                   : C55 Modulus 
C66                .Mpsi                                   : C66 Modulus 
DEVIM              .deg                                    : Memorized Deviation 
DPHZ               .ft3/ft3                                : Standard Resolution Density Porosity (F11 
DTCO_MF_DDBHC      .us/ft                                  : Compressional slowness 
DTSH_FAST_DDBHC    .us/ft                                  : Fast Shear slowness 
DTSH_SLOW_DDBHC    .us/ft                                  : Slow Shear slowness 
DTSH_STRVP         .us/ft                                  : Horizontal Shear
GAMMA              .unitless                               : Thomsens Anisotropy Parameter Gamma 
GR_EDTC            .gAPI                                   : Gamma Ray 
HCAL               .IN                                     : HRCC Caliper Calibrated (F11 
ISHE               .psi                                    : Cohesive Strength 
MAXXENE_OVERALL    .unitless                               : Maximum cross energy - overall 
MINXENE_OVERALL    .unitless                               : Minimum cross energy - overall 
PPGI               .psi/ft                                 : Pore Pressure Gradient 
PR_HH              .unitless                               : Poissons Ratio - Loading Horizontal - Displacement Horizontal 
PR_VH              .unitless                               : Poissons Ratio - Loading Vertical - Displacement Horizontal 
RHOZ               .g/cm3                                  : Standard Resolution Formation Density 
RHOZ_EDT           .g/cm3                                  : Standard Resolution Formation Density 
SDEVM              .deg                                    : Memorized Sonde Deviation 
SLOANI             .%                                      : Slowness-Based Anisotropy 
SPHI               .ft3/ft3                                : Total porosity from Sonic 
TNPH               .ft3/ft3                                : Thermal Neutron Porosity (Ratio Method) in Selected Lithology (F11 
TSTR               .psi                                    : Tensile Strength 
TXSG_ANISO         .psi/ft                                 : Anisotropic Minimum Horizontal Stress Gradient 
TXSG_ISO           .psi/ft                                 : Isotropic Minimum Horizontal Stress Gradient 
TXSP_ANISO         .psi                                    : Anisotropic Minimum Horizontal Stress 
TZSG               .psi/ft                                 : Overburden Stress Gradient 
UCS                .psi                                    : Unconfined Compressive Strength 
YME_H_STA          .Mpsi                                   : Static Horizontal Youngs Modulus 
YME_V_STA          .Mpsi                                   : Static Vertical Youngs Modulus 
~Ascii
# ...
4240.0000  8.5000     4.2779     4.2779     4.8336     0.2570     -0.0617    50.6198    92.9484    93.2540    87.5856    0.0650     38.7267    8.9157     8447.7051  0.0213     0.0093     0.4800     0.2657     0.2752     2.7519     2.7519     0.2570     0.3283     0.0220     0.1136     3456.4778  0.8415     0.8231     3567.6990  1.1000     41477.7344 8.1701     7.3359    
4240.5000  8.5000     4.2065     4.2065     4.7126     0.2527     -0.0554    50.3678    93.3880    94.0335    88.5342    0.0602     40.4816    8.8733     8409.5859  0.0207     0.0094     0.4800     0.2737     0.2830     2.7414     2.7414     0.2527     0.6888     0.0203     0.1179     3464.8467  0.8495     0.8324     3601.9531  1.1000     41578.1602 7.9801     7.2267    
4241.0000  8.5000     4.1922     4.1922     4.6015     0.2470     -0.0533    50.6352    93.4636    94.1580    89.5401    0.0488     42.6143    8.8839     7955.8857  0.0203     0.0095     0.4800     0.2755     0.2831     2.7379     2.7379     0.2470     0.7402     0.0222     0.1247     3333.1663  0.8411     0.8273     3566.5598  1.1000     39997.9961 7.7610     7.1532    
4241.5000  8.5000     4.2322     4.2322     4.4930     0.2410     -0.0457    51.2905    92.9322    93.3702    90.4064    0.0308     47.8344    8.8945     7127.2520  0.0197     0.0096     0.4800     0.2705     0.2751     2.7254     2.7254     0.2410     0.4702     0.0268     0.1274     3068.8328  0.8157     0.8071     3459.4751  1.1000     36825.9961 7.4989     7.1103    
4242.0000  8.5000     4.3390     4.3390     4.6003     0.2344     -0.0505    51.2098    91.9346    92.3283    89.4757    0.0301     53.3686    8.8945     7207.2192  0.0193     0.0097     0.4800     0.2649     0.2692     2.7333     2.7333     0.2344     0.4273     0.0262     0.1169     3106.6321  0.8093     0.8008     3432.5530  1.1000     37279.5859 7.6792     7.2866    
4242.5000  8.5000     4.4133     4.4133     4.7821     0.2273     -0.0529    50.6545    91.0493    91.7906    87.8223    0.0418     53.5166    8.8945     7817.1729  0.0192     0.0098     0.4800     0.2626     0.2685     2.7373     2.7373     0.2273     0.8109     0.0223     0.1005     3309.8408  0.8194     0.8074     3475.8816  1.1000     39718.0898 8.0385     7.4812    
4243.0000  8.5000     4.4541     4.4541     4.8965     0.2185     -0.0622    49.9340    90.8844    91.6288    87.0335    0.0497     47.7199    8.8945     8552.4238  0.0188     0.0101     0.4800     0.2673     0.2746     2.7527     2.7527     0.2185     0.8158     0.0172     0.0925     3578.4944  0.8379     0.8233     3554.6501  1.1000     42941.9336 8.3156     7.6463    
4243.5000  8.5000     4.5107     4.5107     4.9814     0.2104     -0.0703    49.3394    90.5676    91.2344    86.4977    0.0522     40.2735    8.8945     9109.7031  0.0184     0.0103     0.4800     0.2711     0.2790     2.7660     2.7660     0.2104     0.7335     0.0130     0.0897     3797.5137  0.8503     0.8347     3607.8035  1.1000     45570.1641 8.5256     7.8125    
4244.0000  8.5000     4.5833     4.5833     5.0802     0.2026     -0.0655    49.3385    89.6742    90.4258    85.5301    0.0542     37.5158    8.8945     9130.8242  0.0177     0.0104     0.4800     0.2650     0.2728     2.7581     2.7581     0.2026     0.8346     0.0130     0.0867     3794.9048  0.8435     0.8273     3579.3982  1.1000     45538.8594 8.6831     7.9252    
4244.5000  8.5000     4.6279     4.6279     5.1939     0.1932     -0.0572    50.1032    89.1877    89.5936    84.3790    0.0611     38.3864    8.8945     8695.5078  0.0178     0.0105     0.4800     0.2488     0.2566     2.7444     2.7444     0.1932     0.4540     0.0184     0.0799     3577.4946  0.8207     0.8027     3483.0496  1.1000     42929.9375 8.7832     7.9112    
4245.0000  8.5000     4.5594     4.5594     5.1985     0.1858     -0.0425    51.0587    89.5331    89.7850    83.9669    0.0701     40.5609    8.8945     8121.0425  0.0183     0.0111     0.4800     0.2356     0.2436     2.7201     2.7201     0.1858     0.2810     0.0251     0.0799     3298.4761  0.8007     0.7808     3398.6563  1.1000     39581.7148 8.6779     7.6905    
4245.5000  8.5000     4.5603     4.5603     5.3723     0.1790     -0.0468    51.9518    89.6139    89.9193    82.7049    0.0890     39.3376    8.9580     8008.4736  0.0184     0.0116     0.4800     0.2189     0.2278     2.7271     2.7271     0.1790     0.3403     0.0315     0.0920     3167.8071  0.7855     0.7607     3334.4670  1.1000     38013.6875 8.8874     7.6219    
4246.0000  8.5000     4.5907     4.5907     5.5757     0.1725     -0.0596    52.4395    89.5082    90.1269    81.4969    0.1073     42.3037    8.9580     8211.5908  0.0181     0.0121     0.4800     0.2076     0.2173     2.7484     2.7484     0.1725     0.6888     0.0349     0.1021     3169.3638  0.7803     0.7506     3312.6975  1.1000     38032.3633 9.1995     7.6518    
4246.5000  8.5000     4.5335     4.5335     5.5326     0.1684     -0.0731    52.2432    90.4064    91.0914    82.1459    0.1102     46.5748    8.9474     8565.2988  0.0179     0.0125     0.4800     0.2165     0.2273     2.7707     2.7707     0.1684     0.7548     0.0335     0.1048     3293.2996  0.7969     0.7663     3383.7371  1.1000     39519.5977 9.1941     7.6336    
4247.0000  8.5000     4.5029     4.5029     5.3773     0.1646     -0.0805    51.5180    90.9312    91.5772    83.5047    0.0971     52.2431    8.9792     8839.6826  0.0180     0.0128     0.4800     0.2329     0.2439     2.7827     2.7827     0.1646     0.7079     0.0284     0.1034     3458.5088  0.8165     0.7889     3467.1165  1.1000     41502.1055 9.0243     7.6719    
4247.5000  8.5000     4.5061     4.5061     5.2969     0.1619     -0.0860    50.5390    91.1564    91.5861    84.2740    0.0878     55.0796    9.0003     9356.3779  0.0184     0.0131     0.4800     0.2482     0.2595     2.7919     2.7919     0.1619     0.4703     0.0215     0.1039     3707.4429  0.8386     0.8131     3561.4783  1.1000     44489.3164 8.9942     7.7801    
4248.0000  8.5000     4.5341     4.5341     5.2361     0.1597     -0.0900    50.1306    91.0256    91.3650    84.8618    0.0774     49.6688    8.9792     9428.1631  0.0188     0.0133     0.4800     0.2552     0.2657     2.7985     2.7985     0.1597     0.3721     0.0186     0.1034     3789.9092  0.8441     0.8213     3585.4038  1.1000     45478.9102 8.9278     7.8530    
4248.5000  8.5000     4.5930     4.5930     5.3075     0.1578     -0.0965    50.2208    90.6111    90.9522    84.4504    0.0778     41.5104    9.0003     9450.7734  0.0193     0.0134     0.4800     0.2513     0.2616     2.8092     2.8092     0.1578     0.3758     0.0192     0.0982     3797.0637  0.8395     0.8165     3566.1724  1.1000     45564.7617 9.0443     7.9451    
4249.0000  8.5000     4.6397     4.6397     5.3401     0.1557     -0.0931    49.9083    90.0860    90.3818    84.1081    0.0755     35.3235    9.0003     9589.2871  0.0198     0.0134     0.4800     0.2522     0.2622     2.8036     2.8036     0.1557     0.3278     0.0170     0.1004     3865.1641  0.8412     0.8186     3573.7290  1.1000     46381.9688 9.1210     8.0414    
4249.5000  8.5000     4.6441     4.6441     5.4188     0.1539     -0.0830    49.3682    89.7407    90.1064    83.2472    0.0834     36.1398    9.0003     10106.8008 0.0202     0.0134     0.4800     0.2540     0.2652     2.7870     2.7870     0.1539     0.4066     0.0132     0.0996     4028.8733  0.8525     0.8274     3622.0649  1.1000     48346.4805 9.3038     8.1096    
4250.0000  8.5000     4.6140     4.6140     5.4321     0.1516     -0.0777    48.6704    89.9660    90.1807    83.0139    0.0887     41.3655    8.9792     10747.4326 0.0207     0.0136     0.4800     0.2611     0.2738     2.7782     2.7782     0.1516     0.2384     0.0083     0.1098     4253.3862  0.8709     0.8440     3700.6829  1.1000     51040.6367 9.3982     8.1430    
4250.5000  8.5000     4.4997     4.4997     5.3482     0.1503     -0.0661    48.2329    90.6893    91.1034    83.3738    0.0943     49.1420    9.0003     11093.6660 0.0208     0.0139     0.4800     0.2688     0.2831     2.7590     2.7590     0.1503     0.4557     0.0052     0.1148     4356.8149  0.8870     0.8585     3769.5886  1.1000     52281.7813 9.2880     7.9987    
