~Version
 VERS              .         2.0                           : CWLS LOG ASCII STANDARD - VERSION 2.0
 WRAP              .         NO                            : ONE LINE PER DEPTH STEP
 DLM               .         SPACE                         : DELIMITING CHARACTER(SPACE TAB OR COMMA)
~Well Information
#_______________________________________________________________________________
#
#PARAMETER_NAME    .UNIT     VALUE                         : DESCRIPTION
#_______________________________________________________________________________
STRT               .ft       1050.0000                     : First reference value
STOP               .ft       5850.0000                     : Last reference value
STEP               .ft       0.5000                        : Step increment
NULL               .         -999.25                       : Missing value
COMP               .         PRAIRIE STATE GENERATING CO, LLC: Company
WELL               .         LIVELY GROVE #1               : Well name
FLD                .         N/A                           : Field
LOC                .                                       : Location
CNTY               .         WASHINGTON                    : County
STAT               .         ILLINOIS                      : State
CTRY               .                                       : Country
SRVC               .         Schlumberger                  : Service Company
DATE               .         12-Aug-2021                   : Date
UWI                .                                       : Unique Well ID
APD                .ft       16                            : Elevation of Depth Reference (LMF) Above Permanent Datum
API                .         12-189-24947-00               : 
BHS                .         OPEN                          : Borehole Status (Open or Cased Hole)
BHT                .degF     115                           : Bottom Hole Temperature
BLI                .ft       5885.95                       : Bottom Log Interval
BS                 .in       8.5                           : Bit Size
CBDR               .ft       1049                          : Casing Bottom of Driller
CBLO               .ft       1049                          : Logger Casing Shoe Depth
CSIZ               .in       9.625                         : Current Casing Size
CWEI               .lbm/ft   36                            : Casing Weight
DCS                .         11-Aug-2021                   : Date Circulation Stopped
DFD                .lbm/gal  9.35                          : Drilling Fluid Density
DFT                .         FRESH WBM                     : Drilling Fluid Type
DLAB               .         12-Aug-2021                   : Date Logger At Bottom
EDF                .ft       477                           : Elevation of Drill Floor
EGL                .ft       461                           : Elevation of Ground Level
EKB                .ft       477                           : Elevation of Kelly Bushing
EPD                .ft       461                           : Elevation of Permanent Datum (PDAT) above Mean Sea Level
LMF                .         KB                            : Logging Measured From (Name of Logging Elevation Reference)
LUL                .         BRADFORD, PA                  : Logging Unit Location
LUN                .         OSLC 2266                     : Logging Unit Number
LATI               .dega     0.00000000                    : Latitude
LONG               .         -89.644768 degrees            : Longitude
MCST               .degF     81.9                          : Mudcake Sample Temperature
MFST               .degF     81.9                          : Mud Filtrate Sample Temperature
MRT                .degF     115                           : Maximum Recorded Temperature
MST                .degF     81.9                          : Mud Sample Temperature
ORIGINALWELLNAME   .         LIVELY GROVE #1               : 
PDAT               .         GL                            : Permanent Datum
PRODUCER-CODE      .         440                           : 
PRODUCER-NAME      .         Schlumberger                  : 
RMB                .ohm.m    0.9233273                     : Resistivity of Mud at Bottom Hole Temperature
RMCS               .ohm.m    1.44                          : Resistivity of Mud Cake Sample
RMFS               .ohm.m    1.033                         : Resistivity of Mud Filtrate Sample
RMS                .ohm.m    1.268                         : Resistivity of Mud Sample
RUN                .         RUN 1B                        : Run Number
TCS                .         17_00_00                      : Time Circulation Stopped
TDD                .ft       5888                          : Driller Total Depth
TDL                .ft       5888.35                       : Logger Total Depth
TLAB               .         07_19_00                      : Time Logger At Bottom
TLI                .ft       1049                          : Top Log Interval
~Parameter Information Block
#_______________________________________________________________________________
#
#PARAMETER_NAME    .UNIT     VALUE                         : DESCRIPTION
#_______________________________________________________________________________
SET                .         0_CP_MP_Delivered             : 
TLFamily_BS        .         Bit Size                      : 
TLFamily_C44       .         Elastic Modulus               : 
TLFamily_C55       .         Elastic Modulus               : 
TLFamily_C66       .         Elastic Modulus               : 
TLFamily_DEVIM     .         Hole Deviation                : 
TLFamily_DPHZ      .         Density Porosity              : 
TLFamily_DTCO_MF_DDBHC .     Compressional Slowness        : 
TLFamily_DTSH_FAST_DDBHC .   Fast Shear Slowness           : 
TLFamily_DTSH_SLOW_DDBHC .   Slow Shear Slowness           : 
TLFamily_DTSH_STRVP .        Stoneley Shear Slowness       : 
TLFamily_GAMMA     .         Regularization Factor         : 
TLFamily_GR_EDTC   .         Gamma Ray                     : 
TLFamily_HCAL      .         Caliper                       : 
TLFamily_ISHE      .         Shear Strength                : 
TLFamily_MAXXENE_OVERALL .   Acoustic Energy               : 
TLFamily_MD        .         Measured Depth                : 
TLFamily_MINXENE_OVERALL .   Acoustic Energy               : 
TLFamily_PPGI      .         Pore Pressure Gradient        : 
TLFamily_PR_HH     .         Poisson Ratio (Dynamic)       : 
TLFamily_PR_VH     .         Poisson Ratio (Dynamic)       : 
TLFamily_RHOZ      .         Bulk Density                  : 
TLFamily_RHOZ_EDT  .         Bulk Density                  : 
TLFamily_SDEVM     .         Sonde Deviation               : 
TLFamily_SLOANI    .         Acoustic Anisotropy           : 
TLFamily_SPHI      .         Total Porosity                : 
TLFamily_TNPH      .         Thermal Neutron Porosity      : 
TLFamily_TSTR      .         Tensile Strength              : 
TLFamily_TXSG_ANISO .        Minimum Horizontal Stress Gradient: 
TLFamily_TXSG_ISO  .         Minimum Horizontal Stress Gradient: 
TLFamily_TXSP_ANISO .         Minimum Horizontal Stress     : 
TLFamily_TZSG      .         Vertical Stress Gradient      : 
TLFamily_UCS       .         Compressive Strength          : 
TLFamily_YME_H_STA .         Young's Modulus (Dynamic)     : 
TLFamily_YME_V_STA .         Young's Modulus (Dynamic)     : 
~Curve Information
#_______________________________________________________________________________
#
#LOGNAME           .UNIT     LOG_ID                        : DESCRIPTION
#_______________________________________________________________________________
MD                 .ft                                     : Measured Depth 
BS                 .in                                     : Bit Size 
C44                .Mpsi                                   : C44 Modulus 
C55                .Mpsi                                   : C55 Modulus 
C66                .Mpsi                                   : C66 Modulus 
DEVIM              .deg                                    : Memorized Deviation 
DPHZ               .ft3/ft3                                : Standard Resolution Density Porosity (F11 
DTCO_MF_DDBHC      .us/ft                                  : Compressional slowness 
DTSH_FAST_DDBHC    .us/ft                                  : Fast Shear slowness 
DTSH_SLOW_DDBHC    .us/ft                                  : Slow Shear slowness 
DTSH_STRVP         .us/ft                                  : Horizontal Shear
GAMMA              .unitless                               : Thomsens Anisotropy Parameter Gamma 
GR_EDTC            .gAPI                                   : Gamma Ray 
HCAL               .IN                                     : HRCC Caliper Calibrated (F11 
ISHE               .psi                                    : Cohesive Strength 
MAXXENE_OVERALL    .unitless                               : Maximum cross energy - overall 
MINXENE_OVERALL    .unitless                               : Minimum cross energy - overall 
PPGI               .psi/ft                                 : Pore Pressure Gradient 
PR_HH              .unitless                               : Poissons Ratio - Loading Horizontal - Displacement Horizontal 
PR_VH              .unitless                               : Poissons Ratio - Loading Vertical - Displacement Horizontal 
RHOZ               .g/cm3                                  : Standard Resolution Formation Density 
RHOZ_EDT           .g/cm3                                  : Standard Resolution Formation Density 
SDEVM              .deg                                    : Memorized Sonde Deviation 
SLOANI             .%                                      : Slowness-Based Anisotropy 
SPHI               .ft3/ft3                                : Total porosity from Sonic 
TNPH               .ft3/ft3                                : Thermal Neutron Porosity (Ratio Method) in Selected Lithology (F11 
TSTR               .psi                                    : Tensile Strength 
TXSG_ANISO         .psi/ft                                 : Anisotropic Minimum Horizontal Stress Gradient 
TXSG_ISO           .psi/ft                                 : Isotropic Minimum Horizontal Stress Gradient 
TXSP_ANISO         .psi                                    : Anisotropic Minimum Horizontal Stress 
TZSG               .psi/ft                                 : Overburden Stress Gradient 
UCS                .psi                                    : Unconfined Compressive Strength 
YME_H_STA          .Mpsi                                   : Static Horizontal Youngs Modulus 
YME_V_STA          .Mpsi                                   : Static Vertical Youngs Modulus 
~Ascii
# ...
2326.0000  8.5000     2.7403     2.7403     3.2077     1.5315     -0.0050    61.1690    114.1017   114.5567   105.6702   0.0853     31.7767    8.7886     4004.3035  0.0254     0.0106     0.4800     0.2675     0.2803     2.6582     2.6582     1.5315     0.3980     0.0966     0.1179     1548.9009  0.8734     0.8480     2031.2535  1.1000     18586.8105 4.9272     4.2958    
2326.5000  8.5000     2.6833     2.6833     3.1140     1.5309     0.0025     60.8766    115.0108   115.5236   106.9993   0.0802     33.4793    8.7780     3960.9048  0.0258     0.0110     0.4800     0.2759     0.2887     2.6458     2.6458     1.5309     0.4448     0.0945     0.1192     1545.9451  0.8813     0.8576     2050.1804  1.1000     18551.3398 4.7885     4.2125    
2327.0000  8.5000     2.6209     2.6209     3.0228     1.5305     0.0056     61.2040    116.2368   116.7985   108.4949   0.0767     34.1256    8.7780     3830.0486  0.0258     0.0113     0.4800     0.2798     0.2924     2.6407     2.6407     1.5305     0.4821     0.0968     0.1243     1496.3947  0.8810     0.8586     2049.8359  1.1000     17956.7344 4.6334     4.1000    
2327.5000  8.5000     2.5815     2.5815     2.9767     1.5297     0.0019     62.6918    117.2257   117.8541   109.4589   0.0765     33.7074    8.8310     3567.7822  0.0257     0.0115     0.4800     0.2721     0.2839     2.6468     2.6468     1.5297     0.5346     0.1074     0.1288     1373.5656  0.8617     0.8399     2005.3507  1.1000     16482.7871 4.5119     3.9872    
2328.0000  8.5000     2.5142     2.5142     2.9491     1.5289     -0.0020    64.3650    119.0218   119.4732   110.1039   0.0865     33.8528    8.8310     3375.9270  0.0259     0.0116     0.4800     0.2624     0.2749     2.6533     2.6533     1.5289     0.3785     0.1192     0.1436     1264.2025  0.8464     0.8226     1970.0774  1.1000     15170.4297 4.4183     3.8412    
2328.5000  8.5000     2.4336     2.4336     2.9215     1.5282     -0.0027    65.3862    121.0500   121.4166   110.6481   0.1002     34.3700    8.8521     3312.8201  0.0257     0.0121     0.4800     0.2584     0.2725     2.6545     2.6545     1.5282     0.3024     0.1264     0.1473     1210.2589  0.8446     0.8179     1966.4780  1.1000     14523.1074 4.3498     3.7055    
2329.0000  8.5000     2.4117     2.4117     2.9648     1.5276     -0.0060    65.7389    121.6990   122.1158   109.9491   0.1147     36.5803    8.8521     3381.0044  0.0260     0.0128     0.4800     0.2539     0.2696     2.6599     2.6599     1.5276     0.3419     0.1289     0.1459     1212.3788  0.8468     0.8165     1972.0166  1.1000     14548.5449 4.4104     3.6791    
2329.5000  8.5000     2.4051     2.4051     2.9693     1.5267     -0.0076    65.9799    121.8980   122.3691   109.9205   0.1173     38.9308    8.8733     3367.9951  0.0265     0.0134     0.4800     0.2522     0.2680     2.6625     2.6625     1.5267     0.3858     0.1306     0.1453     1201.8696  0.8450     0.8141     1968.1744  1.1000     14422.4355 4.4110     3.6648    
2330.0000  8.5000     2.4123     2.4123     2.9874     1.5254     -0.0122    66.2290    121.7526   122.5009   109.7435   0.1192     41.7658    8.8521     3362.3604  0.0267     0.0137     0.4800     0.2496     0.2653     2.6701     2.6701     1.5254     0.6127     0.1324     0.1437     1194.8724  0.8418     0.8105     1961.2327  1.1000     14338.4697 4.4328     3.6705    
2330.5000  8.5000     2.4305     2.4305     2.9741     1.5236     -0.0103    66.1567    121.2312   121.9632   109.9232   0.1118     43.5205    8.8521     3311.4304  0.0269     0.0138     0.4800     0.2500     0.2649     2.6670     2.6670     1.5236     0.6020     0.1318     0.1468     1186.6243  0.8377     0.8082     1952.1047  1.1000     14239.4912 4.4105     3.6892    
2331.0000  8.5000     2.4575     2.4575     2.9949     1.5222     -0.0058    66.0958    120.4238   121.0920   109.3884   0.1093     42.4963    8.8521     3288.0439  0.0276     0.0141     0.4800     0.2475     0.2617     2.6596     2.6596     1.5222     0.5534     0.1314     0.1472     1181.9960  0.8325     0.8035     1940.2249  1.1000     14183.9512 4.4376     3.7219    
2331.5000  8.5000     2.5045     2.5045     3.0080     1.5199     0.0070     65.7791    118.8227   119.4667   108.7166   0.1005     42.7877    8.8733     3225.1191  0.0282     0.0143     0.4800     0.2453     0.2580     2.6385     2.6385     1.5199     0.5405     0.1292     0.1437     1173.6884  0.8239     0.7971     1920.6892  1.1000     14084.2607 4.4519     3.7781    
2332.0000  8.5000     2.5478     2.5478     3.0401     1.5182     0.0104     65.0180    117.6379   118.3685   108.0245   0.0966     41.4590    8.8733     3308.6267  0.0287     0.0144     0.4800     0.2477     0.2601     2.6328     2.6328     1.5182     0.6192     0.1238     0.1432     1217.6115  0.8284     0.8022     1931.5363  1.1000     14611.3369 4.5215     3.8608    
2332.5000  8.5000     2.5682     2.5682     3.0287     1.5157     0.0118     64.1178    117.0547   117.9098   108.1798   0.0897     39.2149    8.8733     3398.0146  0.0296     0.0145     0.4800     0.2553     0.2675     2.6305     2.6305     1.5157     0.7278     0.1174     0.1371     1270.8729  0.8388     0.8140     1956.2025  1.1000     15250.4746 4.5345     3.9179    
2333.0000  8.5000     2.5594     2.5594     2.9870     1.5124     0.0114     63.5621    117.3640   118.0294   108.9462   0.0835     36.6648    8.8733     3438.9609  0.0304     0.0146     0.4800     0.2631     0.2752     2.6311     2.6311     1.5124     0.5654     0.1135     0.1339     1302.1041  0.8481     0.8248     1978.3170  1.1000     15625.2500 4.4916     3.9221    
2333.5000  8.5000     2.5216     2.5216     2.9219     1.5092     0.0206     63.7338    117.9744   118.4932   109.8346   0.0794     35.3310    8.8945     3331.6782  0.0310     0.0146     0.4800     0.2655     0.2772     2.6160     2.6160     1.5092     0.4388     0.1147     0.1371     1265.4392  0.8461     0.8242     1974.0459  1.1000     15185.2705 4.3812     3.8506    
2334.0000  8.5000     2.5164     2.5164     2.9065     1.5055     0.0272     64.1568    117.7570   118.4642   109.8987   0.0775     35.9074    8.8945     3222.1470  0.0320     0.0143     0.4800     0.2619     0.2730     2.6052     2.6052     1.5055     0.5988     0.1177     0.1394     1221.5110  0.8367     0.8156     1952.7389  1.1000     14658.1318 4.3373     3.8198    
2334.5000  8.5000     2.4858     2.4858     2.8667     1.5022     0.0232     64.1559    118.6895   119.2792   110.7953   0.0766     35.4159    8.8945     3224.9050  0.0321     0.0140     0.4800     0.2663     0.2776     2.6117     2.6117     1.5022     0.4956     0.1177     0.1414     1223.7920  0.8422     0.8214     1965.9830  1.1000     14685.5039 4.2822     3.7793    
2335.0000  8.5000     2.4496     2.4496     2.8238     1.4989     0.0163     64.0098    119.8015   120.4408   111.8777   0.0764     35.3132    8.8627     3263.7683  0.0317     0.0139     0.4800     0.2726     0.2845     2.6231     2.6231     1.4989     0.5322     0.1167     0.1475     1240.6461  0.8520     0.8311     1989.1079  1.1000     14887.7539 4.2291     3.7385    
2335.5000  8.5000     2.4636     2.4636     2.8672     1.4955     0.0049     64.0763    119.8197   120.5969   111.4261   0.0819     35.7937    8.8733     3346.1028  0.0315     0.0140     0.4800     0.2706     0.2831     2.6419     2.6419     1.4955     0.6465     0.1171     0.1454     1263.0634  0.8542     0.8318     1994.6451  1.1000     15156.7607 4.3010     3.7705    
2336.0000  8.5000     2.4786     2.4786     2.8927     1.4930     0.0090     64.6468    119.4131   119.9673   110.7914   0.0835     35.2290    8.8310     3257.5134  0.0312     0.0144     0.4800     0.2630     0.2751     2.6352     2.6352     1.4930     0.4631     0.1212     0.1385     1220.6844  0.8416     0.8190     1965.7549  1.1000     14648.2129 4.3166     3.7692    
2336.5000  8.5000     2.5595     2.5595     2.9968     1.4898     0.0174     64.6357    117.2776   117.6686   108.5632   0.0854     35.4839    8.8521     3253.7639  0.0305     0.0153     0.4800     0.2520     0.2634     2.6213     2.6213     1.4898     0.3328     0.1211     0.1397     1216.7903  0.8276     0.8042     1933.3566  1.1000     14601.4824 4.4611     3.8753    
