~Version
 VERS              .         2.0                           : CWLS LOG ASCII STANDARD - VERSION 2.0
 WRAP              .         NO                            : ONE LINE PER DEPTH STEP
 DLM               .         SPACE                         : DELIMITING CHARACTER(SPACE TAB OR COMMA)
~Well Information
#_______________________________________________________________________________
#
#PARAMETER_NAME    .UNIT     VALUE                         : DESCRIPTION
#_______________________________________________________________________________
STRT               .ft       1049.0000                     : First reference value
STOP               .ft       5858.0000                     : Last reference value
STEP               .ft       0.5000                        : Step increment
NULL               .         -999.25                       : Missing value
COMP               .         PRAIRIE STATE GENERATING CO, LLC: Company
WELL               .         LIVELY GROVE #1               : Well name
FLD                .         N/A                           : Field
LOC                .                                       : Location
CNTY               .         WASHINGTON                    : County
STAT               .         ILLINOIS                      : State
CTRY               .         USA                           : Country
SRVC               .         Schlumberger                  : Service Company
DATE               .         13-Aug-2021                   : Date
UWI                .                                       : Unique Well ID
APD                .ft       16                            : Elevation of Depth Reference (LMF) Above Permanent Datum
API                .         12-189-24947-00               : 
BHS                .         OPEN                          : Borehole Status (Open or Cased Hole)
BHT                .degF     115                           : Bottom Hole Temperature
BLI                .ft       5888                          : Bottom Log Interval
BS                 .in       8.5                           : Bit Size
CBDR               .ft       1049                          : Casing Bottom of Driller
CBLO               .ft       1049                          : Logger Casing Shoe Depth
CSIZ               .in       9.625                         : Current Casing Size
CWEI               .lbm/ft   36                            : Casing Weight
DCS                .         11-Aug-2021                   : Date Circulation Stopped
DFD                .lbm/gal  9.35                          : Drilling Fluid Density
DFT                .         FRESH WBM                     : Drilling Fluid Type
DLAB               .         12-Aug-2021                   : Date Logger At Bottom
EDF                .ft       477                           : Elevation of Drill Floor
EGL                .ft       461                           : Elevation of Ground Level
EKB                .ft       477                           : Elevation of Kelly Bushing
EPD                .ft       461                           : Elevation of Permanent Datum (PDAT) above Mean Sea Level
LMF                .         KB                            : Logging Measured From (Name of Logging Elevation Reference)
LUL                .         BRADFORD, PA                  : Logging Unit Location
LUN                .         OSLC 2266                     : Logging Unit Number
LATI               .         38.352151 degrees             : Latitude
LONG               .         -89.644768 degrees            : Longitude
MCST               .degF     81.9                          : Mudcake Sample Temperature
MFST               .degF     81.9                          : Mud Filtrate Sample Temperature
MRT                .degF     115                           : Maximum Recorded Temperature
MST                .degF     81.9                          : Mud Sample Temperature
ORIGINALWELLNAME   .         LIVELY GROVE #1               : 
PDAT               .         GL                            : Permanent Datum
PRODUCER-CODE      .         440                           : 
PRODUCER-NAME      .         Schlumberger                  : 
RMB                .ohm.m    0.9233273                     : Resistivity of Mud at Bottom Hole Temperature
RMCS               .ohm.m    1.44                          : Resistivity of Mud Cake Sample
RMFS               .ohm.m    1.033                         : Resistivity of Mud Filtrate Sample
RMS                .ohm.m    1.268                         : Resistivity of Mud Sample
RUN                .         RUN 1D                        : Run Number
TCS                .         13_00_00                      : Time Circulation Stopped
TDD                .ft       5888.35                       : Driller Total Depth
TDL                .ft       5888.35                       : Logger Total Depth
TLAB               .         17_08_00                      : Time Logger At Bottom
TLI                .ft       1049                          : Top Log Interval
~Parameter Information Block
#_______________________________________________________________________________
#
#PARAMETER_NAME    .UNIT     VALUE                         : DESCRIPTION
#_______________________________________________________________________________
SET                .         0_PnS_Aniso                   : 
TLFamily_BS        .         Bit Size                      : 
TLFamily_DEVIM     .         Hole Deviation                : 
TLFamily_DPHZ      .         Density Porosity              : 
TLFamily_DTCO_MF_DDBHC .         Compressional Slowness        : 
TLFamily_DTCO_MF_R .         Compressional Slowness        : 
TLFamily_DTCO_MF_T .         Compressional Slowness        : 
TLFamily_DTSH_FAST_DDBHC .         Fast Shear Slowness           : 
TLFamily_DTSH_FAST_R .         Fast Shear Slowness           : 
TLFamily_DTSH_FAST_T .         Fast Shear Slowness           : 
TLFamily_DTSH_SLOW_DDBHC .         Slow Shear Slowness           : 
TLFamily_DTSH_SLOW_R .         Slow Shear Slowness           : 
TLFamily_DTSH_SLOW_T .         Slow Shear Slowness           : 
TLFamily_FSA_NAZ   .         Fast Shear Azimuth            : 
TLFamily_FSA_NAZ_ERR .         Fast Shear Azimuth            : 
TLFamily_FSA_NAZ_ERRMINUS .         Fast Shear Azimuth            : 
TLFamily_FSA_NAZ_ERRPLUS .         Fast Shear Azimuth            : 
TLFamily_FSA_NAZ_IN .         Fast Shear Azimuth            : 
TLFamily_GR_EDTC   .         Gamma Ray                     : 
TLFamily_HAZIM     .         Hole Azimuth                  : 
TLFamily_HDAR      .         Borehole Diameter             : 
TLFamily_MAXXENE_OVERALL .         Acoustic Energy               : 
TLFamily_MD        .         Measured Depth                : 
TLFamily_MINXENE_OVERALL .         Acoustic Energy               : 
TLFamily_P1NO_MAST .         Pad A North                   : 
TLFamily_PEFZ      .         Photoelectric Factor          : 
TLFamily_PR_FAST   .         Poisson Ratio (Dynamic)       : 
TLFamily_SDEVM     .         Sonde Deviation               : 
TLFamily_SENSOR_AZIM_QCI .         Sensor Azimuth                : 
TLFamily_SLOANI    .         Acoustic Anisotropy           : 
TLFamily_SPHI      .         Total Porosity                : 
TLFamily_TDIF_ALT_OVERALL .         Time Interval                 : 
TLFamily_TDIF_ORG_OVERALL .         Time Interval                 : 
TLFamily_TENS      .         Tension                       : 
TLFamily_TIMANI    .         Acoustic Anisotropy           : 
TLFamily_TNPH      .         Thermal Neutron Porosity      : 
TLFamily_TW_B_L6   .         Travel Time                   : 
TLFamily_TW_E_L6   .         Travel Time                   : 
TLFamily_VPVS_FAST .         VpVs (Compressional To Shear) Ratio: 
TLFamily_XENEDIF   .         Acoustic Energy               : 
~Curve Information
#_______________________________________________________________________________
#
#LOGNAME           .UNIT     LOG_ID                        : DESCRIPTION
#_______________________________________________________________________________
MD                 .ft                                     : Measured Depth
BS                 .in                                     : Bit Size 
DEVIM              .deg                                    : Memorized Deviation 
DPHZ               .ft3/ft3                                : Standard Resolution Density Porosity <_techsia_lb_>F11 
DTCO_MF_DDBHC      .us/ft                                  : Compressional slowness 
DTCO_MF_R          .us/ft                                  : Compressional slowness 
DTCO_MF_T          .us/ft                                  : Compressional slowness 
DTSH_FAST_DDBHC    .us/ft                                  : Shear slowness 
DTSH_FAST_R        .us/ft                                  : Shear slowness 
DTSH_FAST_T        .us/ft                                  : Shear slowness 
DTSH_SLOW_DDBHC    .us/ft                                  : Shear slowness 
DTSH_SLOW_R        .us/ft                                  : Shear slowness 
DTSH_SLOW_T        .us/ft                                  : Shear slowness 
FSA_NAZ            .deg                                    : Fast shear azimuth(NAZ REF90) - overall - swapped 
FSA_NAZ_ERR        .deg                                    : Fast shear azimuth error, reference frame NAZ 
FSA_NAZ_ERRMINUS   .deg                                    : Fast shear azimuth error minus(NAZ REF90) - swapped 
FSA_NAZ_ERRPLUS    .deg                                    : Fast shear azimuth error plus(NAZ REF90) - swapped 
FSA_NAZ_IN         .deg                                    : Fast Shear Azimuth Indicator 
GR_EDTC            .gAPI                                   : Gamma Ray 
HAZIM              .deg                                    : Memorized Hole Azimuth 
HDAR               .in                                     : Hole Diameter from Area 
MAXXENE_OVERALL    .unitless                               : Maximum cross energy - overall 
MINXENE_OVERALL    .unitless                               : Minimum cross energy - overall 
P1NO_MAST          .deg                                    : Pad 1 Azimuth in Plane Orthogonal to Tool Axis (0 = True North), memorized to MAST 
PEFZ               .                                       : Standard Resolution Formation Photoelectric Factor <_techsia_lb_>F11 
PR_FAST            .unitless                               : Possion's Ratio 
SDEVM              .deg                                    : Memorized Sonde Deviation 
SENSOR_AZIM_QCI    .deg                                    : Tool azimuth for input QC 
SLOANI             .%                                      : Slowness-Based Anisotropy 
SPHI               .ft3/ft3                                : Total porosity from Sonic 
TDIF_ALT_OVERALL   .s                                      : Arrival time difference between fast and slow waves(alternate) - overall - swapped 
TDIF_ORG_OVERALL   .s                                      : Arrival time difference between fast and slow waves(original) - overall - swapped 
TENS               .lbf                                    : Cable Tension 
TIMANI             .%                                      : Time-Based Anisotropy 
TNPH               .ft3/ft3                                : Thermal Neutron Porosity (Ratio Method) in Selected Lithology <_techsia_lb_>F11 
TW_B_L6            .us                                     : Time window begin - packed 
TW_E_L6            .us                                     : Time window end - packed 
VPVS_FAST          .unitless                               : VpVs Ratio 
XENEDIF            .unitless                               : Energy-Based Anisotropy 
~Ascii
# ...
5523.5000  8.5000     1.1564     -0.0789    47.7286    50.1506    45.3066    84.3059    81.2089    87.4030    84.7841    81.8023    87.7660    116.2633   21.4277    94.8311    137.6946   -999.2500  8.3029     292.5083   8.3878     0.0672     0.0582     220.4804   3.2428     0.2642     1.1564     226.4309   0.5656     0.0016     -0.0004    -0.0000    3016.0000  -0.0001    0.1145     1628.9567  4628.9570  1.7664     0.9005    
5524.0000  8.5000     1.1486     -0.0881    47.7497    50.2814    45.2181    85.1345    77.8751    92.3938    85.5505    78.5595    92.5414    105.5143   21.4278    84.0865    126.9421   -999.2500  10.5826    292.4300   8.3903     0.0665     0.0558     220.8677   3.2488     0.2705     1.1486     226.1662   0.4875     0.0018     -0.0004    0.0000     3014.0715  0.6382     0.1123     1634.8463  4634.8462  1.7829     1.0718    
5524.5000  8.5000     1.1415     -0.0944    47.0363    48.9425    45.1301    87.3998    79.3475    95.4522    87.7680    79.7544    95.7816    109.9098   20.9827    88.9273    130.8923   -999.2500  13.3550    292.2921   8.3903     0.0612     0.0497     220.4500   3.2268     0.2961     1.1415     225.9849   0.4203     0.0000     -0.0004    0.0000     3012.5000  0.5601     0.1051     1640.3558  4640.3560  1.8581     1.1494    
5525.0000  8.5000     1.1378     -0.0947    45.9778    46.9031    45.0524    91.1967    84.9616    97.4319    91.6088    85.1468    98.0707    113.0766   19.9676    93.1093    133.0440   -999.2500  15.5761    292.0955   8.3951     0.0573     0.0428     219.9708   3.1284     0.3296     1.1378     225.2408   0.4508     0.0000     -0.0004    0.0000     3015.6167  0.4727     0.0983     1644.0540  4644.0537  1.9835     1.4430    
5525.5000  8.5000     1.1329     -0.0564    46.1470    45.4727    46.8212    95.3233    91.8400    98.8065    95.7628    92.0991    99.4264    114.4047   19.8564    94.5483    134.2610   -999.2500  16.4910    291.9429   8.3957     0.0555     0.0404     219.3817   3.0065     0.3469     1.1329     224.6785   0.4600     0.0000     -0.0004    0.0000     3012.4023  0.4544     0.1036     1646.0573  4646.0571  2.0656     1.5105    
5526.0000  8.5000     1.1278     0.0490     48.2818    46.1336    50.4301    97.8299    97.3719    98.2880    98.2631    97.5903    98.9359    113.7649   20.0152    93.7498    133.7801   -999.2500  16.4291    291.7684   8.3552     0.0553     0.0399     218.6055   2.8959     0.3390     1.1278     223.9552   0.4418     0.0055     -0.0004    0.0000     3002.5891  0.5445     0.1210     1648.5156  4648.5156  2.0262     1.5425    
5526.5000  8.5000     1.1236     0.1651     51.3368    49.4051    53.2686    99.5214    101.4020   97.6408    100.0156   101.6870   98.3443    112.2258   18.9784    93.2474    131.2041   -999.2500  16.2715    291.5469   8.3498     0.0558     0.0392     217.6267   2.8188     0.3187     1.1236     223.7500   0.4954     0.0271     -0.0004    0.0000     2969.6968  0.6990     0.1489     1652.2322  4652.2319  1.9386     1.6629    
5527.0000  8.5000     1.1201     0.1816     53.3371    52.9974    53.6767    99.6003    103.7656   95.4350    100.2139   104.4443   95.9836    110.6514   17.4286    93.2228    128.0801   -999.2500  17.7281    291.3563   8.5725     0.0561     0.0381     216.8710   2.7790     0.2990     1.1201     223.8254   0.6142     0.0413     -0.0004    0.0000     3054.2383  0.8501     0.1643     1656.6736  4656.6733  1.8674     1.7991    
5527.5000  8.5000     1.1167     0.0811     55.1004    55.9448    54.2559    97.6722    103.8783   91.4662    98.3533    104.8037   91.9029    109.3768   16.4766    92.9002    125.8534   -999.2500  22.5771    291.1847   8.5665     0.0564     0.0373     216.2120   2.8722     0.2666     1.1167     222.8096   0.6949     0.0537     -0.0004    0.0000     3098.0000  0.9825     0.1671     1660.2386  4660.2388  1.7726     1.9099    
5528.0000  8.5000     1.1130     -0.0291    56.0867    57.4846    54.6889    95.6410    101.6983   89.5836    96.2596    102.4314   90.0877    107.8923   15.7076    92.1847    123.6001   -999.2500  28.3992    290.9923   8.5666     0.0572     0.0364     215.3214   3.0506     0.2379     1.1130     220.8747   0.6447     0.0607     -0.0004    0.0000     3037.5239  1.1149     0.1579     1661.6658  4661.6655  1.7052     2.0854    
5528.5000  8.5000     1.1091     -0.0744    56.0359    57.6387    54.4331    94.7139    97.8574    91.5703    95.2196    98.3977    92.0414    105.5936   14.1887    91.4050    119.7826   -999.2500  31.1985    290.8168   8.5733     0.0574     0.0341     214.9079   3.2113     0.2307     1.1091     220.1908   0.5325     0.0603     -0.0004    0.0000     3019.6904  1.2764     0.1641     1661.0585  4661.0581  1.6902     2.3285    
5529.0000  8.5000     1.1051     -0.0576    55.4149    56.4771    54.3527    94.3447    94.0666    94.6228    94.8630    94.5550    95.1709    103.2591   12.5040    90.7551    115.7631   -999.2500  29.7819    290.6182   8.6336     0.0526     0.0294     215.7265   3.2119     0.2366     1.1051     220.9203   0.5478     0.0559     -0.0004    0.0000     3019.7144  1.3594     0.1691     1658.9364  4658.9360  1.7025     2.3192    
5529.5000  8.5000     1.1001     -0.0541    54.7669    54.9734    54.5604    94.8630    93.0953    96.6307    95.3927    93.4244    97.3611    100.4207   12.3857    88.0350    112.8064   -999.2500  26.0631    290.4413   8.7522     0.0429     0.0248     215.8118   3.1500     0.2500     1.1001     220.7978   0.5569     0.0514     -0.0004    0.0000     3019.0952  1.2843     0.1719     1656.5115  4656.5112  1.7321     1.8099    
5530.0000  8.5000     1.0942     -0.0252    54.2710    53.6674    54.8746    95.0540    92.8494    97.2586    95.4664    93.0732    97.8596    101.2409   13.0567    88.1842    114.2976   -999.2500  22.3963    290.2804   8.8739     0.0384     0.0249     215.4439   3.0944     0.2582     1.0942     220.7343   0.4329     0.0479     -0.0004    0.0000     3017.6670  1.1626     0.1649     1655.0499  4655.0498  1.7515     1.3479    
5530.5000  8.5000     1.0879     0.0011     53.9796    53.9809    53.9783    94.6984    93.0078    96.3891    94.9345    93.2409    96.6281    102.6001   13.8311    88.7690    116.4312   -999.2500  19.7204    290.1028   8.7788     0.0385     0.0253     214.3677   3.0768     0.2593     1.0879     220.5454   0.2490     0.0458     -0.0004    0.0000     3011.4287  1.1054     0.1726     1654.7919  4654.7920  1.7543     1.3224    
5531.0000  8.5000     1.0806     0.0193     53.3164    55.0320    51.6008    94.0743    95.5560    92.5926    94.5145    95.9638    93.0653    105.1832   13.3531    91.8302    118.5363   -999.2500  16.8371    289.9596   8.6839     0.0400     0.0252     213.5423   3.0617     0.2634     1.0806     220.1758   0.4669     0.0411     -0.0004    0.0000     2999.4287  1.0605     0.1854     1656.0203  4656.0205  1.7645     1.4855    
5531.5000  8.5000     1.0719     0.0059     51.2834    54.0274    48.5395    91.8480    96.2572    87.4387    92.1649    96.4215    87.9084    109.0899   13.6149    95.4750    122.7049   -999.2500  13.8281    289.8347   8.5844     0.0413     0.0255     213.5562   3.0216     0.2735     1.0719     220.4571   0.3445     0.0267     -0.0004    0.0000     3009.7856  1.0268     0.1810     1658.3777  4658.3774  1.7910     1.5824    
5532.0000  8.5000     1.0649     -0.0370    48.2179    51.7296    44.7062    88.5635    93.9131    83.2139    88.8690    94.1809    83.5573    112.0154   13.4107    98.6047    125.4260   -999.2500  10.7071    289.7391   8.5386     0.0428     0.0268     213.2088   3.0253     0.2893     1.0649     220.8080   0.3444     0.0051     -0.0004    0.0000     3029.0713  1.0015     0.1349     1661.5398  4661.5400  1.8367     1.6006    
5532.5000  8.5000     1.0574     -0.0670    45.4987    49.0598    41.9376    86.2756    90.8909    81.6603    86.8320    91.4649    82.1990    114.0530   14.2462    99.8068    128.2993   -999.2500  8.5313     289.6394   8.5659     0.0506     0.0337     212.9977   3.0818     0.3074     1.0574     220.5229   0.6428     0.0000     -0.0004    0.0000     3030.2673  0.7751     0.1085     1664.8938  4664.8940  1.8962     1.6939    
