~Version
 VERS              .         2.0                           : CWLS LOG ASCII STANDARD - VERSION 2.0
 WRAP              .         NO                            : ONE LINE PER DEPTH STEP
 DLM               .         SPACE                         : DELIMITING CHARACTER(SPACE TAB OR COMMA)
~Well Information
#_______________________________________________________________________________
#
#PARAMETER_NAME    .UNIT     VALUE                         : DESCRIPTION
#_______________________________________________________________________________
STRT               .ft       1050.0000                     : First reference value
STOP               .ft       5850.0000                     : Last reference value
STEP               .ft       0.5000                        : Step increment
NULL               .         -999.25                       : Missing value
COMP               .         PRAIRIE STATE GENERATING CO, LLC: Company
WELL               .         LIVELY GROVE #1               : Well name
FLD                .         N/A                           : Field
LOC                .                                       : Location
CNTY               .         WASHINGTON                    : County
STAT               .         ILLINOIS                      : State
CTRY               .                                       : Country
SRVC               .         Schlumberger                  : Service Company
DATE               .         12-Aug-2021                   : Date
UWI                .                                       : Unique Well ID
APD                .ft       16                            : Elevation of Depth Reference (LMF) Above Permanent Datum
API                .         12-189-24947-00               : 
BHS                .         OPEN                          : Borehole Status (Open or Cased Hole)
BHT                .degF     115                           : Bottom Hole Temperature
BLI                .ft       5885.95                       : Bottom Log Interval
BS                 .in       8.5                           : Bit Size
CBDR               .ft       1049                          : Casing Bottom of Driller
CBLO               .ft       1049                          : Logger Casing Shoe Depth
CSIZ               .in       9.625                         : Current Casing Size
CWEI               .lbm/ft   36                            : Casing Weight
DCS                .         11-Aug-2021                   : Date Circulation Stopped
DFD                .lbm/gal  9.35                          : Drilling Fluid Density
DFT                .         FRESH WBM                     : Drilling Fluid Type
DLAB               .         12-Aug-2021                   : Date Logger At Bottom
EDF                .ft       477                           : Elevation of Drill Floor
EGL                .ft       461                           : Elevation of Ground Level
EKB                .ft       477                           : Elevation of Kelly Bushing
EPD                .ft       461                           : Elevation of Permanent Datum (PDAT) above Mean Sea Level
LMF                .         KB                            : Logging Measured From (Name of Logging Elevation Reference)
LUL                .         BRADFORD, PA                  : Logging Unit Location
LUN                .         OSLC 2266                     : Logging Unit Number
LATI               .dega     0.00000000                    : Latitude
LONG               .         -89.644768 degrees            : Longitude
MCST               .degF     81.9                          : Mudcake Sample Temperature
MFST               .degF     81.9                          : Mud Filtrate Sample Temperature
MRT                .degF     115                           : Maximum Recorded Temperature
MST                .degF     81.9                          : Mud Sample Temperature
ORIGINALWELLNAME   .         LIVELY GROVE #1               : 
PDAT               .         GL                            : Permanent Datum
PRODUCER-CODE      .         440                           : 
PRODUCER-NAME      .         Schlumberger                  : 
RMB                .ohm.m    0.9233273                     : Resistivity of Mud at Bottom Hole Temperature
RMCS               .ohm.m    1.44                          : Resistivity of Mud Cake Sample
RMFS               .ohm.m    1.033                         : Resistivity of Mud Filtrate Sample
RMS                .ohm.m    1.268                         : Resistivity of Mud Sample
RUN                .         RUN 1B                        : Run Number
TCS                .         17_00_00                      : Time Circulation Stopped
TDD                .ft       5888                          : Driller Total Depth
TDL                .ft       5888.35                       : Logger Total Depth
TLAB               .         07_19_00                      : Time Logger At Bottom
TLI                .ft       1049                          : Top Log Interval
~Parameter Information Block
#_______________________________________________________________________________
#
#PARAMETER_NAME    .UNIT     VALUE                         : DESCRIPTION
#_______________________________________________________________________________
SET                .         0_CP_MP_Delivered             : 
TLFamily_BS        .         Bit Size                      : 
TLFamily_C44       .         Elastic Modulus               : 
TLFamily_C55       .         Elastic Modulus               : 
TLFamily_C66       .         Elastic Modulus               : 
TLFamily_DEVIM     .         Hole Deviation                : 
TLFamily_DPHZ      .         Density Porosity              : 
TLFamily_DTCO_MF_DDBHC .     Compressional Slowness        : 
TLFamily_DTSH_FAST_DDBHC .   Fast Shear Slowness           : 
TLFamily_DTSH_SLOW_DDBHC .   Slow Shear Slowness           : 
TLFamily_DTSH_STRVP .        Stoneley Shear Slowness       : 
TLFamily_GAMMA     .         Regularization Factor         : 
TLFamily_GR_EDTC   .         Gamma Ray                     : 
TLFamily_HCAL      .         Caliper                       : 
TLFamily_ISHE      .         Shear Strength                : 
TLFamily_MAXXENE_OVERALL .   Acoustic Energy               : 
TLFamily_MD        .         Measured Depth                : 
TLFamily_MINXENE_OVERALL .   Acoustic Energy               : 
TLFamily_PPGI      .         Pore Pressure Gradient        : 
TLFamily_PR_HH     .         Poisson Ratio (Dynamic)       : 
TLFamily_PR_VH     .         Poisson Ratio (Dynamic)       : 
TLFamily_RHOZ      .         Bulk Density                  : 
TLFamily_RHOZ_EDT  .         Bulk Density                  : 
TLFamily_SDEVM     .         Sonde Deviation               : 
TLFamily_SLOANI    .         Acoustic Anisotropy           : 
TLFamily_SPHI      .         Total Porosity                : 
TLFamily_TNPH      .         Thermal Neutron Porosity      : 
TLFamily_TSTR      .         Tensile Strength              : 
TLFamily_TXSG_ANISO .        Minimum Horizontal Stress Gradient: 
TLFamily_TXSG_ISO  .         Minimum Horizontal Stress Gradient: 
TLFamily_TXSP_ANISO .         Minimum Horizontal Stress     : 
TLFamily_TZSG      .         Vertical Stress Gradient      : 
TLFamily_UCS       .         Compressive Strength          : 
TLFamily_YME_H_STA .         Young's Modulus (Dynamic)     : 
TLFamily_YME_V_STA .         Young's Modulus (Dynamic)     : 
~Curve Information
#_______________________________________________________________________________
#
#LOGNAME           .UNIT     LOG_ID                        : DESCRIPTION
#_______________________________________________________________________________
MD                 .ft                                     : Measured Depth 
BS                 .in                                     : Bit Size 
C44                .Mpsi                                   : C44 Modulus 
C55                .Mpsi                                   : C55 Modulus 
C66                .Mpsi                                   : C66 Modulus 
DEVIM              .deg                                    : Memorized Deviation 
DPHZ               .ft3/ft3                                : Standard Resolution Density Porosity (F11 
DTCO_MF_DDBHC      .us/ft                                  : Compressional slowness 
DTSH_FAST_DDBHC    .us/ft                                  : Fast Shear slowness 
DTSH_SLOW_DDBHC    .us/ft                                  : Slow Shear slowness 
DTSH_STRVP         .us/ft                                  : Horizontal Shear
GAMMA              .unitless                               : Thomsens Anisotropy Parameter Gamma 
GR_EDTC            .gAPI                                   : Gamma Ray 
HCAL               .IN                                     : HRCC Caliper Calibrated (F11 
ISHE               .psi                                    : Cohesive Strength 
MAXXENE_OVERALL    .unitless                               : Maximum cross energy - overall 
MINXENE_OVERALL    .unitless                               : Minimum cross energy - overall 
PPGI               .psi/ft                                 : Pore Pressure Gradient 
PR_HH              .unitless                               : Poissons Ratio - Loading Horizontal - Displacement Horizontal 
PR_VH              .unitless                               : Poissons Ratio - Loading Vertical - Displacement Horizontal 
RHOZ               .g/cm3                                  : Standard Resolution Formation Density 
RHOZ_EDT           .g/cm3                                  : Standard Resolution Formation Density 
SDEVM              .deg                                    : Memorized Sonde Deviation 
SLOANI             .%                                      : Slowness-Based Anisotropy 
SPHI               .ft3/ft3                                : Total porosity from Sonic 
TNPH               .ft3/ft3                                : Thermal Neutron Porosity (Ratio Method) in Selected Lithology (F11 
TSTR               .psi                                    : Tensile Strength 
TXSG_ANISO         .psi/ft                                 : Anisotropic Minimum Horizontal Stress Gradient 
TXSG_ISO           .psi/ft                                 : Isotropic Minimum Horizontal Stress Gradient 
TXSP_ANISO         .psi                                    : Anisotropic Minimum Horizontal Stress 
TZSG               .psi/ft                                 : Overburden Stress Gradient 
UCS                .psi                                    : Unconfined Compressive Strength 
YME_H_STA          .Mpsi                                   : Static Horizontal Youngs Modulus 
YME_V_STA          .Mpsi                                   : Static Vertical Youngs Modulus 
~Ascii
# ...
5835.0000  8.5000     4.4840     4.4840     8.8240     0.3106     -0.1079    50.7359    91.9604    92.4142    65.7152    0.4840     72.9928    8.5346     21231.1426 0.0721     0.0349     0.4800     0.1669     0.1990     2.8281     2.8281     0.3106     0.4922     0.0229     0.2023     5772.3892  0.8849     0.7766     5162.8066  1.1000     69268.6719 15.5625    8.3732    
5835.5000  8.5000     4.4127     4.4127     8.7145     0.3070     -0.1147    50.4796    92.8988    93.3251    66.2573    0.4874     72.9928    8.5557     21883.1582 0.0716     0.0330     0.4800     0.1727     0.2076     2.8392     2.8392     0.3070     0.4579     0.0211     0.1930     5936.9326  0.8993     0.7902     5246.9419  1.1000     71243.1953 15.4178    8.3428    
5836.0000  8.5000     4.3509     4.3509     8.5908     0.3045     -0.1157    49.8902    93.6081    93.9888    66.7521    0.4872     72.9928    8.5981     22819.8242 0.0714     0.0311     0.4800     0.1803     0.2187     2.8409     2.8409     0.3045     0.4058     0.0169     0.1800     6191.7466  0.9170     0.8075     5351.0210  1.1000     74300.9531 15.2687    8.3551    
5836.5000  8.5000     4.3632     4.3632     8.6058     0.2948     -0.1313    48.8546    93.8988    94.2819    66.9962    0.4862     72.9928    8.5240     24969.1387 0.0714     0.0291     0.4800     0.1894     0.2321     2.8667     2.8667     0.2948     0.4071     0.0096     0.1690     6779.3774  0.9427     0.8311     5501.3887  1.1000     81352.5313 15.4482    8.5738    
5837.0000  8.5000     4.3703     4.3703     8.6217     0.2821     -0.1330    47.6236    93.7869    94.3348    66.9670    0.4864     72.9928    8.4922     27331.9531 0.0715     0.0268     0.4800     0.1981     0.2454     2.8695     2.8695     0.2821     0.5825     0.0009     0.1692     7419.8628  0.9682     0.8545     5650.8164  1.1000     89038.3516 15.6239    8.7825    
5837.5000  8.5000     4.3714     4.3714     8.5975     0.2652     -0.1330    46.7474    93.7880    94.3094    67.0615    0.4834     72.9928    8.4922     28955.5977 0.0708     0.0247     0.4800     0.2046     0.2550     2.8695     2.8695     0.2652     0.5543     0.0000     0.1712     7875.3359  0.9851     0.8707     5750.0181  1.1000     94504.0313 15.6743    8.9140    
5838.0000  8.5000     4.4003     4.4003     8.8149     0.2681     -0.1355    46.7988    93.5996    94.0109    66.2758    0.5016     72.9928    8.4816     29737.7168 0.0687     0.0229     0.4800     0.2004     0.2509     2.8735     2.8735     0.2681     0.4385     0.0000     0.1919     7999.0625  0.9874     0.8685     5763.4307  1.1000     95988.7500 16.0976    8.9946    
5838.5000  8.5000     4.5466     4.5466     9.2363     0.3228     -0.1631    46.7999    92.8504    93.1760    65.2583    0.5157     72.9928    8.7886     31114.1230 0.0639     0.0213     0.4800     0.1955     0.2449     2.9192     2.9192     0.3228     0.3500     0.0000     0.2106     8300.6338  0.9907     0.8661     5783.5483  1.1000     99607.6016 16.9685    9.3266    
5839.0000  8.5000     4.6896     4.6896     9.6097     0.3272     -0.1712    47.0574    91.6452    91.9412    64.1243    0.5246     72.9928    9.1591     31220.0469 0.0569     0.0198     0.4800     0.1880     0.2342     2.9326     2.9326     0.3272     0.3225     0.0000     0.2251     8287.2080  0.9823     0.8540     5735.1030  1.1000     99446.4922 17.6831    9.5501    
5839.5000  8.5000     4.7564     4.7564     9.7866     0.3149     -0.1735    47.9958    91.0297    91.3767    63.5815    0.5288     72.9928    8.8627     29364.3262 0.0504     0.0183     0.4800     0.1782     0.2196     2.9362     2.9362     0.3149     0.3804     0.0035     0.2297     7776.2817  0.9596     0.8311     5602.7241  1.1000     93315.3828 17.9024    9.4909    
5840.0000  8.5000     4.7224     4.7224     9.8266     0.2903     -0.1607    49.1495    90.9948    91.4129    63.2253    0.5404     72.9928    8.6334     26718.1523 0.0450     0.0168     0.4800     0.1677     0.2048     2.9152     2.9152     0.2903     0.4584     0.0117     0.2496     7030.4829  0.9340     0.8060     5453.8423  1.1000     84365.7969 17.7943    9.2018    
5840.5000  8.5000     4.6717     4.6717     9.7095     0.2965     -0.1563    49.3247    91.4098    91.7558    63.5259    0.5392     72.9928    8.5134     26187.0938 0.0424     0.0151     0.4800     0.1681     0.2053     2.9079     2.9079     0.2965     0.3778     0.0129     0.2555     6895.3560  0.9316     0.8050     5440.2681  1.1000     82744.2734 17.5396    9.0835    
5841.0000  8.5000     4.5889     4.5889     9.5575     0.3053     -0.1676    47.9683    92.4788    92.9208    64.2327    0.5414     72.9928    8.4499     29208.7715 0.0433     0.0141     0.4800     0.1823     0.2272     2.9265     2.9265     0.3053     0.4768     0.0033     0.2489     7681.8647  0.9708     0.8418     5669.5547  1.1000     92182.3750 17.4610    9.2452    
5841.5000  8.5000     4.6794     4.6794     9.7749     0.3060     -0.1714    46.6352    91.6694    92.1284    63.5837    0.5445     72.9928    8.6334     32536.4863 0.0444     0.0137     0.4800     0.1884     0.2370     2.9329     2.9329     0.3060     0.4994     0.0000     0.2232     8542.8848  0.9965     0.8630     5820.2939  1.1000     102514.6094 18.0681    9.6466    
5842.0000  8.5000     4.9325     4.9325     10.3162    0.3131     -0.1784    46.9847    89.4524    89.9158    62.0136    0.5457     72.9928    8.4605     32386.3594 0.0452     0.0137     0.4800     0.1774     0.2200     2.9443     2.9443     0.3131     0.5167     0.0000     0.1994     8497.6914  0.9783     0.8414     5714.5205  1.1000     101972.2969 19.0933    9.9988    
5842.5000  8.5000     5.0307     5.0307     10.4578    0.3294     -0.1718    47.7604    88.4237    88.8560    61.4782    0.5394     72.9928    8.4499     30321.3359 0.0465     0.0145     0.4800     0.1679     0.2050     2.9334     2.9334     0.3294     0.4877     0.0018     0.1837     7983.0474  0.9509     0.8161     5554.7891  1.1000     95796.5703 19.2237    9.9511    
5843.0000  8.5000     4.9781     4.9781     10.3093    0.3595     -0.1775    47.6699    89.0163    89.4855    62.0189    0.5355     72.9928    8.4922     30598.1465 0.0512     0.0204     0.4800     0.1717     0.2105     2.9428     2.9428     0.3595     0.5257     0.0012     0.1817     8073.1470  0.9570     0.8234     5591.0601  1.1000     96877.7656 18.9642    9.9053    
5843.5000  8.5000     4.8268     4.8268     10.0280    0.3678     -0.1859    47.5708    90.6418    91.0615    63.0307    0.5388     72.9928    8.5134     30956.1230 0.0573     0.0361     0.4800     0.1786     0.2211     2.9567     2.9567     0.3678     0.4620     0.0005     0.1778     8152.8604  0.9711     0.8383     5674.1621  1.1000     97834.3203 18.4580    9.7281    
5844.0000  8.5000     4.7951     4.7951     10.0399    0.3720     -0.1922    48.2181    91.0787    91.5454    63.1042    0.5469     72.9928    8.6122     29771.1719 0.0613     0.0487     0.4800     0.1744     0.2155     2.9671     2.9671     0.3720     0.5111     0.0051     0.1744     7806.6592  0.9621     0.8289     5621.5054  1.1000     93679.9063 18.4042    9.5824    
5844.5000  8.5000     4.9021     4.9021     10.3621    0.3873     -0.2000    48.3981    90.1958    90.8170    62.2502    0.5569     72.9928    8.9509     29881.4805 0.0688     0.0563     0.4800     0.1684     0.2073     2.9800     2.9800     0.3873     0.6865     0.0063     0.1711     7794.4741  0.9564     0.8197     5588.9868  1.1000     93533.6875 19.0171    9.7381    
5845.0000  8.5000     5.0295     5.0295     10.6753    0.4133     -0.2119    48.5518    89.4440    89.8475    61.5315    0.5613     72.9928    8.4852     30075.8633 0.0804     0.0599     0.4800     0.1630     0.1995     2.9996     2.9996     0.4133     0.4500     0.0074     0.1733     7827.4541  0.9500     0.8105     5551.7764  1.1000     93929.4453 19.6180    9.9249    
5845.5000  8.5000     5.0451     5.0451     10.6491    0.4390     -0.2158    48.8230    89.4920    89.7122    61.6732    0.5554     72.9928    8.4816     29492.8926 0.0975     0.0639     0.4800     0.1614     0.1966     3.0060     3.0060     0.4390     0.2458     0.0093     0.1691     7699.1543  0.9423     0.8046     5507.2944  1.1000     92389.8516 19.5248    9.8904    
