~Version
 VERS              .         2.0                           : CWLS LOG ASCII STANDARD - VERSION 2.0
 WRAP              .         NO                            : ONE LINE PER DEPTH STEP
 DLM               .         SPACE                         : DELIMITING CHARACTER(SPACE TAB OR COMMA)
~Well Information
#_______________________________________________________________________________
#
#PARAMETER_NAME    .UNIT     VALUE                         : DESCRIPTION
#_______________________________________________________________________________
STRT               .ft       1050.0000                     : First reference value
STOP               .ft       5850.0000                     : Last reference value
STEP               .ft       0.5000                        : Step increment
NULL               .         -999.25                       : Missing value
COMP               .         PRAIRIE STATE GENERATING CO, LLC: Company
WELL               .         LIVELY GROVE #1               : Well name
FLD                .         N/A                           : Field
LOC                .                                       : Location
CNTY               .         WASHINGTON                    : County
STAT               .         ILLINOIS                      : State
CTRY               .                                       : Country
SRVC               .         Schlumberger                  : Service Company
DATE               .         12-Aug-2021                   : Date
UWI                .                                       : Unique Well ID
APD                .ft       16                            : Elevation of Depth Reference (LMF) Above Permanent Datum
API                .         12-189-24947-00               : 
BHS                .         OPEN                          : Borehole Status (Open or Cased Hole)
BHT                .degF     115                           : Bottom Hole Temperature
BLI                .ft       5885.95                       : Bottom Log Interval
BS                 .in       8.5                           : Bit Size
CBDR               .ft       1049                          : Casing Bottom of Driller
CBLO               .ft       1049                          : Logger Casing Shoe Depth
CSIZ               .in       9.625                         : Current Casing Size
CWEI               .lbm/ft   36                            : Casing Weight
DCS                .         11-Aug-2021                   : Date Circulation Stopped
DFD                .lbm/gal  9.35                          : Drilling Fluid Density
DFT                .         FRESH WBM                     : Drilling Fluid Type
DLAB               .         12-Aug-2021                   : Date Logger At Bottom
EDF                .ft       477                           : Elevation of Drill Floor
EGL                .ft       461                           : Elevation of Ground Level
EKB                .ft       477                           : Elevation of Kelly Bushing
EPD                .ft       461                           : Elevation of Permanent Datum (PDAT) above Mean Sea Level
LMF                .         KB                            : Logging Measured From (Name of Logging Elevation Reference)
LUL                .         BRADFORD, PA                  : Logging Unit Location
LUN                .         OSLC 2266                     : Logging Unit Number
LATI               .dega     0.00000000                    : Latitude
LONG               .         -89.644768 degrees            : Longitude
MCST               .degF     81.9                          : Mudcake Sample Temperature
MFST               .degF     81.9                          : Mud Filtrate Sample Temperature
MRT                .degF     115                           : Maximum Recorded Temperature
MST                .degF     81.9                          : Mud Sample Temperature
ORIGINALWELLNAME   .         LIVELY GROVE #1               : 
PDAT               .         GL                            : Permanent Datum
PRODUCER-CODE      .         440                           : 
PRODUCER-NAME      .         Schlumberger                  : 
RMB                .ohm.m    0.9233273                     : Resistivity of Mud at Bottom Hole Temperature
RMCS               .ohm.m    1.44                          : Resistivity of Mud Cake Sample
RMFS               .ohm.m    1.033                         : Resistivity of Mud Filtrate Sample
RMS                .ohm.m    1.268                         : Resistivity of Mud Sample
RUN                .         RUN 1B                        : Run Number
TCS                .         17_00_00                      : Time Circulation Stopped
TDD                .ft       5888                          : Driller Total Depth
TDL                .ft       5888.35                       : Logger Total Depth
TLAB               .         07_19_00                      : Time Logger At Bottom
TLI                .ft       1049                          : Top Log Interval
~Parameter Information Block
#_______________________________________________________________________________
#
#PARAMETER_NAME    .UNIT     VALUE                         : DESCRIPTION
#_______________________________________________________________________________
SET                .         0_CP_MP_Delivered             : 
TLFamily_BS        .         Bit Size                      : 
TLFamily_C44       .         Elastic Modulus               : 
TLFamily_C55       .         Elastic Modulus               : 
TLFamily_C66       .         Elastic Modulus               : 
TLFamily_DEVIM     .         Hole Deviation                : 
TLFamily_DPHZ      .         Density Porosity              : 
TLFamily_DTCO_MF_DDBHC .     Compressional Slowness        : 
TLFamily_DTSH_FAST_DDBHC .   Fast Shear Slowness           : 
TLFamily_DTSH_SLOW_DDBHC .   Slow Shear Slowness           : 
TLFamily_DTSH_STRVP .        Stoneley Shear Slowness       : 
TLFamily_GAMMA     .         Regularization Factor         : 
TLFamily_GR_EDTC   .         Gamma Ray                     : 
TLFamily_HCAL      .         Caliper                       : 
TLFamily_ISHE      .         Shear Strength                : 
TLFamily_MAXXENE_OVERALL .   Acoustic Energy               : 
TLFamily_MD        .         Measured Depth                : 
TLFamily_MINXENE_OVERALL .   Acoustic Energy               : 
TLFamily_PPGI      .         Pore Pressure Gradient        : 
TLFamily_PR_HH     .         Poisson Ratio (Dynamic)       : 
TLFamily_PR_VH     .         Poisson Ratio (Dynamic)       : 
TLFamily_RHOZ      .         Bulk Density                  : 
TLFamily_RHOZ_EDT  .         Bulk Density                  : 
TLFamily_SDEVM     .         Sonde Deviation               : 
TLFamily_SLOANI    .         Acoustic Anisotropy           : 
TLFamily_SPHI      .         Total Porosity                : 
TLFamily_TNPH      .         Thermal Neutron Porosity      : 
TLFamily_TSTR      .         Tensile Strength              : 
TLFamily_TXSG_ANISO .        Minimum Horizontal Stress Gradient: 
TLFamily_TXSG_ISO  .         Minimum Horizontal Stress Gradient: 
TLFamily_TXSP_ANISO .         Minimum Horizontal Stress     : 
TLFamily_TZSG      .         Vertical Stress Gradient      : 
TLFamily_UCS       .         Compressive Strength          : 
TLFamily_YME_H_STA .         Young's Modulus (Dynamic)     : 
TLFamily_YME_V_STA .         Young's Modulus (Dynamic)     : 
~Curve Information
#_______________________________________________________________________________
#
#LOGNAME           .UNIT     LOG_ID                        : DESCRIPTION
#_______________________________________________________________________________
MD                 .ft                                     : Measured Depth 
BS                 .in                                     : Bit Size 
C44                .Mpsi                                   : C44 Modulus 
C55                .Mpsi                                   : C55 Modulus 
C66                .Mpsi                                   : C66 Modulus 
DEVIM              .deg                                    : Memorized Deviation 
DPHZ               .ft3/ft3                                : Standard Resolution Density Porosity (F11 
DTCO_MF_DDBHC      .us/ft                                  : Compressional slowness 
DTSH_FAST_DDBHC    .us/ft                                  : Fast Shear slowness 
DTSH_SLOW_DDBHC    .us/ft                                  : Slow Shear slowness 
DTSH_STRVP         .us/ft                                  : Horizontal Shear
GAMMA              .unitless                               : Thomsens Anisotropy Parameter Gamma 
GR_EDTC            .gAPI                                   : Gamma Ray 
HCAL               .IN                                     : HRCC Caliper Calibrated (F11 
ISHE               .psi                                    : Cohesive Strength 
MAXXENE_OVERALL    .unitless                               : Maximum cross energy - overall 
MINXENE_OVERALL    .unitless                               : Minimum cross energy - overall 
PPGI               .psi/ft                                 : Pore Pressure Gradient 
PR_HH              .unitless                               : Poissons Ratio - Loading Horizontal - Displacement Horizontal 
PR_VH              .unitless                               : Poissons Ratio - Loading Vertical - Displacement Horizontal 
RHOZ               .g/cm3                                  : Standard Resolution Formation Density 
RHOZ_EDT           .g/cm3                                  : Standard Resolution Formation Density 
SDEVM              .deg                                    : Memorized Sonde Deviation 
SLOANI             .%                                      : Slowness-Based Anisotropy 
SPHI               .ft3/ft3                                : Total porosity from Sonic 
TNPH               .ft3/ft3                                : Thermal Neutron Porosity (Ratio Method) in Selected Lithology (F11 
TSTR               .psi                                    : Tensile Strength 
TXSG_ANISO         .psi/ft                                 : Anisotropic Minimum Horizontal Stress Gradient 
TXSG_ISO           .psi/ft                                 : Isotropic Minimum Horizontal Stress Gradient 
TXSP_ANISO         .psi                                    : Anisotropic Minimum Horizontal Stress 
TZSG               .psi/ft                                 : Overburden Stress Gradient 
UCS                .psi                                    : Unconfined Compressive Strength 
YME_H_STA          .Mpsi                                   : Static Horizontal Youngs Modulus 
YME_V_STA          .Mpsi                                   : Static Vertical Youngs Modulus 
~Ascii
1050.0000  8.5000     -999.2500  -999.2500  -999.2500  1.1310     -0.0009    118.8122   252.4825   254.5824   -999.2500  -999.2500  71.1054    8.9792     -999.2500  0.1454     0.0513     -999.2500  -999.2500  -999.2500  2.6515     2.4732     1.1310     0.8283     0.5040     0.6212     -999.2500  -999.2500  -999.2500  -999.2500  -999.2500  -999.2500  -999.2500  -999.2500 
1050.5000  8.5000     -999.2500  -999.2500  -999.2500  1.1931     0.2419     125.2477   252.7652   253.8917   -999.2500  -999.2500  80.0015    9.6143     -999.2500  0.1343     0.0475     -999.2500  -999.2500  -999.2500  2.2508     2.4819     1.1931     0.4447     0.5495     0.5628     -999.2500  -999.2500  -999.2500  -999.2500  -999.2500  -999.2500  -999.2500  -999.2500 
1051.0000  8.5000     -999.2500  -999.2500  -999.2500  1.2447     0.3037     126.7542   253.0961   254.1351   -999.2500  -999.2500  81.4901    11.1175    -999.2500  0.1210     0.0461     -999.2500  -999.2500  -999.2500  2.1489     2.4863     1.2447     0.4097     0.5601     0.6834     -999.2500  -999.2500  -999.2500  -999.2500  -999.2500  -999.2500  -999.2500  -999.2500 
1051.5000  8.5000     -999.2500  -999.2500  -999.2500  1.2796     0.3490     128.4599   253.2399   254.1396   -999.2500  -999.2500  79.1158    12.5360    -999.2500  0.1101     0.0462     -999.2500  -999.2500  -999.2500  2.0741     2.4907     1.2796     0.3546     0.5722     0.6409     -999.2500  -999.2500  -999.2500  -999.2500  -999.2500  -999.2500  -999.2500  -999.2500 
1052.0000  8.5000     -999.2500  -999.2500  -999.2500  1.2991     0.3710     130.0854   256.2245   257.7426   -999.2500  -999.2500  77.0309    14.0391    -999.2500  0.1010     0.0481     -999.2500  -999.2500  -999.2500  2.0378     2.4907     1.2991     0.5907     0.5836     0.7172     -999.2500  -999.2500  -999.2500  -999.2500  -999.2500  -999.2500  -999.2500  -999.2500 
1052.5000  8.5000     -999.2500  -999.2500  -999.2500  1.3090     0.4609     130.6261   257.4627   258.8915   -999.2500  -999.2500  74.5145    13.4781    -999.2500  0.0944     0.0512     -999.2500  -999.2500  -999.2500  1.8895     2.4819     1.3090     0.5534     0.5875     0.7873     -999.2500  -999.2500  -999.2500  -999.2500  -999.2500  -999.2500  -999.2500  -999.2500 
1053.0000  8.5000     -999.2500  -999.2500  -999.2500  1.3134     0.4854     128.3141   247.5548   248.9006   -999.2500  -999.2500  71.9931    13.0653    -999.2500  0.0920     0.0535     -999.2500  -999.2500  -999.2500  1.8490     2.4732     1.3134     0.5422     0.5711     0.6547     -999.2500  -999.2500  -999.2500  -999.2500  -999.2500  -999.2500  -999.2500  -999.2500 
1053.5000  8.5000     -999.2500  -999.2500  -999.2500  1.3147     0.4141     117.5045   235.4623   237.0533   -999.2500  -999.2500  74.2773    13.7851    -999.2500  0.0920     0.0514     -999.2500  -999.2500  -999.2500  1.9667     2.4644     1.3147     0.6734     0.4947     0.5148     -999.2500  -999.2500  -999.2500  -999.2500  -999.2500  -999.2500  -999.2500  -999.2500 
1054.0000  8.5000     -999.2500  -999.2500  -999.2500  1.3146     0.2580     107.7497   228.8521   230.3776   -999.2500  -999.2500  77.8677    12.9382    -999.2500  0.0966     0.0523     -999.2500  -999.2500  -999.2500  2.2243     2.4644     1.3146     0.6644     0.4258     0.4588     -999.2500  -999.2500  -999.2500  -999.2500  -999.2500  -999.2500  -999.2500  -999.2500 
1054.5000  8.5000     0.6368     0.6368     0.9774     1.3126     0.1513     97.4246    224.5204   226.2398   181.9113   0.2675     80.9933    11.5092    788.6644   0.1049     0.0617     0.4800     0.2898     0.3429     2.4004     2.4644     1.3126     0.7629     0.3528     0.4056     207.3269   0.9556     0.9057     1007.6399  1.1000     2487.9224  1.1565     0.8383    
1055.0000  8.5000     0.6909     0.6909     1.0498     1.3114     0.1058     93.6566    219.0802   220.3730   178.2449   0.2598     77.0051    11.1598    939.3660   0.1142     0.0798     0.4800     0.2953     0.3488     2.4754     2.4644     1.3114     0.5883     0.3262     0.3720     251.8879   0.9728     0.9217     1026.3431  1.1000     3022.6550  1.2702     0.9300    
1055.5000  8.5000     0.7318     0.7318     1.0939     1.3115     0.1187     98.7887    211.6512   213.4948   173.8671   0.2474     73.4476    11.2657    818.4752   0.1261     0.1024     0.4800     0.2754     0.3188     2.4541     2.4644     1.3115     0.8673     0.3625     0.3716     216.0843   0.9204     0.8720     971.4695   1.1000     2593.0115  1.3111     0.9557    
1056.0000  8.5000     0.8311     0.8311     1.2389     1.3120     0.1258     101.3578   198.3298   199.6587   162.9823   0.2453     71.2948    11.3080    790.7501   0.1435     0.1225     0.4800     0.2440     0.2772     2.4424     2.4556     1.3120     0.6678     0.3806     0.3574     206.8094   0.8626     0.8139     910.8657   1.1000     2481.7122  1.4832     1.0596    
1056.5000  8.5000     1.0160     1.0160     1.4820     1.3137     0.1219     103.2715   179.9184   180.5054   149.2149   0.2293     73.2770    11.6044    746.6537   0.1604     0.1370     0.4800     0.1905     0.2087     2.4488     2.4469     1.3137     0.3257     0.3941     0.3749     195.2812   0.7659     0.7195     809.1965   1.1000     2343.3743  1.7532     1.2305    
1057.0000  8.5000     1.1845     1.1845     1.6825     1.3174     0.1113     103.3729   167.0927   167.9066   140.5418   0.2102     76.5456    13.2558    705.3683   0.1667     0.1454     0.4800     0.1436     0.1529     2.4664     2.4644     1.3174     0.4859     0.3949     0.3275     186.1183   0.6881     0.6451     727.2672   1.1000     2233.4199  1.9520     1.3656    
1057.5000  8.5000     1.3850     1.3850     1.8954     1.3228     0.0887     99.9354    155.6496   156.4887   133.4104   0.1843     75.0208    11.4986    751.3857   0.1686     0.1565     0.4800     0.1162     0.1214     2.5036     2.4732     1.3228     0.5376     0.3706     0.3441     204.0101   0.6510     0.6107     688.4708   1.1000     2448.1216  2.1951     1.5716    
1058.0000  8.5000     1.6472     1.6472     2.0936     1.3295     0.0798     92.7310    143.1866   143.8707   127.3111   0.1355     65.5859    11.5621    890.2385   0.1710     0.1606     0.4800     0.1150     0.1187     2.5183     2.4819     1.3295     0.4766     0.3197     0.3337     258.5120   0.6543     0.6197     692.2407   1.1000     3102.1436  2.4794     1.9163    
1058.5000  8.5000     1.8710     1.8710     2.1863     1.3348     0.0624     82.9246    135.0767   135.7984   125.2915   0.0842     49.5098    11.8373    1278.2195  0.1714     0.1636     0.4800     0.1764     0.1818     2.5470     2.4907     1.3348     0.5329     0.2504     0.2348     411.3200   0.7529     0.7260     796.9914   1.1000     4935.8398  2.7953     2.3930    
1059.0000  8.5000     2.1915     2.1915     2.4800     1.3443     0.0541     74.8693    125.2710   125.6838   117.9542   0.0658     36.3068    11.1810    1778.8954  0.1686     0.1645     0.4800     0.2028     0.2084     2.5607     2.4907     1.3443     0.3289     0.1934     0.1536     620.1262   0.8274     0.8019     876.2403   1.1000     7441.5151  3.3585     2.9801    
1059.5000  8.5000     2.3622     2.3622     2.6206     1.3490     0.0495     69.6994    120.9655   121.1126   114.9175   0.0547     29.5726    10.7999    2241.2329  0.1666     0.1622     0.4800     0.2329     0.2390     2.5684     2.4907     1.3490     0.1215     0.1569     0.1051     827.3770   0.9008     0.8770     954.4138   1.1000     9928.5244  3.7072     3.3661    
1060.0000  8.5000     2.3778     2.3778     2.5930     1.3580     0.0621     66.3365    119.8120   120.4920   115.0581   0.0452     29.6438    10.6094    2540.9324  0.1615     0.1499     0.4800     0.2636     0.2700     2.5476     2.4907     1.3580     0.5659     0.1331     0.0941     979.2248   0.9597     0.9390     1017.2750  1.1000     11750.6973 3.7721     3.4914    
1060.5000  8.5000     2.2903     2.2903     2.4417     1.3678     0.0799     64.2092    121.6677   121.7666   117.8824   0.0331     31.1341    10.4506    2644.8296  0.1459     0.1173     0.4800     0.2937     0.2996     2.5182     2.4907     1.3678     0.0812     0.1181     0.1003     1057.1396  1.0002     0.9850     1060.7085  1.1000     12685.6758 3.6054     3.4126    
