~Version
 VERS              .         2.0                           : CWLS LOG ASCII STANDARD - VERSION 2.0
 WRAP              .         NO                            : ONE LINE PER DEPTH STEP
 DLM               .         SPACE                         : DELIMITING CHARACTER(SPACE TAB OR COMMA)
~Well Information
#_______________________________________________________________________________
#
#PARAMETER_NAME    .UNIT     VALUE                         : DESCRIPTION
#_______________________________________________________________________________
STRT               .ft       1050.0000                     : First reference value
STOP               .ft       5850.0000                     : Last reference value
STEP               .ft       0.5000                        : Step increment
NULL               .         -999.25                       : Missing value
COMP               .         PRAIRIE STATE GENERATING CO, LLC: Company
WELL               .         LIVELY GROVE #1               : Well name
FLD                .         N/A                           : Field
LOC                .                                       : Location
CNTY               .         WASHINGTON                    : County
STAT               .         ILLINOIS                      : State
CTRY               .                                       : Country
SRVC               .         Schlumberger                  : Service Company
DATE               .         12-Aug-2021                   : Date
UWI                .                                       : Unique Well ID
APD                .ft       16                            : Elevation of Depth Reference (LMF) Above Permanent Datum
API                .         12-189-24947-00               : 
BHS                .         OPEN                          : Borehole Status (Open or Cased Hole)
BHT                .degF     115                           : Bottom Hole Temperature
BLI                .ft       5885.95                       : Bottom Log Interval
BS                 .in       8.5                           : Bit Size
CBDR               .ft       1049                          : Casing Bottom of Driller
CBLO               .ft       1049                          : Logger Casing Shoe Depth
CSIZ               .in       9.625                         : Current Casing Size
CWEI               .lbm/ft   36                            : Casing Weight
DCS                .         11-Aug-2021                   : Date Circulation Stopped
DFD                .lbm/gal  9.35                          : Drilling Fluid Density
DFT                .         FRESH WBM                     : Drilling Fluid Type
DLAB               .         12-Aug-2021                   : Date Logger At Bottom
EDF                .ft       477                           : Elevation of Drill Floor
EGL                .ft       461                           : Elevation of Ground Level
EKB                .ft       477                           : Elevation of Kelly Bushing
EPD                .ft       461                           : Elevation of Permanent Datum (PDAT) above Mean Sea Level
LMF                .         KB                            : Logging Measured From (Name of Logging Elevation Reference)
LUL                .         BRADFORD, PA                  : Logging Unit Location
LUN                .         OSLC 2266                     : Logging Unit Number
LATI               .dega     0.00000000                    : Latitude
LONG               .         -89.644768 degrees            : Longitude
MCST               .degF     81.9                          : Mudcake Sample Temperature
MFST               .degF     81.9                          : Mud Filtrate Sample Temperature
MRT                .degF     115                           : Maximum Recorded Temperature
MST                .degF     81.9                          : Mud Sample Temperature
ORIGINALWELLNAME   .         LIVELY GROVE #1               : 
PDAT               .         GL                            : Permanent Datum
PRODUCER-CODE      .         440                           : 
PRODUCER-NAME      .         Schlumberger                  : 
RMB                .ohm.m    0.9233273                     : Resistivity of Mud at Bottom Hole Temperature
RMCS               .ohm.m    1.44                          : Resistivity of Mud Cake Sample
RMFS               .ohm.m    1.033                         : Resistivity of Mud Filtrate Sample
RMS                .ohm.m    1.268                         : Resistivity of Mud Sample
RUN                .         RUN 1B                        : Run Number
TCS                .         17_00_00                      : Time Circulation Stopped
TDD                .ft       5888                          : Driller Total Depth
TDL                .ft       5888.35                       : Logger Total Depth
TLAB               .         07_19_00                      : Time Logger At Bottom
TLI                .ft       1049                          : Top Log Interval
~Parameter Information Block
#_______________________________________________________________________________
#
#PARAMETER_NAME    .UNIT     VALUE                         : DESCRIPTION
#_______________________________________________________________________________
SET                .         0_CP_MP_Delivered             : 
TLFamily_BS        .         Bit Size                      : 
TLFamily_C44       .         Elastic Modulus               : 
TLFamily_C55       .         Elastic Modulus               : 
TLFamily_C66       .         Elastic Modulus               : 
TLFamily_DEVIM     .         Hole Deviation                : 
TLFamily_DPHZ      .         Density Porosity              : 
TLFamily_DTCO_MF_DDBHC .     Compressional Slowness        : 
TLFamily_DTSH_FAST_DDBHC .   Fast Shear Slowness           : 
TLFamily_DTSH_SLOW_DDBHC .   Slow Shear Slowness           : 
TLFamily_DTSH_STRVP .        Stoneley Shear Slowness       : 
TLFamily_GAMMA     .         Regularization Factor         : 
TLFamily_GR_EDTC   .         Gamma Ray                     : 
TLFamily_HCAL      .         Caliper                       : 
TLFamily_ISHE      .         Shear Strength                : 
TLFamily_MAXXENE_OVERALL .   Acoustic Energy               : 
TLFamily_MD        .         Measured Depth                : 
TLFamily_MINXENE_OVERALL .   Acoustic Energy               : 
TLFamily_PPGI      .         Pore Pressure Gradient        : 
TLFamily_PR_HH     .         Poisson Ratio (Dynamic)       : 
TLFamily_PR_VH     .         Poisson Ratio (Dynamic)       : 
TLFamily_RHOZ      .         Bulk Density                  : 
TLFamily_RHOZ_EDT  .         Bulk Density                  : 
TLFamily_SDEVM     .         Sonde Deviation               : 
TLFamily_SLOANI    .         Acoustic Anisotropy           : 
TLFamily_SPHI      .         Total Porosity                : 
TLFamily_TNPH      .         Thermal Neutron Porosity      : 
TLFamily_TSTR      .         Tensile Strength              : 
TLFamily_TXSG_ANISO .        Minimum Horizontal Stress Gradient: 
TLFamily_TXSG_ISO  .         Minimum Horizontal Stress Gradient: 
TLFamily_TXSP_ANISO .         Minimum Horizontal Stress     : 
TLFamily_TZSG      .         Vertical Stress Gradient      : 
TLFamily_UCS       .         Compressive Strength          : 
TLFamily_YME_H_STA .         Young's Modulus (Dynamic)     : 
TLFamily_YME_V_STA .         Young's Modulus (Dynamic)     : 
~Curve Information
#_______________________________________________________________________________
#
#LOGNAME           .UNIT     LOG_ID                        : DESCRIPTION
#_______________________________________________________________________________
MD                 .ft                                     : Measured Depth 
BS                 .in                                     : Bit Size 
C44                .Mpsi                                   : C44 Modulus 
C55                .Mpsi                                   : C55 Modulus 
C66                .Mpsi                                   : C66 Modulus 
DEVIM              .deg                                    : Memorized Deviation 
DPHZ               .ft3/ft3                                : Standard Resolution Density Porosity (F11 
DTCO_MF_DDBHC      .us/ft                                  : Compressional slowness 
DTSH_FAST_DDBHC    .us/ft                                  : Fast Shear slowness 
DTSH_SLOW_DDBHC    .us/ft                                  : Slow Shear slowness 
DTSH_STRVP         .us/ft                                  : Horizontal Shear
GAMMA              .unitless                               : Thomsens Anisotropy Parameter Gamma 
GR_EDTC            .gAPI                                   : Gamma Ray 
HCAL               .IN                                     : HRCC Caliper Calibrated (F11 
ISHE               .psi                                    : Cohesive Strength 
MAXXENE_OVERALL    .unitless                               : Maximum cross energy - overall 
MINXENE_OVERALL    .unitless                               : Minimum cross energy - overall 
PPGI               .psi/ft                                 : Pore Pressure Gradient 
PR_HH              .unitless                               : Poissons Ratio - Loading Horizontal - Displacement Horizontal 
PR_VH              .unitless                               : Poissons Ratio - Loading Vertical - Displacement Horizontal 
RHOZ               .g/cm3                                  : Standard Resolution Formation Density 
RHOZ_EDT           .g/cm3                                  : Standard Resolution Formation Density 
SDEVM              .deg                                    : Memorized Sonde Deviation 
SLOANI             .%                                      : Slowness-Based Anisotropy 
SPHI               .ft3/ft3                                : Total porosity from Sonic 
TNPH               .ft3/ft3                                : Thermal Neutron Porosity (Ratio Method) in Selected Lithology (F11 
TSTR               .psi                                    : Tensile Strength 
TXSG_ANISO         .psi/ft                                 : Anisotropic Minimum Horizontal Stress Gradient 
TXSG_ISO           .psi/ft                                 : Isotropic Minimum Horizontal Stress Gradient 
TXSP_ANISO         .psi                                    : Anisotropic Minimum Horizontal Stress 
TZSG               .psi/ft                                 : Overburden Stress Gradient 
UCS                .psi                                    : Unconfined Compressive Strength 
YME_H_STA          .Mpsi                                   : Static Horizontal Youngs Modulus 
YME_V_STA          .Mpsi                                   : Static Vertical Youngs Modulus 
~Ascii
# ...
4559.0000  8.5000     3.7995     3.7995     3.8173     0.4573     0.0351     53.5589    95.6553    96.1053    95.6553    0.0000     8.1038     9.8578     4932.9146  0.1680     0.0263     0.4800     0.2727     0.2727     2.5922     2.7275     0.4573     0.4693     0.0428     0.1749     2231.6379  0.7645     0.7645     3484.9482  1.1000     26779.6543 6.1185     6.1185    
4559.5000  8.5000     3.8926     3.8926     3.9136     0.4582     0.0582     55.5997    93.7725    94.2784    93.7725    0.0000     9.2049     9.8472     4082.3052  0.1584     0.0255     0.4800     0.2304     0.2304     2.5540     2.7275     0.4582     0.5380     0.0572     0.1933     1846.8245  0.7007     0.7007     3194.4673  1.1000     22161.8926 6.0482     6.0482    
4560.0000  8.5000     4.0890     4.0890     4.1124     0.4592     0.0372     54.7930    92.0947    92.6235    92.0947    0.0000     8.9006     9.8154     4439.5112  0.1524     0.0261     0.4800     0.2276     0.2276     2.5885     2.7355     0.4592     0.5725     0.0515     0.1972     2008.4236  0.7029     0.7029     3204.9514  1.1000     24101.0820 6.4110     6.4110    
4560.5000  8.5000     4.2929     4.2929     4.3458     0.4601     -0.0036    52.1481    91.0355    91.5744    90.7468    0.0000     7.7915     9.6990     5757.3281  0.1472     0.0272     0.4800     0.2564     0.2564     2.6559     2.7355     0.4601     0.5903     0.0328     0.1676     2604.6006  0.7557     0.7557     3446.0146  1.1000     31255.2070 7.0264     7.0264    
4561.0000  8.5000     4.3432     4.3432     4.5228     0.4612     -0.0466    49.5212    91.7243    92.2316    90.1325    0.0000     6.9942     9.7413     7433.1416  0.1426     0.0279     0.4800     0.2919     0.2919     2.7268     2.7268     0.4612     0.5516     0.0143     0.1366     3362.7341  0.8209     0.8209     3743.6343  1.1000     40352.8086 7.4664     7.4664    
4561.5000  8.5000     4.2855     4.2855     4.5170     0.4621     -0.0795    48.4130    93.2418    93.7864    91.0851    0.0270     7.0485     9.5085     9050.8340  0.1393     0.0287     0.4800     0.3056     0.3108     2.7812     2.7812     0.4621     0.5824     0.0065     0.1282     3920.2275  0.8712     0.8634     3973.3069  1.1000     47042.7305 7.8077     7.4678    
4562.0000  8.5000     4.1768     4.1768     4.3087     0.4625     -0.0666    50.0041    94.0113    94.7097    92.9037    0.0000     7.2004     9.4873     7285.5996  0.1374     0.0307     0.4800     0.3019     0.3019     2.7599     2.7599     0.4625     0.7401     0.0177     0.1326     3295.9866  0.8320     0.8320     3795.0310  1.1000     39551.8398 7.1535     7.1535    
4562.5000  8.5000     4.1120     4.1120     4.2055     0.4630     -0.0504    52.1467    94.3784    94.9014    93.5806    0.0000     8.5290     9.4449     6097.2920  0.1339     0.0339     0.4800     0.2796     0.2796     2.7332     2.7332     0.4630     0.5526     0.0328     0.1471     2758.3994  0.7888     0.7888     3598.5015  1.1000     33100.7930 6.8434     6.8434    
4563.0000  8.5000     4.1294     4.1294     4.1962     0.4640     -0.0420    52.9066    94.0474    94.3465    93.4440    0.0000     8.7751     9.4238     5702.1826  0.1266     0.0380     0.4800     0.2678     0.2678     2.7192     2.7192     0.4640     0.3174     0.0382     0.1563     2579.6528  0.7688     0.7688     3507.4424  1.1000     30955.8340 6.7822     6.7822    
4563.5000  8.5000     4.3314     4.3314     4.4599     0.4658     -0.0615    51.8405    92.3576    92.6775    91.1746    0.0000     9.2085     9.4449     6333.3169  0.1202     0.0416     0.4800     0.2679     0.2679     2.7515     2.7515     0.4658     0.3457     0.0307     0.1527     2865.1763  0.7771     0.7771     3545.9280  1.1000     34382.1172 7.2356     7.2356    
4564.0000  8.5000     4.4681     4.4681     4.6346     0.4667     -0.0725    49.6221    91.1489    91.6351    89.7344    0.0000     8.7680     9.3814     7619.5674  0.1201     0.0435     0.4800     0.2873     0.2873     2.7696     2.7696     0.4667     0.5320     0.0150     0.1335     3447.0728  0.8171     0.8171     3728.8210  1.1000     41364.8711 7.6858     7.6858    
4564.5000  8.5000     4.4133     4.4133     4.5855     0.4689     -0.0656    47.8902    91.2648    92.2789    90.0281    0.0000     9.4003     9.2967     8600.8701  0.1149     0.0467     0.4800     0.3095     0.3095     2.7583     2.7583     0.4689     1.1051     0.0028     0.1230     3891.0117  0.8567     0.8567     3909.9595  1.1000     46692.1406 7.7372     7.7372    
4565.0000  8.5000     4.2793     4.2793     4.4635     0.4706     -0.0432    47.9324    91.4839    93.6916    90.6379    0.0215     9.5585     9.2967     8868.2490  0.1055     0.0498     0.4800     0.3078     0.3119     2.7213     2.7213     0.4706     2.3844     0.0031     0.1204     3874.4365  0.8690     0.8628     3966.6326  1.1000     46493.2383 7.7090     7.4390    
4565.5000  8.5000     4.2680     4.2680     4.3934     0.4724     -0.0119    49.8288    90.7736    92.8738    90.4857    0.0147     9.8448     9.2544     7283.9878  0.0962     0.0523     0.4800     0.2852     0.2877     2.6696     2.6696     0.4724     2.2873     0.0165     0.1095     3217.1204  0.8181     0.8141     3734.6970  1.1000     38605.4453 7.3987     7.2129    
4566.0000  8.5000     4.2137     4.2137     4.3206     0.4757     0.0081     52.6502    91.0157    92.6526    90.6803    0.0000     10.2996    9.0003     5455.6479  0.0933     0.0536     0.4800     0.2520     0.2520     2.6367     2.6367     0.4757     1.7824     0.0364     0.1034     2468.1211  0.7461     0.7461     3406.2766  1.1000     29617.4551 6.8728     6.8728    
4566.5000  8.5000     4.0033     4.0033     4.0351     0.4785     0.0327     55.1358    93.1087    93.8510    93.1087    0.0000     11.5723    9.0215     4365.7500  0.0880     0.0537     0.4800     0.2322     0.2322     2.5961     2.5961     0.4785     0.7941     0.0540     0.1057     1975.0541  0.7069     0.7069     3227.7576  1.1000     23700.6484 6.2794     6.2794    
4567.0000  8.5000     3.8503     3.8503     3.9119     0.4784     0.0211     56.2727    95.4697    95.8630    94.9088    0.0000     12.0991    8.9792     4084.9031  0.0836     0.0521     0.4800     0.2333     0.2333     2.6151     2.6151     0.4784     0.4111     0.0620     0.1162     1847.9998  0.7039     0.7039     3214.5439  1.1000     22175.9961 6.0104     6.0104    
4567.5000  8.5000     3.7407     3.7407     3.8384     0.4800     0.0006     55.7489    97.5469    97.8226    96.4332    0.0000     10.9650    9.0427     4384.1440  0.0802     0.0493     0.4800     0.2554     0.2554     2.6490     2.6490     0.4800     0.2823     0.0583     0.1223     1983.3755  0.7349     0.7349     3356.0364  1.1000     23800.5059 5.9526     5.9526    
4568.0000  8.5000     3.6860     3.6860     3.8509     0.4821     -0.0054    55.7072    98.4292    98.7513    96.4558    0.0000     10.7228    9.1909     4433.6494  0.0770     0.0458     0.4800     0.2603     0.2603     2.6590     2.6590     0.4821     0.3268     0.0580     0.1272     2005.7716  0.7417     0.7417     3387.5444  1.1000     24069.2598 5.9185     5.9185    
4568.5000  8.5000     3.6547     3.6547     3.8060     0.4849     0.0114     57.6005    98.3674    98.6157    96.5147    0.0000     12.1650    9.1803     3781.8206  0.0741     0.0426     0.4800     0.2346     0.2346     2.6311     2.6311     0.4849     0.2521     0.0714     0.1365     1705.1312  0.7005     0.7005     3199.8010  1.1000     20461.5742 5.7011     5.7011    
4569.0000  8.5000     3.5451     3.5451     3.7041     0.4870     0.0358     58.7312    99.0575    99.4132    97.0818    0.0000     15.0946    8.9580     3421.3606  0.0704     0.0404     0.4800     0.2242     0.2242     2.5909     2.5909     0.4870     0.3585     0.0794     0.1469     1521.2887  0.6817     0.6817     3114.3801  1.1000     18255.4648 5.4406     5.4406    
4569.5000  8.5000     3.4979     3.4979     3.6507     0.4884     0.0357     58.8224    99.6624    100.1557   97.7943    0.0000     16.3391    8.9580     3413.4626  0.0667     0.0382     0.4800     0.2288     0.2288     2.5912     2.5912     0.4884     0.4938     0.0800     0.1396     1516.0917  0.6868     0.6868     3138.0073  1.1000     18193.0996 5.3732     5.3732    
