~Version
 VERS              .         2.0                           : CWLS LOG ASCII STANDARD - VERSION 2.0
 WRAP              .         NO                            : ONE LINE PER DEPTH STEP
 DLM               .         SPACE                         : DELIMITING CHARACTER(SPACE TAB OR COMMA)
~Well Information
#_______________________________________________________________________________
#
#PARAMETER_NAME    .UNIT     VALUE                         : DESCRIPTION
#_______________________________________________________________________________
STRT               .ft       1049.0000                     : First reference value
STOP               .ft       5858.0000                     : Last reference value
STEP               .ft       0.5000                        : Step increment
NULL               .         -999.25                       : Missing value
COMP               .         PRAIRIE STATE GENERATING CO, LLC: Company
WELL               .         LIVELY GROVE #1               : Well name
FLD                .         N/A                           : Field
LOC                .                                       : Location
CNTY               .         WASHINGTON                    : County
STAT               .         ILLINOIS                      : State
CTRY               .         USA                           : Country
SRVC               .         Schlumberger                  : Service Company
DATE               .         13-Aug-2021                   : Date
UWI                .                                       : Unique Well ID
APD                .ft       16                            : Elevation of Depth Reference (LMF) Above Permanent Datum
API                .         12-189-24947-00               : 
BHS                .         OPEN                          : Borehole Status (Open or Cased Hole)
BHT                .degF     115                           : Bottom Hole Temperature
BLI                .ft       5888                          : Bottom Log Interval
BS                 .in       8.5                           : Bit Size
CBDR               .ft       1049                          : Casing Bottom of Driller
CBLO               .ft       1049                          : Logger Casing Shoe Depth
CSIZ               .in       9.625                         : Current Casing Size
CWEI               .lbm/ft   36                            : Casing Weight
DCS                .         11-Aug-2021                   : Date Circulation Stopped
DFD                .lbm/gal  9.35                          : Drilling Fluid Density
DFT                .         FRESH WBM                     : Drilling Fluid Type
DLAB               .         12-Aug-2021                   : Date Logger At Bottom
EDF                .ft       477                           : Elevation of Drill Floor
EGL                .ft       461                           : Elevation of Ground Level
EKB                .ft       477                           : Elevation of Kelly Bushing
EPD                .ft       461                           : Elevation of Permanent Datum (PDAT) above Mean Sea Level
LMF                .         KB                            : Logging Measured From (Name of Logging Elevation Reference)
LUL                .         BRADFORD, PA                  : Logging Unit Location
LUN                .         OSLC 2266                     : Logging Unit Number
LATI               .         38.352151 degrees             : Latitude
LONG               .         -89.644768 degrees            : Longitude
MCST               .degF     81.9                          : Mudcake Sample Temperature
MFST               .degF     81.9                          : Mud Filtrate Sample Temperature
MRT                .degF     115                           : Maximum Recorded Temperature
MST                .degF     81.9                          : Mud Sample Temperature
ORIGINALWELLNAME   .         LIVELY GROVE #1               : 
PDAT               .         GL                            : Permanent Datum
PRODUCER-CODE      .         440                           : 
PRODUCER-NAME      .         Schlumberger                  : 
RMB                .ohm.m    0.9233273                     : Resistivity of Mud at Bottom Hole Temperature
RMCS               .ohm.m    1.44                          : Resistivity of Mud Cake Sample
RMFS               .ohm.m    1.033                         : Resistivity of Mud Filtrate Sample
RMS                .ohm.m    1.268                         : Resistivity of Mud Sample
RUN                .         RUN 1D                        : Run Number
TCS                .         13_00_00                      : Time Circulation Stopped
TDD                .ft       5888.35                       : Driller Total Depth
TDL                .ft       5888.35                       : Logger Total Depth
TLAB               .         17_08_00                      : Time Logger At Bottom
TLI                .ft       1049                          : Top Log Interval
~Parameter Information Block
#_______________________________________________________________________________
#
#PARAMETER_NAME    .UNIT     VALUE                         : DESCRIPTION
#_______________________________________________________________________________
SET                .         0_PnS_Aniso                   : 
TLFamily_BS        .         Bit Size                      : 
TLFamily_DEVIM     .         Hole Deviation                : 
TLFamily_DPHZ      .         Density Porosity              : 
TLFamily_DTCO_MF_DDBHC .         Compressional Slowness        : 
TLFamily_DTCO_MF_R .         Compressional Slowness        : 
TLFamily_DTCO_MF_T .         Compressional Slowness        : 
TLFamily_DTSH_FAST_DDBHC .         Fast Shear Slowness           : 
TLFamily_DTSH_FAST_R .         Fast Shear Slowness           : 
TLFamily_DTSH_FAST_T .         Fast Shear Slowness           : 
TLFamily_DTSH_SLOW_DDBHC .         Slow Shear Slowness           : 
TLFamily_DTSH_SLOW_R .         Slow Shear Slowness           : 
TLFamily_DTSH_SLOW_T .         Slow Shear Slowness           : 
TLFamily_FSA_NAZ   .         Fast Shear Azimuth            : 
TLFamily_FSA_NAZ_ERR .         Fast Shear Azimuth            : 
TLFamily_FSA_NAZ_ERRMINUS .         Fast Shear Azimuth            : 
TLFamily_FSA_NAZ_ERRPLUS .         Fast Shear Azimuth            : 
TLFamily_FSA_NAZ_IN .         Fast Shear Azimuth            : 
TLFamily_GR_EDTC   .         Gamma Ray                     : 
TLFamily_HAZIM     .         Hole Azimuth                  : 
TLFamily_HDAR      .         Borehole Diameter             : 
TLFamily_MAXXENE_OVERALL .         Acoustic Energy               : 
TLFamily_MD        .         Measured Depth                : 
TLFamily_MINXENE_OVERALL .         Acoustic Energy               : 
TLFamily_P1NO_MAST .         Pad A North                   : 
TLFamily_PEFZ      .         Photoelectric Factor          : 
TLFamily_PR_FAST   .         Poisson Ratio (Dynamic)       : 
TLFamily_SDEVM     .         Sonde Deviation               : 
TLFamily_SENSOR_AZIM_QCI .         Sensor Azimuth                : 
TLFamily_SLOANI    .         Acoustic Anisotropy           : 
TLFamily_SPHI      .         Total Porosity                : 
TLFamily_TDIF_ALT_OVERALL .         Time Interval                 : 
TLFamily_TDIF_ORG_OVERALL .         Time Interval                 : 
TLFamily_TENS      .         Tension                       : 
TLFamily_TIMANI    .         Acoustic Anisotropy           : 
TLFamily_TNPH      .         Thermal Neutron Porosity      : 
TLFamily_TW_B_L6   .         Travel Time                   : 
TLFamily_TW_E_L6   .         Travel Time                   : 
TLFamily_VPVS_FAST .         VpVs (Compressional To Shear) Ratio: 
TLFamily_XENEDIF   .         Acoustic Energy               : 
~Curve Information
#_______________________________________________________________________________
#
#LOGNAME           .UNIT     LOG_ID                        : DESCRIPTION
#_______________________________________________________________________________
MD                 .ft                                     : Measured Depth
BS                 .in                                     : Bit Size 
DEVIM              .deg                                    : Memorized Deviation 
DPHZ               .ft3/ft3                                : Standard Resolution Density Porosity <_techsia_lb_>F11 
DTCO_MF_DDBHC      .us/ft                                  : Compressional slowness 
DTCO_MF_R          .us/ft                                  : Compressional slowness 
DTCO_MF_T          .us/ft                                  : Compressional slowness 
DTSH_FAST_DDBHC    .us/ft                                  : Shear slowness 
DTSH_FAST_R        .us/ft                                  : Shear slowness 
DTSH_FAST_T        .us/ft                                  : Shear slowness 
DTSH_SLOW_DDBHC    .us/ft                                  : Shear slowness 
DTSH_SLOW_R        .us/ft                                  : Shear slowness 
DTSH_SLOW_T        .us/ft                                  : Shear slowness 
FSA_NAZ            .deg                                    : Fast shear azimuth(NAZ REF90) - overall - swapped 
FSA_NAZ_ERR        .deg                                    : Fast shear azimuth error, reference frame NAZ 
FSA_NAZ_ERRMINUS   .deg                                    : Fast shear azimuth error minus(NAZ REF90) - swapped 
FSA_NAZ_ERRPLUS    .deg                                    : Fast shear azimuth error plus(NAZ REF90) - swapped 
FSA_NAZ_IN         .deg                                    : Fast Shear Azimuth Indicator 
GR_EDTC            .gAPI                                   : Gamma Ray 
HAZIM              .deg                                    : Memorized Hole Azimuth 
HDAR               .in                                     : Hole Diameter from Area 
MAXXENE_OVERALL    .unitless                               : Maximum cross energy - overall 
MINXENE_OVERALL    .unitless                               : Minimum cross energy - overall 
P1NO_MAST          .deg                                    : Pad 1 Azimuth in Plane Orthogonal to Tool Axis (0 = True North), memorized to MAST 
PEFZ               .                                       : Standard Resolution Formation Photoelectric Factor <_techsia_lb_>F11 
PR_FAST            .unitless                               : Possion's Ratio 
SDEVM              .deg                                    : Memorized Sonde Deviation 
SENSOR_AZIM_QCI    .deg                                    : Tool azimuth for input QC 
SLOANI             .%                                      : Slowness-Based Anisotropy 
SPHI               .ft3/ft3                                : Total porosity from Sonic 
TDIF_ALT_OVERALL   .s                                      : Arrival time difference between fast and slow waves(alternate) - overall - swapped 
TDIF_ORG_OVERALL   .s                                      : Arrival time difference between fast and slow waves(original) - overall - swapped 
TENS               .lbf                                    : Cable Tension 
TIMANI             .%                                      : Time-Based Anisotropy 
TNPH               .ft3/ft3                                : Thermal Neutron Porosity (Ratio Method) in Selected Lithology <_techsia_lb_>F11 
TW_B_L6            .us                                     : Time window begin - packed 
TW_E_L6            .us                                     : Time window end - packed 
VPVS_FAST          .unitless                               : VpVs Ratio 
XENEDIF            .unitless                               : Energy-Based Anisotropy 
~Ascii
# ...
2331.5000  8.5000     1.5199     0.0070     65.7791    65.2416    66.3166    118.8227   118.5483   119.0970   119.4667   119.2940   119.6393   78.8862    9.8967     68.9895    88.7829    -999.2500  42.7877    255.7617   8.7535     0.0282     0.0143     27.3584    4.0930     0.2791     1.5199     14.9154    0.5405     0.1292     -0.0004    0.0000     2163.4446  0.8432     0.1437     1971.1907  4971.1909  1.8064     1.3928    
2332.0000  8.5000     1.5182     0.0104     65.0180    64.3997    65.6364    117.6379   117.9802   117.2956   118.3685   118.7342   118.0029   79.1940    9.7723     69.4217    88.9663    -999.2500  41.4590    255.9908   8.7933     0.0287     0.0144     28.7354    4.1706     0.2801     1.5182     15.8738    0.6192     0.1238     -0.0004    0.0000     2184.0527  0.8577     0.1432     1971.7756  4971.7759  1.8093     1.4324    
2332.5000  8.5000     1.5157     0.0118     64.1178    63.6502    64.5855    117.0547   117.1188   116.9907   117.9098   117.7510   118.0685   79.6946    9.5503     70.1443    89.2449    -999.2500  39.2149    256.2486   8.7959     0.0296     0.0145     29.4569    4.2761     0.2857     1.5157     16.5662    0.7278     0.1174     -0.0004    0.0000     2150.1667  0.8804     0.1371     1973.0736  4973.0737  1.8256     1.5074    
2333.0000  8.5000     1.5124     0.0114     63.5621    63.1034    64.0209    117.3640   117.1979   117.5301   118.0294   117.9837   118.0752   79.6965    9.4459     70.2505    89.1424    -999.2500  36.6648    256.4881   8.7961     0.0304     0.0146     30.3621    4.3417     0.2925     1.5124     17.5933    0.5654     0.1135     -0.0004    0.0000     2170.0557  0.9027     0.1339     1973.7629  4973.7632  1.8464     1.5843    
2333.5000  8.5000     1.5092     0.0206     63.7338    63.2877    64.1799    117.9744   117.5022   118.4466   118.4932   117.8792   119.1072   79.2878    9.2310     70.0568    88.5188    -999.2500  35.3310    256.7271   8.7924     0.0310     0.0146     30.8652    4.4531     0.2939     1.5092     18.2651    0.4388     0.1147     -0.0004    0.0000     2164.4209  0.9182     0.1371     1974.0404  4974.0405  1.8510     1.6447    
2334.0000  8.5000     1.5055     0.0272     64.1568    64.0320    64.2815    117.7570   118.0269   117.4872   118.4642   118.5675   118.3610   79.2943    8.1447     71.1497    87.4390    -999.2500  35.9074    256.9722   8.8281     0.0320     0.0143     31.5201    4.5054     0.2889     1.5055     19.2155    0.5988     0.1177     -0.0004    0.0000     2160.4446  0.9457     0.1394     1974.6929  4974.6924  1.8355     1.7713    
2334.5000  8.5000     1.5022     0.0232     64.1559    64.6262    63.6856    118.6895   118.8909   118.4881   119.2792   119.5562   119.0022   79.4765    8.5427     70.9338    88.0192    -999.2500  35.4159    257.2171   8.8742     0.0321     0.0140     32.3772    4.4386     0.2936     1.5022     19.8409    0.4956     0.1177     -0.0004    0.0000     2162.6667  0.9568     0.1414     1975.5120  4975.5117  1.8500     1.8060    
2335.0000  8.5000     1.4989     0.0163     64.0098    64.5397    63.4799    119.8015   119.4886   120.1144   120.4408   119.9169   120.9647   79.7017    8.2035     71.4982    87.9052    -999.2500  35.3132    257.4329   8.8452     0.0317     0.0139     33.1109    4.3473     0.3002     1.4989     20.5002    0.5322     0.1167     -0.0004    0.0000     2167.7222  0.9523     0.1475     1977.5166  4977.5166  1.8716     1.7773    
2335.5000  8.5000     1.4955     0.0049     64.0763    64.1037    64.0489    119.8197   120.0724   119.5669   120.5969   120.5300   120.6637   79.3311    8.5738     70.7573    87.9049    -999.2500  35.7937    257.6297   8.8083     0.0315     0.0140     34.2589    4.1841     0.2997     1.4955     21.4904    0.6465     0.1171     -0.0004    0.0000     2140.4739  0.9480     0.1454     1979.8076  4979.8076  1.8700     1.7487    
2336.0000  8.5000     1.4930     0.0090     64.6468    64.5049    64.7887    119.4131   120.5543   118.2719   119.9673   121.2227   118.7119   79.0593    9.3474     69.7120    88.4067    -999.2500  35.2290    257.8042   8.8001     0.0312     0.0144     35.0296    4.1465     0.2927     1.4930     22.1908    0.4631     0.1212     -0.0004    0.0000     2158.2222  0.9399     0.1385     1980.6000  4980.6001  1.8472     1.6767    
2336.5000  8.5000     1.4898     0.0174     64.6357    65.1139    64.1574    117.2776   119.4696   115.0856   117.6686   119.8446   115.4926   79.7019    10.8560    68.8459    90.5578    -999.2500  35.4839    257.9801   8.7663     0.0305     0.0153     36.0416    4.1357     0.2819     1.4898     23.1948    0.3328     0.1211     -0.0004    0.0000     2174.6111  0.9295     0.1397     1979.7103  4979.7109  1.8144     1.5145    
2337.0000  8.5000     1.4870     0.0251     63.1072    64.2761    61.9383    115.8126   118.4943   113.1309   116.5954   119.1860   114.0048   79.0063    11.3751    67.6313    90.3814    -999.2500  35.5549    258.1606   8.7222     0.0299     0.0160     36.5854    4.1584     0.2888     1.4870     23.8610    0.6736     0.1103     -0.0004    0.0000     2186.6843  0.9235     0.1293     1976.8833  4976.8833  1.8352     1.3868    
2337.5000  8.5000     1.4842     0.0173     61.3859    62.5221    60.2498    115.4796   117.3702   113.5889   116.2473   117.8370   114.6575   79.9106    12.1305    67.7801    92.0410    -999.2500  33.9302    258.3357   8.7677     0.0294     0.0165     37.3464    4.1457     0.3031     1.4842     24.7547    0.6626     0.0981     -0.0004    0.0000     2159.5554  0.9222     0.1174     1972.6885  4972.6885  1.8812     1.2889    
2338.0000  8.5000     1.4813     0.0080     60.3602    60.6763    60.0441    115.1620   116.5171   113.8070   115.5991   116.7097   114.4885   79.2901    12.4813    66.8088    91.7715    -999.2500  31.1838    258.4865   8.7065     0.0286     0.0168     38.0270    4.1410     0.3106     1.4813     25.3947    0.3788     0.0909     -0.0004    0.0000     2179.3159  0.9094     0.1049     1968.5498  4968.5498  1.9079     1.1763    
2338.5000  8.5000     1.4789     0.0045     60.5237    60.0572    60.9901    115.8976   116.9815   114.8136   116.4685   117.6034   115.3335   78.3651    12.9755    65.3895    91.3406    -999.2500  28.7365    258.6452   8.6525     0.0276     0.0170     38.9323    4.2058     0.3125     1.4789     26.4506    0.4914     0.0920     -0.0004    0.0000     2180.1111  0.8912     0.1050     1964.7031  4964.7031  1.9149     1.0593    
2339.0000  8.5000     1.4761     0.0069     62.0421    61.2868    62.7973    118.0715   118.3264   117.8166   118.6169   118.7907   118.4431   77.9069    13.1926    64.7143    91.0995    -999.2500  29.3775    258.8079   8.6998     0.0267     0.0171     39.6325    4.2555     0.3093     1.4761     27.1935    0.4608     0.1028     -0.0004    0.0000     2157.4209  0.8731     0.1175     1962.1484  4962.1484  1.9031     0.9536    
2339.5000  8.5000     1.4732     0.0021     63.8004    63.0907    64.5102    120.5091   120.8456   120.1727   120.8916   121.0489   120.7343   77.1825    13.3767    63.8058    90.5592    -999.2500  32.2662    258.9489   8.7588     0.0258     0.0172     40.5906    4.2726     0.3053     1.4732     28.4499    0.3169     0.1152     -0.0004    0.0000     2182.6111  0.8597     0.1354     1960.9393  4960.9395  1.8888     0.8592    
2340.0000  8.5000     1.4702     0.0009     64.8150    64.9197    64.7103    121.2713   121.9933   120.5494   121.9565   122.7929   121.1201   76.8104    13.5252    63.2852    90.3356    -999.2500  35.9942    259.0947   8.8340     0.0254     0.0173     41.3097    4.2661     0.3001     1.4702     29.2631    0.5634     0.1224     -0.0004    0.0000     2193.5264  0.8548     0.1457     1960.9519  4960.9517  1.8710     0.8088    
2340.5000  8.5000     1.4672     0.0018     65.3325    65.7373    64.9276    120.0345   121.0920   118.9771   120.7939   122.1040   119.4838   76.2673    14.1354    62.1319    90.4027    -999.2500  39.0549    259.2138   8.9039     0.0251     0.0175     41.9545    4.2599     0.2895     1.4672     30.1075    0.6306     0.1260     -0.0004    0.0000     2154.8335  0.8491     0.1430     1962.0532  4962.0532  1.8373     0.7671    
