~Version
 VERS              .         2.0                           : CWLS LOG ASCII STANDARD - VERSION 2.0
 WRAP              .         NO                            : ONE LINE PER DEPTH STEP
 DLM               .         SPACE                         : DELIMITING CHARACTER(SPACE TAB OR COMMA)
~Well Information
#_______________________________________________________________________________
#
#PARAMETER_NAME    .UNIT     VALUE                         : DESCRIPTION
#_______________________________________________________________________________
STRT               .ft       1049.0000                     : First reference value
STOP               .ft       5858.0000                     : Last reference value
STEP               .ft       0.5000                        : Step increment
NULL               .         -999.25                       : Missing value
COMP               .         PRAIRIE STATE GENERATING CO, LLC: Company
WELL               .         LIVELY GROVE #1               : Well name
FLD                .         N/A                           : Field
LOC                .                                       : Location
CNTY               .         WASHINGTON                    : County
STAT               .         ILLINOIS                      : State
CTRY               .         USA                           : Country
SRVC               .         Schlumberger                  : Service Company
DATE               .         13-Aug-2021                   : Date
UWI                .                                       : Unique Well ID
APD                .ft       16                            : Elevation of Depth Reference (LMF) Above Permanent Datum
API                .         12-189-24947-00               : 
BHS                .         OPEN                          : Borehole Status (Open or Cased Hole)
BHT                .degF     115                           : Bottom Hole Temperature
BLI                .ft       5888                          : Bottom Log Interval
BS                 .in       8.5                           : Bit Size
CBDR               .ft       1049                          : Casing Bottom of Driller
CBLO               .ft       1049                          : Logger Casing Shoe Depth
CSIZ               .in       9.625                         : Current Casing Size
CWEI               .lbm/ft   36                            : Casing Weight
DCS                .         11-Aug-2021                   : Date Circulation Stopped
DFD                .lbm/gal  9.35                          : Drilling Fluid Density
DFT                .         FRESH WBM                     : Drilling Fluid Type
DLAB               .         12-Aug-2021                   : Date Logger At Bottom
EDF                .ft       477                           : Elevation of Drill Floor
EGL                .ft       461                           : Elevation of Ground Level
EKB                .ft       477                           : Elevation of Kelly Bushing
EPD                .ft       461                           : Elevation of Permanent Datum (PDAT) above Mean Sea Level
LMF                .         KB                            : Logging Measured From (Name of Logging Elevation Reference)
LUL                .         BRADFORD, PA                  : Logging Unit Location
LUN                .         OSLC 2266                     : Logging Unit Number
LATI               .         38.352151 degrees             : Latitude
LONG               .         -89.644768 degrees            : Longitude
MCST               .degF     81.9                          : Mudcake Sample Temperature
MFST               .degF     81.9                          : Mud Filtrate Sample Temperature
MRT                .degF     115                           : Maximum Recorded Temperature
MST                .degF     81.9                          : Mud Sample Temperature
ORIGINALWELLNAME   .         LIVELY GROVE #1               : 
PDAT               .         GL                            : Permanent Datum
PRODUCER-CODE      .         440                           : 
PRODUCER-NAME      .         Schlumberger                  : 
RMB                .ohm.m    0.9233273                     : Resistivity of Mud at Bottom Hole Temperature
RMCS               .ohm.m    1.44                          : Resistivity of Mud Cake Sample
RMFS               .ohm.m    1.033                         : Resistivity of Mud Filtrate Sample
RMS                .ohm.m    1.268                         : Resistivity of Mud Sample
RUN                .         RUN 1D                        : Run Number
TCS                .         13_00_00                      : Time Circulation Stopped
TDD                .ft       5888.35                       : Driller Total Depth
TDL                .ft       5888.35                       : Logger Total Depth
TLAB               .         17_08_00                      : Time Logger At Bottom
TLI                .ft       1049                          : Top Log Interval
~Parameter Information Block
#_______________________________________________________________________________
#
#PARAMETER_NAME    .UNIT     VALUE                         : DESCRIPTION
#_______________________________________________________________________________
SET                .         0_PnS_Aniso                   : 
TLFamily_BS        .         Bit Size                      : 
TLFamily_DEVIM     .         Hole Deviation                : 
TLFamily_DPHZ      .         Density Porosity              : 
TLFamily_DTCO_MF_DDBHC .         Compressional Slowness        : 
TLFamily_DTCO_MF_R .         Compressional Slowness        : 
TLFamily_DTCO_MF_T .         Compressional Slowness        : 
TLFamily_DTSH_FAST_DDBHC .         Fast Shear Slowness           : 
TLFamily_DTSH_FAST_R .         Fast Shear Slowness           : 
TLFamily_DTSH_FAST_T .         Fast Shear Slowness           : 
TLFamily_DTSH_SLOW_DDBHC .         Slow Shear Slowness           : 
TLFamily_DTSH_SLOW_R .         Slow Shear Slowness           : 
TLFamily_DTSH_SLOW_T .         Slow Shear Slowness           : 
TLFamily_FSA_NAZ   .         Fast Shear Azimuth            : 
TLFamily_FSA_NAZ_ERR .         Fast Shear Azimuth            : 
TLFamily_FSA_NAZ_ERRMINUS .         Fast Shear Azimuth            : 
TLFamily_FSA_NAZ_ERRPLUS .         Fast Shear Azimuth            : 
TLFamily_FSA_NAZ_IN .         Fast Shear Azimuth            : 
TLFamily_GR_EDTC   .         Gamma Ray                     : 
TLFamily_HAZIM     .         Hole Azimuth                  : 
TLFamily_HDAR      .         Borehole Diameter             : 
TLFamily_MAXXENE_OVERALL .         Acoustic Energy               : 
TLFamily_MD        .         Measured Depth                : 
TLFamily_MINXENE_OVERALL .         Acoustic Energy               : 
TLFamily_P1NO_MAST .         Pad A North                   : 
TLFamily_PEFZ      .         Photoelectric Factor          : 
TLFamily_PR_FAST   .         Poisson Ratio (Dynamic)       : 
TLFamily_SDEVM     .         Sonde Deviation               : 
TLFamily_SENSOR_AZIM_QCI .         Sensor Azimuth                : 
TLFamily_SLOANI    .         Acoustic Anisotropy           : 
TLFamily_SPHI      .         Total Porosity                : 
TLFamily_TDIF_ALT_OVERALL .         Time Interval                 : 
TLFamily_TDIF_ORG_OVERALL .         Time Interval                 : 
TLFamily_TENS      .         Tension                       : 
TLFamily_TIMANI    .         Acoustic Anisotropy           : 
TLFamily_TNPH      .         Thermal Neutron Porosity      : 
TLFamily_TW_B_L6   .         Travel Time                   : 
TLFamily_TW_E_L6   .         Travel Time                   : 
TLFamily_VPVS_FAST .         VpVs (Compressional To Shear) Ratio: 
TLFamily_XENEDIF   .         Acoustic Energy               : 
~Curve Information
#_______________________________________________________________________________
#
#LOGNAME           .UNIT     LOG_ID                        : DESCRIPTION
#_______________________________________________________________________________
MD                 .ft                                     : Measured Depth
BS                 .in                                     : Bit Size 
DEVIM              .deg                                    : Memorized Deviation 
DPHZ               .ft3/ft3                                : Standard Resolution Density Porosity <_techsia_lb_>F11 
DTCO_MF_DDBHC      .us/ft                                  : Compressional slowness 
DTCO_MF_R          .us/ft                                  : Compressional slowness 
DTCO_MF_T          .us/ft                                  : Compressional slowness 
DTSH_FAST_DDBHC    .us/ft                                  : Shear slowness 
DTSH_FAST_R        .us/ft                                  : Shear slowness 
DTSH_FAST_T        .us/ft                                  : Shear slowness 
DTSH_SLOW_DDBHC    .us/ft                                  : Shear slowness 
DTSH_SLOW_R        .us/ft                                  : Shear slowness 
DTSH_SLOW_T        .us/ft                                  : Shear slowness 
FSA_NAZ            .deg                                    : Fast shear azimuth(NAZ REF90) - overall - swapped 
FSA_NAZ_ERR        .deg                                    : Fast shear azimuth error, reference frame NAZ 
FSA_NAZ_ERRMINUS   .deg                                    : Fast shear azimuth error minus(NAZ REF90) - swapped 
FSA_NAZ_ERRPLUS    .deg                                    : Fast shear azimuth error plus(NAZ REF90) - swapped 
FSA_NAZ_IN         .deg                                    : Fast Shear Azimuth Indicator 
GR_EDTC            .gAPI                                   : Gamma Ray 
HAZIM              .deg                                    : Memorized Hole Azimuth 
HDAR               .in                                     : Hole Diameter from Area 
MAXXENE_OVERALL    .unitless                               : Maximum cross energy - overall 
MINXENE_OVERALL    .unitless                               : Minimum cross energy - overall 
P1NO_MAST          .deg                                    : Pad 1 Azimuth in Plane Orthogonal to Tool Axis (0 = True North), memorized to MAST 
PEFZ               .                                       : Standard Resolution Formation Photoelectric Factor <_techsia_lb_>F11 
PR_FAST            .unitless                               : Possion's Ratio 
SDEVM              .deg                                    : Memorized Sonde Deviation 
SENSOR_AZIM_QCI    .deg                                    : Tool azimuth for input QC 
SLOANI             .%                                      : Slowness-Based Anisotropy 
SPHI               .ft3/ft3                                : Total porosity from Sonic 
TDIF_ALT_OVERALL   .s                                      : Arrival time difference between fast and slow waves(alternate) - overall - swapped 
TDIF_ORG_OVERALL   .s                                      : Arrival time difference between fast and slow waves(original) - overall - swapped 
TENS               .lbf                                    : Cable Tension 
TIMANI             .%                                      : Time-Based Anisotropy 
TNPH               .ft3/ft3                                : Thermal Neutron Porosity (Ratio Method) in Selected Lithology <_techsia_lb_>F11 
TW_B_L6            .us                                     : Time window begin - packed 
TW_E_L6            .us                                     : Time window end - packed 
VPVS_FAST          .unitless                               : VpVs Ratio 
XENEDIF            .unitless                               : Energy-Based Anisotropy 
~Ascii
1049.0000  8.5000     0.9969     -0.5650    114.5250   104.3866   124.6635   243.6611   281.0280   206.2943   244.8200   283.2248   206.4152   80.3489    10.0500    70.2989    90.3989    -999.2500  55.2248    196.2045   6.7148     0.1848     0.0804     304.4425   9.3226     0.3582     0.9969     292.9654   0.4745     0.4737     -0.0004    0.0000     1685.0000  1.0621     0.7460     3127.3350  6127.3350  2.1276     10.4413   
1049.5000  8.5000     1.0636     -0.3266    115.2059   104.0617   126.3500   250.2579   301.0718   199.4439   251.7371   303.6864   199.7878   79.1410    9.9626     69.1785    89.1036    -999.2500  60.0075    208.3858   7.0517     0.1598     0.0622     305.1448   7.6101     0.3655     1.0636     294.5453   0.5893     0.4785     -0.0004    0.0000     1686.9525  1.0542     0.6390     3160.2888  6160.2891  2.1723     9.7632    
1050.0000  8.5000     1.1310     -0.0009    118.8122   105.7528   131.8716   252.4825   307.6005   197.3644   254.5824   310.4844   198.6804   77.6505    9.4254     68.2251    87.0758    -999.2500  71.1054    217.3191   7.4832     0.1454     0.0513     305.7064   5.4009     0.3578     1.1310     295.6458   0.8283     0.5040     -0.0004    0.0000     1696.7144  1.0980     0.6212     3201.2600  6201.2603  2.1251     9.4041    
1050.5000  8.5000     1.1931     0.2419     125.2477   107.6069   142.8886   252.7652   308.1660   197.3644   253.8917   310.2961   197.4873   76.7880    9.5528     67.2352    86.3408    -999.2500  80.0015    224.4436   8.1444     0.1343     0.0475     306.1890   3.5322     0.3373     1.1931     296.3236   0.4447     0.5495     -0.0004    0.0000     1716.4546  1.0941     0.5628     3247.9104  6247.9102  2.0181     8.6774    
1051.0000  8.5000     1.2447     0.3037     126.7542   108.8830   144.6253   253.0961   306.4194   199.7728   254.1351   307.3365   200.9338   75.1202    10.2206    64.8995    85.3408    -999.2500  81.4901    230.2248   8.8352     0.1210     0.0461     306.6180   2.6704     0.3326     1.2447     297.3042   0.4097     0.5601     -0.0004    0.0000     1736.5238  1.0119     0.6834     3296.3865  6296.3862  1.9967     7.4874    
1051.5000  8.5000     1.2796     0.3490     128.4599   112.9855   143.9343   253.2399   303.5417   202.9381   254.1396   304.5607   203.7185   72.8704    10.8219    62.0484    83.6923    -999.2500  79.1158    234.2723   9.4156     0.1101     0.0462     307.3101   2.3801     0.3268     1.2796     298.7153   0.3546     0.5722     -0.0004    0.0000     1703.9546  0.9045     0.6409     3325.3125  6325.3125  1.9714     6.3901    
1052.0000  8.5000     1.2991     0.3710     130.0854   121.4703   138.7006   256.2245   301.5774   210.8717   257.7426   302.5757   212.9095   71.4634    11.8357    59.6276    83.2991    -999.2500  77.0309    236.7352   9.9340     0.1010     0.0481     308.3874   2.4253     0.3264     1.2991     299.8337   0.5907     0.5836     -0.0004    0.0000     1690.6666  0.7776     0.7172     3331.3752  6331.3755  1.9697     5.2853    
1052.5000  8.5000     1.3090     0.4609     130.6261   131.7510   129.5013   257.4627   297.1183   217.8072   258.8915   298.8230   218.9600   71.0234    13.1871    57.8363    84.2105    -999.2500  74.5145    238.3566   10.3638    0.0944     0.0512     309.3471   2.4471     0.3267     1.3090     300.7953   0.5534     0.5875     -0.0004    0.0000     1686.1906  0.6435     0.7873     3319.9712  6319.9712  1.9710     4.3228    
1053.0000  8.5000     1.3134     0.4854     128.3141   138.5536   118.0746   247.5548   275.4333   219.6762   248.9006   276.8910   220.9102   70.4880    13.7333    56.7548    84.2213    -999.2500  71.9931    239.4913   10.9384    0.0920     0.0535     310.3288   2.4308     0.3163     1.3134     301.3396   0.5422     0.5711     -0.0004    0.0000     1684.3810  0.5598     0.6547     3279.0193  6279.0195  1.9293     3.8472    
1053.5000  8.5000     1.3147     0.4141     117.5045   135.9470   99.0619    235.4623   251.0744   219.8502   237.0533   252.3596   221.7469   70.4141    12.9153    57.4988    83.3294    -999.2500  74.2773    240.1333   11.4376    0.0920     0.0514     311.4543   2.4174     0.3342     1.3147     301.7260   0.6734     0.4947     -0.0004    0.0000     1700.4546  0.5386     0.5148     3207.1887  6207.1890  2.0039     4.0619    
1054.0000  8.5000     1.3146     0.2580     107.7497   124.3949   91.1045    228.8521   238.9594   218.7448   230.3776   240.7446   220.0107   71.0973    13.1324    57.9649    84.2297    -999.2500  77.8677    240.6164   11.5993    0.0966     0.0523     312.5333   2.5117     0.3576     1.3146     301.9398   0.6644     0.4258     -0.0004    0.0000     1693.9524  0.5515     0.4588     3119.3381  6119.3384  2.1239     4.4282    
1054.5000  8.5000     1.3126     0.1513     97.4246    108.7335   86.1158    224.5204   231.5122   217.5287   226.2398   233.5764   218.9031   71.9567    14.9049    57.0518    86.8617    -999.2500  80.9933    241.0532   11.3589    0.1049     0.0617     313.4046   2.6504     0.3840     1.3126     302.5875   0.7629     0.3528     -0.0004    0.0000     1685.0476  0.5861     0.4056     3035.6072  6035.6069  2.3046     4.3205    
1055.0000  8.5000     1.3114     0.1058     93.6566    97.7295    89.5837    219.0802   222.2996   215.8609   220.3730   224.4645   216.2814   76.5103    17.8801    58.6296    94.3925    -999.2500  77.0051    241.4012   11.0883    0.1142     0.0798     314.5359   2.8286     0.3882     1.3114     303.1812   0.5883     0.3262     -0.0004    0.0000     1700.9048  0.5825     0.3720     2969.7349  5969.7349  2.3392     3.4391    
1055.5000  8.5000     1.3115     0.1187     98.7887    96.8312    100.7462   211.6512   213.1978   210.1045   213.4948   215.0739   211.9156   82.5602    19.9974    62.5626    102.5579   -999.2500  73.4476    241.6464   11.2266    0.1261     0.1024     315.3627   3.0459     0.3607     1.3115     303.3759   0.8673     0.3625     -0.0004    0.0000     1730.5908  0.4724     0.3716     2919.6165  5919.6167  2.1425     2.3740    
1056.0000  8.5000     1.3120     0.1258     101.3578   100.7904   101.9252   198.3298   199.3824   197.2773   199.6587   200.6130   198.7044   88.1153    21.2307    66.8843    109.3466   -999.2500  71.2948    241.8499   11.2716    0.1435     0.1225     315.8505   3.2636     0.3232     1.3120     303.5040   0.6678     0.3806     -0.0005    0.0000     1736.7367  0.3065     0.3574     2868.3550  5868.3555  1.9567     2.0973    
1056.5000  8.5000     1.3137     0.1219     103.2715   105.0288   101.5142   179.9184   179.1508   180.6860   180.5054   179.8604   181.1503   93.2736    21.5514    71.7222    114.8250   -999.2500  73.2770    242.1534   11.6752    0.1604     0.1370     316.6669   3.4591     0.2543     1.3137     303.9306   0.3257     0.3941     -0.0005    0.0000     1743.2699  0.2099     0.3749     2794.8054  5794.8057  1.7422     2.3392    
1057.0000  8.5000     1.3174     0.1113     103.3729   106.9204   99.8255    167.0927   166.2665   167.9189   167.9066   166.7474   169.0658   94.0382    20.8729    73.1654    114.9111   -999.2500  76.5456    242.6359   12.0229    0.1667     0.1454     317.5491   3.5670     0.1900     1.3174     304.5488   0.4859     0.3949     -0.0005    0.0000     1750.1906  0.2151     0.3275     2699.2732  5699.2729  1.6164     2.1288    
1057.5000  8.5000     1.3228     0.0887     99.9354    104.2491   95.6217    155.6496   152.7861   158.5132   156.4887   153.3815   159.5959   92.6371    21.3699    71.2671    114.0070   -999.2500  75.0208    243.1096   11.7871    0.1686     0.1565     318.4030   3.5226     0.1493     1.3228     305.3161   0.5376     0.3706     -0.0005    0.0000     1742.9546  0.2790     0.3441     2598.7917  5598.7915  1.5575     1.2097    
1058.0000  8.5000     1.3295     0.0798     92.7310    98.3034    87.1587    143.1866   139.4356   146.9377   143.8707   140.4040   147.3375   88.6001    20.6973    67.9030    109.2972   -999.2500  65.5859    243.5166   11.9917    0.1710     0.1606     319.3776   3.3024     0.1388     1.3295     305.8248   0.4766     0.3197     -0.0005    0.0000     1746.2684  0.4309     0.3337     2500.9092  5500.9092  1.5441     1.0445    
