~Version
 VERS              .         2.0                           : CWLS LOG ASCII STANDARD - VERSION 2.0
 WRAP              .         NO                            : ONE LINE PER DEPTH STEP
 DLM               .         SPACE                         : DELIMITING CHARACTER(SPACE TAB OR COMMA)
~Well Information
#_______________________________________________________________________________
#
#PARAMETER_NAME    .UNIT     VALUE                         : DESCRIPTION
#_______________________________________________________________________________
STRT               .ft       1050.0000                     : First reference value
STOP               .ft       5850.0000                     : Last reference value
STEP               .ft       0.5000                        : Step increment
NULL               .         -999.25                       : Missing value
COMP               .         PRAIRIE STATE GENERATING CO, LLC: Company
WELL               .         LIVELY GROVE #1               : Well name
FLD                .         N/A                           : Field
LOC                .                                       : Location
CNTY               .         WASHINGTON                    : County
STAT               .         ILLINOIS                      : State
CTRY               .                                       : Country
SRVC               .         Schlumberger                  : Service Company
DATE               .         12-Aug-2021                   : Date
UWI                .                                       : Unique Well ID
APD                .ft       16                            : Elevation of Depth Reference (LMF) Above Permanent Datum
API                .         12-189-24947-00               : 
BHS                .         OPEN                          : Borehole Status (Open or Cased Hole)
BHT                .degF     115                           : Bottom Hole Temperature
BLI                .ft       5885.95                       : Bottom Log Interval
BS                 .in       8.5                           : Bit Size
CBDR               .ft       1049                          : Casing Bottom of Driller
CBLO               .ft       1049                          : Logger Casing Shoe Depth
CSIZ               .in       9.625                         : Current Casing Size
CWEI               .lbm/ft   36                            : Casing Weight
DCS                .         11-Aug-2021                   : Date Circulation Stopped
DFD                .lbm/gal  9.35                          : Drilling Fluid Density
DFT                .         FRESH WBM                     : Drilling Fluid Type
DLAB               .         12-Aug-2021                   : Date Logger At Bottom
EDF                .ft       477                           : Elevation of Drill Floor
EGL                .ft       461                           : Elevation of Ground Level
EKB                .ft       477                           : Elevation of Kelly Bushing
EPD                .ft       461                           : Elevation of Permanent Datum (PDAT) above Mean Sea Level
LMF                .         KB                            : Logging Measured From (Name of Logging Elevation Reference)
LUL                .         BRADFORD, PA                  : Logging Unit Location
LUN                .         OSLC 2266                     : Logging Unit Number
LATI               .dega     0.00000000                    : Latitude
LONG               .         -89.644768 degrees            : Longitude
MCST               .degF     81.9                          : Mudcake Sample Temperature
MFST               .degF     81.9                          : Mud Filtrate Sample Temperature
MRT                .degF     115                           : Maximum Recorded Temperature
MST                .degF     81.9                          : Mud Sample Temperature
ORIGINALWELLNAME   .         LIVELY GROVE #1               : 
PDAT               .         GL                            : Permanent Datum
PRODUCER-CODE      .         440                           : 
PRODUCER-NAME      .         Schlumberger                  : 
RMB                .ohm.m    0.9233273                     : Resistivity of Mud at Bottom Hole Temperature
RMCS               .ohm.m    1.44                          : Resistivity of Mud Cake Sample
RMFS               .ohm.m    1.033                         : Resistivity of Mud Filtrate Sample
RMS                .ohm.m    1.268                         : Resistivity of Mud Sample
RUN                .         RUN 1B                        : Run Number
TCS                .         17_00_00                      : Time Circulation Stopped
TDD                .ft       5888                          : Driller Total Depth
TDL                .ft       5888.35                       : Logger Total Depth
TLAB               .         07_19_00                      : Time Logger At Bottom
TLI                .ft       1049                          : Top Log Interval
~Parameter Information Block
#_______________________________________________________________________________
#
#PARAMETER_NAME    .UNIT     VALUE                         : DESCRIPTION
#_______________________________________________________________________________
SET                .         0_CP_MP_Delivered             : 
TLFamily_BS        .         Bit Size                      : 
TLFamily_C44       .         Elastic Modulus               : 
TLFamily_C55       .         Elastic Modulus               : 
TLFamily_C66       .         Elastic Modulus               : 
TLFamily_DEVIM     .         Hole Deviation                : 
TLFamily_DPHZ      .         Density Porosity              : 
TLFamily_DTCO_MF_DDBHC .     Compressional Slowness        : 
TLFamily_DTSH_FAST_DDBHC .   Fast Shear Slowness           : 
TLFamily_DTSH_SLOW_DDBHC .   Slow Shear Slowness           : 
TLFamily_DTSH_STRVP .        Stoneley Shear Slowness       : 
TLFamily_GAMMA     .         Regularization Factor         : 
TLFamily_GR_EDTC   .         Gamma Ray                     : 
TLFamily_HCAL      .         Caliper                       : 
TLFamily_ISHE      .         Shear Strength                : 
TLFamily_MAXXENE_OVERALL .   Acoustic Energy               : 
TLFamily_MD        .         Measured Depth                : 
TLFamily_MINXENE_OVERALL .   Acoustic Energy               : 
TLFamily_PPGI      .         Pore Pressure Gradient        : 
TLFamily_PR_HH     .         Poisson Ratio (Dynamic)       : 
TLFamily_PR_VH     .         Poisson Ratio (Dynamic)       : 
TLFamily_RHOZ      .         Bulk Density                  : 
TLFamily_RHOZ_EDT  .         Bulk Density                  : 
TLFamily_SDEVM     .         Sonde Deviation               : 
TLFamily_SLOANI    .         Acoustic Anisotropy           : 
TLFamily_SPHI      .         Total Porosity                : 
TLFamily_TNPH      .         Thermal Neutron Porosity      : 
TLFamily_TSTR      .         Tensile Strength              : 
TLFamily_TXSG_ANISO .        Minimum Horizontal Stress Gradient: 
TLFamily_TXSG_ISO  .         Minimum Horizontal Stress Gradient: 
TLFamily_TXSP_ANISO .         Minimum Horizontal Stress     : 
TLFamily_TZSG      .         Vertical Stress Gradient      : 
TLFamily_UCS       .         Compressive Strength          : 
TLFamily_YME_H_STA .         Young's Modulus (Dynamic)     : 
TLFamily_YME_V_STA .         Young's Modulus (Dynamic)     : 
~Curve Information
#_______________________________________________________________________________
#
#LOGNAME           .UNIT     LOG_ID                        : DESCRIPTION
#_______________________________________________________________________________
MD                 .ft                                     : Measured Depth 
BS                 .in                                     : Bit Size 
C44                .Mpsi                                   : C44 Modulus 
C55                .Mpsi                                   : C55 Modulus 
C66                .Mpsi                                   : C66 Modulus 
DEVIM              .deg                                    : Memorized Deviation 
DPHZ               .ft3/ft3                                : Standard Resolution Density Porosity (F11 
DTCO_MF_DDBHC      .us/ft                                  : Compressional slowness 
DTSH_FAST_DDBHC    .us/ft                                  : Fast Shear slowness 
DTSH_SLOW_DDBHC    .us/ft                                  : Slow Shear slowness 
DTSH_STRVP         .us/ft                                  : Horizontal Shear
GAMMA              .unitless                               : Thomsens Anisotropy Parameter Gamma 
GR_EDTC            .gAPI                                   : Gamma Ray 
HCAL               .IN                                     : HRCC Caliper Calibrated (F11 
ISHE               .psi                                    : Cohesive Strength 
MAXXENE_OVERALL    .unitless                               : Maximum cross energy - overall 
MINXENE_OVERALL    .unitless                               : Minimum cross energy - overall 
PPGI               .psi/ft                                 : Pore Pressure Gradient 
PR_HH              .unitless                               : Poissons Ratio - Loading Horizontal - Displacement Horizontal 
PR_VH              .unitless                               : Poissons Ratio - Loading Vertical - Displacement Horizontal 
RHOZ               .g/cm3                                  : Standard Resolution Formation Density 
RHOZ_EDT           .g/cm3                                  : Standard Resolution Formation Density 
SDEVM              .deg                                    : Memorized Sonde Deviation 
SLOANI             .%                                      : Slowness-Based Anisotropy 
SPHI               .ft3/ft3                                : Total porosity from Sonic 
TNPH               .ft3/ft3                                : Thermal Neutron Porosity (Ratio Method) in Selected Lithology (F11 
TSTR               .psi                                    : Tensile Strength 
TXSG_ANISO         .psi/ft                                 : Anisotropic Minimum Horizontal Stress Gradient 
TXSG_ISO           .psi/ft                                 : Isotropic Minimum Horizontal Stress Gradient 
TXSP_ANISO         .psi                                    : Anisotropic Minimum Horizontal Stress 
TZSG               .psi/ft                                 : Overburden Stress Gradient 
UCS                .psi                                    : Unconfined Compressive Strength 
YME_H_STA          .Mpsi                                   : Static Horizontal Youngs Modulus 
YME_V_STA          .Mpsi                                   : Static Vertical Youngs Modulus 
~Ascii
# ...
2007.0000  8.5000     1.4763     1.4763     2.3545     1.0367     0.0197     80.8224    154.2290   154.9032   122.3879   0.2975     75.1302    9.2756     2260.5339  0.0161     0.0119     0.4800     0.2213     0.2548     2.6174     2.6174     1.0367     0.4362     0.2355     0.2279     630.5190   0.8559     0.7966     1717.5275  1.1000     7566.2280  3.2093     2.1446    
2007.5000  8.5000     1.5342     1.5342     2.4362     1.0349     0.0168     80.0454    151.0828   152.4444   120.4311   0.2940     74.1716    9.2967     2344.0859  0.0159     0.0117     0.4800     0.2184     0.2505     2.6223     2.6223     1.0349     0.8972     0.2300     0.2327     657.8410   0.8526     0.7929     1711.3424  1.1000     7894.0918  3.3379     2.2323    
2008.0000  8.5000     1.6170     1.6170     2.5416     1.0325     0.0071     78.3778    147.5546   149.0023   118.2663   0.2859     76.5695    9.3179     2525.8567  0.0157     0.0116     0.4800     0.2192     0.2506     2.6383     2.6383     1.0325     0.9763     0.2182     0.2237     718.7670   0.8571     0.7969     1720.9874  1.1000     8625.2041  3.5203     2.3739    
2008.5000  8.5000     1.6898     1.6898     2.6336     1.0299     0.0032     76.5433    144.6464   145.8006   116.3237   0.2793     75.6844    9.1909     2727.4316  0.0155     0.0116     0.4800     0.2219     0.2532     2.6447     2.6447     1.0299     0.7948     0.2053     0.2187     787.4354   0.8661     0.8051     1739.3231  1.1000     9449.2246  3.6888     2.5088    
2009.0000  8.5000     1.7349     1.7349     2.6813     1.0268     0.0009     74.8418    142.9131   143.9353   115.3664   0.2728     72.3253    9.1274     2916.5977  0.0155     0.0115     0.4800     0.2276     0.2599     2.6485     2.6485     1.0268     0.7127     0.1932     0.2146     854.0919   0.8793     0.8179     1766.3384  1.1000     10249.1025 3.7936     2.6079    
2009.5000  8.5000     1.7465     1.7465     2.6455     1.0234     0.0068     74.1975    142.2174   143.1482   115.9296   0.2574     67.0499    9.1274     2898.7134  0.0152     0.0114     0.4800     0.2326     0.2642     2.6387     2.6387     1.0234     0.6524     0.1887     0.2141     861.4836   0.8806     0.8221     1769.3275  1.1000     10337.8027 3.7499     2.6264    
2010.0000  8.5000     1.7372     1.7372     2.5859     1.0197     0.0095     74.7228    142.6234   143.2665   117.1615   0.2443     64.2282    9.1274     2757.1548  0.0150     0.0114     0.4800     0.2335     0.2636     2.6344     2.6344     1.0197     0.4499     0.1924     0.2036     824.6469   0.8716     0.8164     1751.7853  1.1000     9895.7617  3.6490     2.5909    
2010.5000  8.5000     1.7333     1.7333     2.5737     1.0157     0.0077     75.3461    142.9613   143.4148   117.5049   0.2425     64.4940    9.1274     2682.0205  0.0148     0.0114     0.4800     0.2311     0.2602     2.6373     2.6373     1.0157     0.3168     0.1968     0.2053     800.1821   0.8642     0.8098     1737.3420  1.1000     9602.1846  3.6188     2.5700    
2011.0000  8.5000     1.7282     1.7282     2.6081     1.0116     0.0040     75.7685    143.3232   143.8044   116.8611   0.2546     66.2502    9.1591     2704.6250  0.0147     0.0114     0.4800     0.2269     0.2565     2.6434     2.6434     1.0116     0.3351     0.1998     0.2153     797.8499   0.8633     0.8066     1735.8798  1.1000     9574.1982  3.6633     2.5623    
2011.5000  8.5000     1.7159     1.7159     2.6126     1.0074     0.0133     75.8793    143.3292   143.9926   116.4238   0.2613     66.7749    9.1591     2693.0735  0.0146     0.0114     0.4800     0.2250     0.2550     2.6281     2.6281     1.0074     0.4618     0.2006     0.2228     790.1724   0.8626     0.8049     1735.0137  1.1000     9482.0693  3.6640     2.5422    
2012.0000  8.5000     1.6983     1.6983     2.5745     1.0032     0.0196     75.8915    143.8119   144.4209   117.0483   0.2580     68.1801    9.1591     2650.8823  0.0147     0.0117     0.4800     0.2271     0.2572     2.6177     2.6177     1.0032     0.4226     0.2006     0.2222     779.5545   0.8632     0.8064     1736.5107  1.1000     9354.6533  3.6056     2.5137    
2012.5000  8.5000     1.6872     1.6872     2.5875     0.9998     0.0130     75.8840    144.4985   145.2835   116.9973   0.2668     68.6395    9.1909     2710.4805  0.0149     0.0119     0.4800     0.2274     0.2588     2.6286     2.6286     0.9998     0.5418     0.2006     0.2182     792.2020   0.8693     0.8107     1749.2828  1.1000     9506.4238  3.6293     2.5090    
2013.0000  8.5000     1.7026     1.7026     2.6396     0.9956     -0.0024    75.8886    144.4341   145.4202   116.3924   0.2752     69.9553    9.1697     2803.6616  0.0150     0.0122     0.4800     0.2256     0.2576     2.6539     2.6539     0.9956     0.6804     0.2006     0.2135     814.7025   0.8728     0.8120     1756.7062  1.1000     9776.4297  3.7132     2.5427    
2013.5000  8.5000     1.7124     1.7124     2.7004     0.9913     -0.0148    75.8768    144.4592   145.6837   115.5213   0.2885     69.2807    9.1591     2914.7515  0.0151     0.0125     0.4800     0.2231     0.2561     2.6745     2.6745     0.9913     0.8440     0.2005     0.2074     839.4697   0.8777     0.8138     1767.0242  1.1000     10073.6367 3.8097     2.5711    
2014.0000  8.5000     1.7104     1.7104     2.7084     0.9871     -0.0188    76.0487    144.7148   145.9573   115.4911   0.2918     67.2815    9.1591     2922.6262  0.0151     0.0127     0.4800     0.2222     0.2553     2.6810     2.6810     0.9871     0.8549     0.2018     0.2114     839.0974   0.8777     0.8132     1767.4667  1.1000     10069.1689 3.8202     2.5684    
2014.5000  8.5000     1.6910     1.6910     2.6856     0.9826     -0.0153    76.3854    145.5818   146.4252   115.8540   0.2941     69.3044    9.1380     2875.4331  0.0152     0.0128     0.4800     0.2218     0.2550     2.6752     2.6752     0.9826     0.5777     0.2041     0.2121     822.7651   0.8763     0.8119     1765.1013  1.1000     9873.1807  3.7788     2.5341    
2015.0000  8.5000     1.6608     1.6608     2.6324     0.9780     -0.0056    76.7975    146.5767   147.2000   116.6711   0.2925     74.1840    9.1697     2778.8730  0.0153     0.0128     0.4800     0.2224     0.2556     2.6593     2.6593     0.9780     0.4243     0.2070     0.2200     794.1548   0.8734     0.8102     1759.8190  1.1000     9529.8574  3.6887     2.4786    
2015.5000  8.5000     1.6216     1.6216     2.5738     0.9731     0.0091     77.3605    147.6067   148.3367   117.4529   0.2936     76.1976    9.1697     2662.7627  0.0154     0.0129     0.4800     0.2222     0.2555     2.6350     2.6350     0.9731     0.4934     0.2110     0.2178     758.1301   0.8696     0.8072     1752.5435  1.1000     9097.5605  3.5865     2.4071    
2016.0000  8.5000     1.5835     1.5835     2.5068     0.9678     0.0133     77.8729    149.1917   149.8884   118.8534   0.2915     74.9512    9.2121     2572.6794  0.0155     0.0129     0.4800     0.2243     0.2580     2.6280     2.6280     0.9678     0.4659     0.2146     0.2181     731.4414   0.8691     0.8080     1751.9263  1.1000     8777.2969  3.4786     2.3433    
2016.5000  8.5000     1.5522     1.5522     2.4487     0.9622     0.0116     78.4487    150.8595   151.3887   120.3196   0.2888     75.4206    9.2121     2495.6763  0.0158     0.0129     0.4800     0.2262     0.2601     2.6309     2.6309     0.9622     0.3502     0.2187     0.2240     708.5964   0.8684     0.8085     1750.9045  1.1000     8503.1563  3.3857     2.2900    
2017.0000  8.5000     1.5268     1.5268     2.3660     0.9566     0.0088     79.1201    152.2344   152.7865   122.5132   0.2748     78.7262    9.2544     2370.7390  0.0161     0.0129     0.4800     0.2296     0.2627     2.6355     2.6355     0.9566     0.3620     0.2235     0.2259     676.7681   0.8636     0.8071     1741.7551  1.1000     8121.2173  3.2558     2.2372    
2017.5000  8.5000     1.5172     1.5172     2.3457     0.9513     0.0062     79.5529    152.6389   153.5997   123.1411   0.2731     81.0334    9.2967     2327.0415  0.0163     0.0127     0.4800     0.2293     0.2622     2.6398     2.6398     0.9513     0.6275     0.2265     0.2347     663.4934   0.8609     0.8050     1736.6282  1.1000     7961.9209  3.2206     2.2164    
