~Version
 VERS              .         2.0                           : CWLS LOG ASCII STANDARD - VERSION 2.0
 WRAP              .         NO                            : ONE LINE PER DEPTH STEP
 DLM               .         SPACE                         : DELIMITING CHARACTER(SPACE TAB OR COMMA)
~Well Information
#_______________________________________________________________________________
#
#PARAMETER_NAME    .UNIT     VALUE                         : DESCRIPTION
#_______________________________________________________________________________
STRT               .ft       1050.0000                     : First reference value
STOP               .ft       5850.0000                     : Last reference value
STEP               .ft       0.5000                        : Step increment
NULL               .         -999.25                       : Missing value
COMP               .         PRAIRIE STATE GENERATING CO, LLC: Company
WELL               .         LIVELY GROVE #1               : Well name
FLD                .         N/A                           : Field
LOC                .                                       : Location
CNTY               .         WASHINGTON                    : County
STAT               .         ILLINOIS                      : State
CTRY               .                                       : Country
SRVC               .         Schlumberger                  : Service Company
DATE               .         12-Aug-2021                   : Date
UWI                .                                       : Unique Well ID
APD                .ft       16                            : Elevation of Depth Reference (LMF) Above Permanent Datum
API                .         12-189-24947-00               : 
BHS                .         OPEN                          : Borehole Status (Open or Cased Hole)
BHT                .degF     115                           : Bottom Hole Temperature
BLI                .ft       5885.95                       : Bottom Log Interval
BS                 .in       8.5                           : Bit Size
CBDR               .ft       1049                          : Casing Bottom of Driller
CBLO               .ft       1049                          : Logger Casing Shoe Depth
CSIZ               .in       9.625                         : Current Casing Size
CWEI               .lbm/ft   36                            : Casing Weight
DCS                .         11-Aug-2021                   : Date Circulation Stopped
DFD                .lbm/gal  9.35                          : Drilling Fluid Density
DFT                .         FRESH WBM                     : Drilling Fluid Type
DLAB               .         12-Aug-2021                   : Date Logger At Bottom
EDF                .ft       477                           : Elevation of Drill Floor
EGL                .ft       461                           : Elevation of Ground Level
EKB                .ft       477                           : Elevation of Kelly Bushing
EPD                .ft       461                           : Elevation of Permanent Datum (PDAT) above Mean Sea Level
LMF                .         KB                            : Logging Measured From (Name of Logging Elevation Reference)
LUL                .         BRADFORD, PA                  : Logging Unit Location
LUN                .         OSLC 2266                     : Logging Unit Number
LATI               .dega     0.00000000                    : Latitude
LONG               .         -89.644768 degrees            : Longitude
MCST               .degF     81.9                          : Mudcake Sample Temperature
MFST               .degF     81.9                          : Mud Filtrate Sample Temperature
MRT                .degF     115                           : Maximum Recorded Temperature
MST                .degF     81.9                          : Mud Sample Temperature
ORIGINALWELLNAME   .         LIVELY GROVE #1               : 
PDAT               .         GL                            : Permanent Datum
PRODUCER-CODE      .         440                           : 
PRODUCER-NAME      .         Schlumberger                  : 
RMB                .ohm.m    0.9233273                     : Resistivity of Mud at Bottom Hole Temperature
RMCS               .ohm.m    1.44                          : Resistivity of Mud Cake Sample
RMFS               .ohm.m    1.033                         : Resistivity of Mud Filtrate Sample
RMS                .ohm.m    1.268                         : Resistivity of Mud Sample
RUN                .         RUN 1B                        : Run Number
TCS                .         17_00_00                      : Time Circulation Stopped
TDD                .ft       5888                          : Driller Total Depth
TDL                .ft       5888.35                       : Logger Total Depth
TLAB               .         07_19_00                      : Time Logger At Bottom
TLI                .ft       1049                          : Top Log Interval
~Parameter Information Block
#_______________________________________________________________________________
#
#PARAMETER_NAME    .UNIT     VALUE                         : DESCRIPTION
#_______________________________________________________________________________
SET                .         0_CP_MP_Delivered             : 
TLFamily_BS        .         Bit Size                      : 
TLFamily_C44       .         Elastic Modulus               : 
TLFamily_C55       .         Elastic Modulus               : 
TLFamily_C66       .         Elastic Modulus               : 
TLFamily_DEVIM     .         Hole Deviation                : 
TLFamily_DPHZ      .         Density Porosity              : 
TLFamily_DTCO_MF_DDBHC .     Compressional Slowness        : 
TLFamily_DTSH_FAST_DDBHC .   Fast Shear Slowness           : 
TLFamily_DTSH_SLOW_DDBHC .   Slow Shear Slowness           : 
TLFamily_DTSH_STRVP .        Stoneley Shear Slowness       : 
TLFamily_GAMMA     .         Regularization Factor         : 
TLFamily_GR_EDTC   .         Gamma Ray                     : 
TLFamily_HCAL      .         Caliper                       : 
TLFamily_ISHE      .         Shear Strength                : 
TLFamily_MAXXENE_OVERALL .   Acoustic Energy               : 
TLFamily_MD        .         Measured Depth                : 
TLFamily_MINXENE_OVERALL .   Acoustic Energy               : 
TLFamily_PPGI      .         Pore Pressure Gradient        : 
TLFamily_PR_HH     .         Poisson Ratio (Dynamic)       : 
TLFamily_PR_VH     .         Poisson Ratio (Dynamic)       : 
TLFamily_RHOZ      .         Bulk Density                  : 
TLFamily_RHOZ_EDT  .         Bulk Density                  : 
TLFamily_SDEVM     .         Sonde Deviation               : 
TLFamily_SLOANI    .         Acoustic Anisotropy           : 
TLFamily_SPHI      .         Total Porosity                : 
TLFamily_TNPH      .         Thermal Neutron Porosity      : 
TLFamily_TSTR      .         Tensile Strength              : 
TLFamily_TXSG_ANISO .        Minimum Horizontal Stress Gradient: 
TLFamily_TXSG_ISO  .         Minimum Horizontal Stress Gradient: 
TLFamily_TXSP_ANISO .         Minimum Horizontal Stress     : 
TLFamily_TZSG      .         Vertical Stress Gradient      : 
TLFamily_UCS       .         Compressive Strength          : 
TLFamily_YME_H_STA .         Young's Modulus (Dynamic)     : 
TLFamily_YME_V_STA .         Young's Modulus (Dynamic)     : 
~Curve Information
#_______________________________________________________________________________
#
#LOGNAME           .UNIT     LOG_ID                        : DESCRIPTION
#_______________________________________________________________________________
MD                 .ft                                     : Measured Depth 
BS                 .in                                     : Bit Size 
C44                .Mpsi                                   : C44 Modulus 
C55                .Mpsi                                   : C55 Modulus 
C66                .Mpsi                                   : C66 Modulus 
DEVIM              .deg                                    : Memorized Deviation 
DPHZ               .ft3/ft3                                : Standard Resolution Density Porosity (F11 
DTCO_MF_DDBHC      .us/ft                                  : Compressional slowness 
DTSH_FAST_DDBHC    .us/ft                                  : Fast Shear slowness 
DTSH_SLOW_DDBHC    .us/ft                                  : Slow Shear slowness 
DTSH_STRVP         .us/ft                                  : Horizontal Shear
GAMMA              .unitless                               : Thomsens Anisotropy Parameter Gamma 
GR_EDTC            .gAPI                                   : Gamma Ray 
HCAL               .IN                                     : HRCC Caliper Calibrated (F11 
ISHE               .psi                                    : Cohesive Strength 
MAXXENE_OVERALL    .unitless                               : Maximum cross energy - overall 
MINXENE_OVERALL    .unitless                               : Minimum cross energy - overall 
PPGI               .psi/ft                                 : Pore Pressure Gradient 
PR_HH              .unitless                               : Poissons Ratio - Loading Horizontal - Displacement Horizontal 
PR_VH              .unitless                               : Poissons Ratio - Loading Vertical - Displacement Horizontal 
RHOZ               .g/cm3                                  : Standard Resolution Formation Density 
RHOZ_EDT           .g/cm3                                  : Standard Resolution Formation Density 
SDEVM              .deg                                    : Memorized Sonde Deviation 
SLOANI             .%                                      : Slowness-Based Anisotropy 
SPHI               .ft3/ft3                                : Total porosity from Sonic 
TNPH               .ft3/ft3                                : Thermal Neutron Porosity (Ratio Method) in Selected Lithology (F11 
TSTR               .psi                                    : Tensile Strength 
TXSG_ANISO         .psi/ft                                 : Anisotropic Minimum Horizontal Stress Gradient 
TXSG_ISO           .psi/ft                                 : Isotropic Minimum Horizontal Stress Gradient 
TXSP_ANISO         .psi                                    : Anisotropic Minimum Horizontal Stress 
TZSG               .psi/ft                                 : Overburden Stress Gradient 
UCS                .psi                                    : Unconfined Compressive Strength 
YME_H_STA          .Mpsi                                   : Static Horizontal Youngs Modulus 
YME_V_STA          .Mpsi                                   : Static Vertical Youngs Modulus 
~Ascii
# ...
1369.0000  8.5000     2.2038     2.2038     2.2153     1.3217     0.0818     62.0572    123.6842   124.3288   123.6842   0.0000     13.6279    12.4301    2614.8782  0.0305     0.0109     0.4800     0.3326     0.3326     2.5150     2.5150     1.3217     0.5198     0.1029     0.1652     1117.7245  0.9665     0.9665     1323.0482  1.1000     13412.6943 3.3012     3.3012    
1369.5000  8.5000     2.1992     2.1992     2.2119     1.3207     0.0874     61.6987    123.5506   124.2644   123.5506   0.0000     13.7989    12.4301    2636.8518  0.0300     0.0102     0.4800     0.3347     0.3347     2.5058     2.5058     1.3207     0.5761     0.1003     0.1687     1131.8018  0.9708     0.9708     1329.4233  1.1000     13581.6211 3.3001     3.3001    
1370.0000  8.5000     2.2497     2.2497     2.2607     1.3195     0.0927     61.0082    121.9970   122.5929   121.9970   0.0000     13.0620    12.3878    2720.2104  0.0298     0.0095     0.4800     0.3340     0.3340     2.4971     2.4971     1.3195     0.4873     0.0955     0.1627     1177.0278  0.9754     0.9754     1336.1798  1.1000     14124.3350 3.3905     3.3905    
1370.5000  8.5000     2.3319     2.3319     2.3456     1.3182     0.1010     60.2417    119.4388   120.1403   119.4388   0.0000     13.4899    12.3454    2819.4934  0.0299     0.0088     0.4800     0.3303     0.3303     2.4833     2.4833     1.3182     0.5856     0.0900     0.1577     1231.0823  0.9774     0.9774     1339.5112  1.1000     14772.9883 3.5338     3.5338    
1371.0000  8.5000     2.3659     2.3659     2.3834     1.3165     0.0980     59.9876    118.6062   119.4897   118.6062   0.0000     15.2681    12.2396    2874.6577  0.0305     0.0083     0.4800     0.3293     0.3293     2.4883     2.4883     1.3165     0.7421     0.0883     0.1539     1258.9738  0.9795     0.9795     1342.8129  1.1000     15107.6846 3.5965     3.5965    
1371.5000  8.5000     2.3389     2.3389     2.3533     1.3149     0.0883     60.1483    119.7478   120.4848   119.7478   0.0000     15.5580    12.2290    2874.3611  0.0308     0.0079     0.4800     0.3322     0.3322     2.5044     2.5044     1.3149     0.6136     0.0894     0.1471     1256.4346  0.9826     0.9826     1347.5262  1.1000     15077.2148 3.5537     3.5537    
1372.0000  8.5000     2.3128     2.3128     2.3288     1.3130     0.0761     60.2607    120.8575   121.6960   120.8575   0.0000     16.7283    12.2396    2887.9067  0.0301     0.0074     0.4800     0.3356     0.3356     2.5244     2.5244     1.3130     0.6915     0.0902     0.1506     1260.6692  0.9870     0.9870     1354.0634  1.1000     15128.0303 3.5166     3.5166    
1372.5000  8.5000     2.2820     2.2820     2.2963     1.3109     0.0745     60.1980    121.7750   122.5380   121.7750   0.0000     17.4320    12.2819    2886.9392  0.0292     0.0070     0.4800     0.3392     0.3392     2.5271     2.5271     1.3109     0.6246     0.0897     0.1499     1261.1865  0.9912     0.9912     1360.4003  1.1000     15134.2383 3.4695     3.4695    
1373.0000  8.5000     2.2840     2.2840     2.3018     1.3099     0.0839     60.1310    121.2541   122.1976   121.2541   0.0000     16.1882    12.2607    2867.3442  0.0280     0.0067     0.4800     0.3380     0.3380     2.5115     2.5115     1.3099     0.7751     0.0893     0.1565     1253.6256  0.9889     0.9889     1357.6901  1.1000     15043.5068 3.4718     3.4718    
1373.5000  8.5000     2.3462     2.3462     2.3659     1.3093     0.0819     60.1700    119.6787   120.6887   119.6787   0.0000     14.6489    12.2396    2895.4316  0.0264     0.0066     0.4800     0.3321     0.3321     2.5149     2.5149     1.3093     0.8404     0.0895     0.1515     1265.3180  0.9832     0.9832     1350.3209  1.1000     15183.8164 3.5703     3.5703    
1374.0000  8.5000     2.4389     2.4389     2.4573     1.3097     0.0737     59.8293    117.7457   118.6351   117.7457   0.0000     12.6467    12.1972    3002.2375  0.0253     0.0067     0.4800     0.3271     0.3271     2.5284     2.5284     1.3097     0.7526     0.0871     0.1487     1317.3383  0.9834     0.9834     1351.1144  1.1000     15808.0596 3.7272     3.7272    
1374.5000  8.5000     2.5574     2.5574     2.5739     1.3105     0.0609     58.7852    115.5289   116.2799   115.5289   0.0000     12.3948    12.1337    3237.9963  0.0246     0.0067     0.4800     0.3263     0.3263     2.5496     2.5496     1.3105     0.6479     0.0798     0.1317     1438.8098  0.9965     0.9965     1369.5646  1.1000     17265.7168 3.9478     3.9478    
1375.0000  8.5000     2.7699     2.7699     2.7831     1.3117     0.0501     57.1818    111.4867   112.0220   111.4867   0.0000     11.9172    12.0067    3619.6938  0.0237     0.0066     0.4800     0.3223     0.3223     2.5673     2.5673     1.3117     0.4790     0.0684     0.1120     1637.5402  1.0140     1.0140     1394.1838  1.1000     19650.4824 4.3383     4.3383    
1375.5000  8.5000     2.9810     2.9810     2.9928     1.3138     0.0432     55.4038    107.7506   108.1775   107.7506   0.0000     11.4670    11.8797    4150.2607  0.0229     0.0064     0.4800     0.3209     0.3209     2.5787     2.5787     1.3138     0.3953     0.0559     0.0919     1877.5673  1.0380     1.0380     1427.7279  1.1000     22530.8066 4.7435     4.7435    
1376.0000  8.5000     3.1903     3.1903     3.2027     1.3166     0.0302     53.8717    104.5924   105.0005   104.5924   0.0000     12.7794    11.7103    4725.0713  0.0221     0.0062     0.4800     0.3201     0.3201     2.6002     2.6002     1.3166     0.3894     0.0450     0.0809     2137.6101  1.0634     1.0634     1463.1785  1.1000     25651.3223 5.1549     5.1549    
1376.5000  8.5000     3.2954     3.2954     3.3077     1.3192     0.0227     52.7788    103.1637   103.5491   103.1637   0.0000     12.2092    11.6256    5158.6470  0.0214     0.0060     0.4800     0.3233     0.3233     2.6126     2.6126     1.3192     0.3729     0.0373     0.0737     2333.7588  1.0856     1.0856     1494.3002  1.1000     28005.1055 5.3820     5.3820    
1377.0000  8.5000     3.4108     3.4108     3.4257     1.3216     0.0151     52.1555    101.6135   102.0601   101.6135   0.0000     13.7308    11.6044    5470.9419  0.0209     0.0060     0.4800     0.3219     0.3219     2.6251     2.6251     1.3216     0.4385     0.0329     0.0711     2475.0400  1.0974     1.0974     1511.0181  1.1000     29700.4805 5.6099     5.6099    
1377.5000  8.5000     3.4094     3.4094     3.4256     1.3237     0.0182     52.0426    101.5181   102.0017   101.5181   0.0000     13.5282    11.5727    5493.1499  0.0212     0.0060     0.4800     0.3225     0.3225     2.6200     2.6200     1.3237     0.4752     0.0321     0.0689     2485.0869  1.0988     1.0988     1513.5493  1.1000     29821.0430 5.6113     5.6113    
1378.0000  8.5000     3.3892     3.3892     3.4058     1.3256     0.0186     52.1411    101.7987   102.3011   101.7987   0.0000     14.8008    11.5197    5446.1533  0.0213     0.0060     0.4800     0.3230     0.3230     2.6194     2.6194     1.3256     0.4924     0.0328     0.0646     2463.8259  1.0971     1.0971     1511.7821  1.1000     29565.9102 5.5729     5.5729    
1378.5000  8.5000     3.3898     3.3898     3.4088     1.3270     0.0171     52.2676    101.8028   102.3753   101.8028   0.0000     13.3761    11.4562    5410.3066  0.0217     0.0059     0.4800     0.3219     0.3219     2.6218     2.6218     1.3270     0.5608     0.0337     0.0617     2447.6089  1.0945     1.0945     1508.6465  1.1000     29371.3066 5.5702     5.5702    
1379.0000  8.5000     3.4088     3.4088     3.4246     1.3279     0.0082     52.4896    101.8490   102.3215   101.8490   0.0000     12.5542    11.4139    5390.8271  0.0218     0.0059     0.4800     0.3199     0.3199     2.6364     2.6364     1.3279     0.4629     0.0353     0.0603     2438.7964  1.0915     1.0915     1505.1431  1.1000     29265.5566 5.5963     5.5963    
1379.5000  8.5000     3.4027     3.4027     3.4162     1.3282     0.0059     52.5318    102.0476   102.4539   102.0476   0.0000     12.2775    11.3610    5386.3340  0.0213     0.0058     0.4800     0.3204     0.3204     2.6402     2.6402     1.3282     0.3973     0.0356     0.0628     2436.7637  1.0917     1.0917     1505.8595  1.1000     29241.1641 5.5847     5.5847    
