~Version
 VERS              .         2.0                           : CWLS LOG ASCII STANDARD - VERSION 2.0
 WRAP              .         NO                            : ONE LINE PER DEPTH STEP
 DLM               .         SPACE                         : DELIMITING CHARACTER(SPACE TAB OR COMMA)
~Well Information
#_______________________________________________________________________________
#
#PARAMETER_NAME    .UNIT     VALUE                         : DESCRIPTION
#_______________________________________________________________________________
STRT               .ft       1049.0000                     : First reference value
STOP               .ft       5858.0000                     : Last reference value
STEP               .ft       0.5000                        : Step increment
NULL               .         -999.25                       : Missing value
COMP               .         PRAIRIE STATE GENERATING CO, LLC: Company
WELL               .         LIVELY GROVE #1               : Well name
FLD                .         N/A                           : Field
LOC                .                                       : Location
CNTY               .         WASHINGTON                    : County
STAT               .         ILLINOIS                      : State
CTRY               .         USA                           : Country
SRVC               .         Schlumberger                  : Service Company
DATE               .         13-Aug-2021                   : Date
UWI                .                                       : Unique Well ID
APD                .ft       16                            : Elevation of Depth Reference (LMF) Above Permanent Datum
API                .         12-189-24947-00               : 
BHS                .         OPEN                          : Borehole Status (Open or Cased Hole)
BHT                .degF     115                           : Bottom Hole Temperature
BLI                .ft       5888                          : Bottom Log Interval
BS                 .in       8.5                           : Bit Size
CBDR               .ft       1049                          : Casing Bottom of Driller
CBLO               .ft       1049                          : Logger Casing Shoe Depth
CSIZ               .in       9.625                         : Current Casing Size
CWEI               .lbm/ft   36                            : Casing Weight
DCS                .         11-Aug-2021                   : Date Circulation Stopped
DFD                .lbm/gal  9.35                          : Drilling Fluid Density
DFT                .         FRESH WBM                     : Drilling Fluid Type
DLAB               .         12-Aug-2021                   : Date Logger At Bottom
EDF                .ft       477                           : Elevation of Drill Floor
EGL                .ft       461                           : Elevation of Ground Level
EKB                .ft       477                           : Elevation of Kelly Bushing
EPD                .ft       461                           : Elevation of Permanent Datum (PDAT) above Mean Sea Level
LMF                .         KB                            : Logging Measured From (Name of Logging Elevation Reference)
LUL                .         BRADFORD, PA                  : Logging Unit Location
LUN                .         OSLC 2266                     : Logging Unit Number
LATI               .         38.352151 degrees             : Latitude
LONG               .         -89.644768 degrees            : Longitude
MCST               .degF     81.9                          : Mudcake Sample Temperature
MFST               .degF     81.9                          : Mud Filtrate Sample Temperature
MRT                .degF     115                           : Maximum Recorded Temperature
MST                .degF     81.9                          : Mud Sample Temperature
ORIGINALWELLNAME   .         LIVELY GROVE #1               : 
PDAT               .         GL                            : Permanent Datum
PRODUCER-CODE      .         440                           : 
PRODUCER-NAME      .         Schlumberger                  : 
RMB                .ohm.m    0.9233273                     : Resistivity of Mud at Bottom Hole Temperature
RMCS               .ohm.m    1.44                          : Resistivity of Mud Cake Sample
RMFS               .ohm.m    1.033                         : Resistivity of Mud Filtrate Sample
RMS                .ohm.m    1.268                         : Resistivity of Mud Sample
RUN                .         RUN 1D                        : Run Number
TCS                .         13_00_00                      : Time Circulation Stopped
TDD                .ft       5888.35                       : Driller Total Depth
TDL                .ft       5888.35                       : Logger Total Depth
TLAB               .         17_08_00                      : Time Logger At Bottom
TLI                .ft       1049                          : Top Log Interval
~Parameter Information Block
#_______________________________________________________________________________
#
#PARAMETER_NAME    .UNIT     VALUE                         : DESCRIPTION
#_______________________________________________________________________________
SET                .         0_PnS_Aniso                   : 
TLFamily_BS        .         Bit Size                      : 
TLFamily_DEVIM     .         Hole Deviation                : 
TLFamily_DPHZ      .         Density Porosity              : 
TLFamily_DTCO_MF_DDBHC .         Compressional Slowness        : 
TLFamily_DTCO_MF_R .         Compressional Slowness        : 
TLFamily_DTCO_MF_T .         Compressional Slowness        : 
TLFamily_DTSH_FAST_DDBHC .         Fast Shear Slowness           : 
TLFamily_DTSH_FAST_R .         Fast Shear Slowness           : 
TLFamily_DTSH_FAST_T .         Fast Shear Slowness           : 
TLFamily_DTSH_SLOW_DDBHC .         Slow Shear Slowness           : 
TLFamily_DTSH_SLOW_R .         Slow Shear Slowness           : 
TLFamily_DTSH_SLOW_T .         Slow Shear Slowness           : 
TLFamily_FSA_NAZ   .         Fast Shear Azimuth            : 
TLFamily_FSA_NAZ_ERR .         Fast Shear Azimuth            : 
TLFamily_FSA_NAZ_ERRMINUS .         Fast Shear Azimuth            : 
TLFamily_FSA_NAZ_ERRPLUS .         Fast Shear Azimuth            : 
TLFamily_FSA_NAZ_IN .         Fast Shear Azimuth            : 
TLFamily_GR_EDTC   .         Gamma Ray                     : 
TLFamily_HAZIM     .         Hole Azimuth                  : 
TLFamily_HDAR      .         Borehole Diameter             : 
TLFamily_MAXXENE_OVERALL .         Acoustic Energy               : 
TLFamily_MD        .         Measured Depth                : 
TLFamily_MINXENE_OVERALL .         Acoustic Energy               : 
TLFamily_P1NO_MAST .         Pad A North                   : 
TLFamily_PEFZ      .         Photoelectric Factor          : 
TLFamily_PR_FAST   .         Poisson Ratio (Dynamic)       : 
TLFamily_SDEVM     .         Sonde Deviation               : 
TLFamily_SENSOR_AZIM_QCI .         Sensor Azimuth                : 
TLFamily_SLOANI    .         Acoustic Anisotropy           : 
TLFamily_SPHI      .         Total Porosity                : 
TLFamily_TDIF_ALT_OVERALL .         Time Interval                 : 
TLFamily_TDIF_ORG_OVERALL .         Time Interval                 : 
TLFamily_TENS      .         Tension                       : 
TLFamily_TIMANI    .         Acoustic Anisotropy           : 
TLFamily_TNPH      .         Thermal Neutron Porosity      : 
TLFamily_TW_B_L6   .         Travel Time                   : 
TLFamily_TW_E_L6   .         Travel Time                   : 
TLFamily_VPVS_FAST .         VpVs (Compressional To Shear) Ratio: 
TLFamily_XENEDIF   .         Acoustic Energy               : 
~Curve Information
#_______________________________________________________________________________
#
#LOGNAME           .UNIT     LOG_ID                        : DESCRIPTION
#_______________________________________________________________________________
MD                 .ft                                     : Measured Depth
BS                 .in                                     : Bit Size 
DEVIM              .deg                                    : Memorized Deviation 
DPHZ               .ft3/ft3                                : Standard Resolution Density Porosity <_techsia_lb_>F11 
DTCO_MF_DDBHC      .us/ft                                  : Compressional slowness 
DTCO_MF_R          .us/ft                                  : Compressional slowness 
DTCO_MF_T          .us/ft                                  : Compressional slowness 
DTSH_FAST_DDBHC    .us/ft                                  : Shear slowness 
DTSH_FAST_R        .us/ft                                  : Shear slowness 
DTSH_FAST_T        .us/ft                                  : Shear slowness 
DTSH_SLOW_DDBHC    .us/ft                                  : Shear slowness 
DTSH_SLOW_R        .us/ft                                  : Shear slowness 
DTSH_SLOW_T        .us/ft                                  : Shear slowness 
FSA_NAZ            .deg                                    : Fast shear azimuth(NAZ REF90) - overall - swapped 
FSA_NAZ_ERR        .deg                                    : Fast shear azimuth error, reference frame NAZ 
FSA_NAZ_ERRMINUS   .deg                                    : Fast shear azimuth error minus(NAZ REF90) - swapped 
FSA_NAZ_ERRPLUS    .deg                                    : Fast shear azimuth error plus(NAZ REF90) - swapped 
FSA_NAZ_IN         .deg                                    : Fast Shear Azimuth Indicator 
GR_EDTC            .gAPI                                   : Gamma Ray 
HAZIM              .deg                                    : Memorized Hole Azimuth 
HDAR               .in                                     : Hole Diameter from Area 
MAXXENE_OVERALL    .unitless                               : Maximum cross energy - overall 
MINXENE_OVERALL    .unitless                               : Minimum cross energy - overall 
P1NO_MAST          .deg                                    : Pad 1 Azimuth in Plane Orthogonal to Tool Axis (0 = True North), memorized to MAST 
PEFZ               .                                       : Standard Resolution Formation Photoelectric Factor <_techsia_lb_>F11 
PR_FAST            .unitless                               : Possion's Ratio 
SDEVM              .deg                                    : Memorized Sonde Deviation 
SENSOR_AZIM_QCI    .deg                                    : Tool azimuth for input QC 
SLOANI             .%                                      : Slowness-Based Anisotropy 
SPHI               .ft3/ft3                                : Total porosity from Sonic 
TDIF_ALT_OVERALL   .s                                      : Arrival time difference between fast and slow waves(alternate) - overall - swapped 
TDIF_ORG_OVERALL   .s                                      : Arrival time difference between fast and slow waves(original) - overall - swapped 
TENS               .lbf                                    : Cable Tension 
TIMANI             .%                                      : Time-Based Anisotropy 
TNPH               .ft3/ft3                                : Thermal Neutron Porosity (Ratio Method) in Selected Lithology <_techsia_lb_>F11 
TW_B_L6            .us                                     : Time window begin - packed 
TW_E_L6            .us                                     : Time window end - packed 
VPVS_FAST          .unitless                               : VpVs Ratio 
XENEDIF            .unitless                               : Energy-Based Anisotropy 
~Ascii
# ...
1685.5000  8.5000     1.0228     0.0020     54.0573    53.4275    54.6871    103.3524   103.4281   103.2767   106.0398   104.2523   107.8272   67.4660    6.7976     60.6684    74.2636    -999.2500  8.3481     248.7018   10.1314    0.1252     0.0179     239.9972   4.8836     0.3117     1.0228     231.6350   2.5669     0.0463     -0.0004    0.0000     1924.5500  2.3044     0.0763     1818.0240  4818.0244  1.9119     10.7371   
1686.0000  8.5000     1.0187     -0.0027    53.8789    53.9027    53.8550    104.0454   102.6400   105.4508   105.4044   103.4428   107.3660   68.6958    7.0538     61.6419    75.7496    -999.2500  9.1382     248.6330   10.1407    0.1223     0.0184     240.3816   4.8020     0.3168     1.0187     231.9140   1.2977     0.0451     -0.0004    0.0000     1941.6500  2.2856     0.0863     1827.6615  4827.6621  1.9311     10.3936   
1686.5000  8.5000     1.0143     -0.0079    53.7056    54.4849    52.9263    104.6413   102.5605   106.7221   105.1855   103.2770   107.0939   70.2364    6.7948     63.4415    77.0312    -999.2500  10.8041    248.5562   10.1138    0.1197     0.0185     240.9193   4.6633     0.3212     1.0143     232.1131   0.5187     0.0439     -0.0004    0.0000     1984.8948  2.2717     0.1007     1843.0735  4843.0737  1.9484     10.1264   
1687.0000  8.5000     1.0091     -0.0006    53.5892    55.1462    52.0322    104.3684   103.4451   105.2918   105.0507   104.1317   105.9697   71.5435    6.1355     65.4080    77.6790    -999.2500  13.1523    248.5237   10.0913    0.1217     0.0175     241.5357   4.5644     0.3210     1.0091     232.4422   0.6515     0.0430     -0.0004    0.0000     1925.6501  2.3069     0.1118     1862.2520  4862.2520  1.9476     10.4212   
1687.5000  8.5000     1.0045     0.0068     54.1804    56.5062    51.8546    103.7667   104.3843   103.1492   104.4365   104.8125   104.0605   72.3888    5.4638     66.9249    77.8526    -999.2500  14.2940    248.4964   10.0615    0.1263     0.0161     241.8063   4.5815     0.3126     1.0045     232.7907   0.6433     0.0472     -0.0004    0.0000     1945.8999  2.3497     0.1108     1882.7559  4882.7559  1.9152     11.0237   
1688.0000  8.5000     1.0004     0.0127     54.6228    56.7130    52.5326    102.6297   104.2058   101.0535   103.2978   104.8255   101.7700   72.5858    5.0009     67.5849    77.5867    -999.2500  16.3154    248.4803   10.0461    0.1334     0.0151     242.7287   4.6692     0.3024     1.0004     233.0791   0.6489     0.0503     -0.0004    0.0000     1938.3684  2.4137     0.1026     1901.1877  4901.1880  1.8789     11.8323   
1688.5000  8.5000     0.9967     0.0144     55.5058    56.5733    54.4383    102.7513   103.8300   101.6726   103.1712   104.1401   102.2022   72.2182    4.9184     67.2998    77.1366    -999.2500  19.0472    248.4861   10.0493    0.1453     0.0153     243.5951   4.6438     0.2940     0.9967     233.4898   0.4078     0.0566     -0.0004    0.0000     1947.9473  2.5326     0.1035     1913.4305  4913.4302  1.8512     13.0030   
1689.0000  8.5000     0.9939     0.0211     57.7109    57.5957    57.8260    106.3339   104.7429   107.9249   106.8517   105.2939   108.4096   72.0184    4.6712     67.3472    76.6896    -999.2500  23.8185    248.4938   10.0616    0.1602     0.0160     243.4765   4.3923     0.2912     0.9939     234.0435   0.4858     0.0722     -0.0004    0.0001     1930.6500  2.6834     0.1347     1922.0160  4922.0161  1.8425     14.4163   
1689.5000  8.5000     0.9919     0.0566     61.4488    60.6143    62.2833    111.6497   104.3862   118.9132   112.4339   105.2219   119.6459   71.6679    3.7956     67.8723    75.4635    -999.2500  28.9761    248.4949   10.0528    0.1785     0.0159     243.4612   3.9731     0.2827     0.9919     234.5499   0.6999     0.0986     -0.0004    0.0001     1956.4501  2.8609     0.1934     1927.8436  4927.8438  1.8170     16.2608   
1690.0000  8.5000     0.9905     0.0949     65.7296    65.0688    66.3903    119.8060   110.0956   129.5164   120.3863   110.6267   130.1459   71.3417    3.0574     68.2843    74.3990    -999.2500  31.7435    248.5381   9.9265     0.1946     0.0157     242.7657   3.5910     0.2847     0.9905     235.4426   0.4832     0.1288     -0.0004    0.0001     1936.0000  3.0088     0.2556     1931.9711  4931.9712  1.8227     17.8840   
1690.5000  8.5000     0.9897     0.1210     69.2922    69.5615    69.0228    127.6762   120.6865   134.6658   127.9855   120.8601   135.1109   71.1760    2.8898     68.2862    74.0658    -999.2500  31.4006    248.5900   9.7807     0.2060     0.0163     241.5732   3.3730     0.2912     0.9897     235.9921   0.2420     0.1540     -0.0004    0.0001     1953.2501  3.1013     0.2973     1936.4113  4936.4116  1.8426     18.9660   
1691.0000  8.5000     0.9893     0.1171     70.9156    72.1374    69.6938    131.0801   129.5186   132.6417   131.5617   129.9589   133.1644   71.1145    2.7419     68.3725    73.8564    -999.2500  30.2919    248.6432   9.7369     0.2134     0.0169     241.5410   3.3194     0.2931     0.9893     236.7932   0.3667     0.1655     -0.0004    0.0001     1969.1000  3.1527     0.3068     1940.0908  4940.0908  1.8484     19.6505   
1691.5000  8.5000     0.9895     0.0882     69.8125    71.2543    68.3707    129.5067   131.9440   127.0695   129.8336   132.1911   127.4761   70.9554    2.5279     68.4274    73.4833    -999.2500  29.4270    248.7211   9.7401     0.2220     0.0173     241.3488   3.4359     0.2952     0.9895     237.7639   0.2520     0.1577     -0.0004    0.0001     1978.2104  3.2142     0.2606     1943.5084  4943.5088  1.8551     20.4654   
1692.0000  8.5000     0.9902     0.0515     66.6644    67.4424    65.8864    124.3237   128.4205   120.2270   124.9135   129.1535   120.6735   70.8405    2.3323     68.5082    73.1727    -999.2500  27.4559    248.7944   9.8298     0.2323     0.0176     240.9920   3.7044     0.2982     0.9902     238.5359   0.4732     0.1354     -0.0004    0.0001     1945.5001  3.2954     0.1838     1949.4066  4949.4067  1.8649     21.4751   
1692.5000  8.5000     0.9916     0.0208     62.9645    62.7678    63.1613    118.1901   123.6893   112.6909   119.0332   124.6610   113.4053   70.8960    2.3148     68.5812    73.2108    -999.2500  23.4228    248.8637   10.0553    0.2384     0.0186     240.6790   4.0538     0.3019     0.9916     239.4305   0.7108     0.1093     -0.0004    0.0001     1938.6500  3.3836     0.1397     1958.9091  4958.9087  1.8771     21.9790   
1693.0000  8.5000     0.9933     0.0164     60.1689    59.2927    61.0451    111.4007   116.2685   106.5329   115.1888   119.8700   110.5076   71.4912    2.6788     68.8124    74.1700    71.4912    20.1490    248.9054   10.1381    0.2389     0.0205     240.7624   4.2535     0.2941     0.9933     239.9972   3.3436     0.0895     -0.0004    0.0001     1966.7368  3.4083     0.1213     1967.5833  4967.5830  1.8515     21.8446   
1693.5000  8.5000     0.9956     0.0329     58.4918    57.7804    59.2032    108.1367   111.4224   104.8511   113.9643   115.7068   112.2218   72.4050    3.0739     69.3311    75.4790    72.4050    17.8831    248.9537   10.1799    0.2391     0.0220     240.5624   4.2604     0.2932     0.9956     240.3816   5.2477     0.0777     -0.0004    0.0001     1977.5000  3.4134     0.1212     1975.1355  4975.1353  1.8488     21.7114   
1694.0000  8.5000     0.9991     0.0504     57.2247    57.0877    57.3617    107.1560   107.5941   106.7180   111.9970   111.3723   112.6217   73.2458    3.3397     69.9061    76.5855    73.2458    16.8473    248.9302   10.2132    0.2410     0.0224     240.5871   4.2350     0.3005     0.9991     240.9193   4.4179     0.0687     -0.0004    0.0001     1952.6316  3.4315     0.1127     1982.0170  4982.0171  1.8725     21.8625   
1694.5000  8.5000     1.0030     0.0466     56.7216    57.0480    56.3951    107.3340   104.3509   110.3171   110.2786   108.1999   112.3574   74.0247    3.4773     70.5474    77.5019    74.0247    14.5841    248.9225   10.2022    0.2440     0.0218     240.5086   4.2775     0.3063     1.0030     241.5357   2.7063     0.0652     -0.0004    0.0001     1934.1001  3.4588     0.1117     1988.3373  4988.3374  1.8923     22.2228   
