~Version
 VERS              .         2.0                           : CWLS LOG ASCII STANDARD - VERSION 2.0
 WRAP              .         NO                            : ONE LINE PER DEPTH STEP
 DLM               .         SPACE                         : DELIMITING CHARACTER(SPACE TAB OR COMMA)
~Well Information
#_______________________________________________________________________________
#
#PARAMETER_NAME    .UNIT     VALUE                         : DESCRIPTION
#_______________________________________________________________________________
STRT               .ft       1050.0000                     : First reference value
STOP               .ft       5850.0000                     : Last reference value
STEP               .ft       0.5000                        : Step increment
NULL               .         -999.25                       : Missing value
COMP               .         PRAIRIE STATE GENERATING CO, LLC: Company
WELL               .         LIVELY GROVE #1               : Well name
FLD                .         N/A                           : Field
LOC                .                                       : Location
CNTY               .         WASHINGTON                    : County
STAT               .         ILLINOIS                      : State
CTRY               .                                       : Country
SRVC               .         Schlumberger                  : Service Company
DATE               .         12-Aug-2021                   : Date
UWI                .                                       : Unique Well ID
APD                .ft       16                            : Elevation of Depth Reference (LMF) Above Permanent Datum
API                .         12-189-24947-00               : 
BHS                .         OPEN                          : Borehole Status (Open or Cased Hole)
BHT                .degF     115                           : Bottom Hole Temperature
BLI                .ft       5885.95                       : Bottom Log Interval
BS                 .in       8.5                           : Bit Size
CBDR               .ft       1049                          : Casing Bottom of Driller
CBLO               .ft       1049                          : Logger Casing Shoe Depth
CSIZ               .in       9.625                         : Current Casing Size
CWEI               .lbm/ft   36                            : Casing Weight
DCS                .         11-Aug-2021                   : Date Circulation Stopped
DFD                .lbm/gal  9.35                          : Drilling Fluid Density
DFT                .         FRESH WBM                     : Drilling Fluid Type
DLAB               .         12-Aug-2021                   : Date Logger At Bottom
EDF                .ft       477                           : Elevation of Drill Floor
EGL                .ft       461                           : Elevation of Ground Level
EKB                .ft       477                           : Elevation of Kelly Bushing
EPD                .ft       461                           : Elevation of Permanent Datum (PDAT) above Mean Sea Level
LMF                .         KB                            : Logging Measured From (Name of Logging Elevation Reference)
LUL                .         BRADFORD, PA                  : Logging Unit Location
LUN                .         OSLC 2266                     : Logging Unit Number
LATI               .dega     0.00000000                    : Latitude
LONG               .         -89.644768 degrees            : Longitude
MCST               .degF     81.9                          : Mudcake Sample Temperature
MFST               .degF     81.9                          : Mud Filtrate Sample Temperature
MRT                .degF     115                           : Maximum Recorded Temperature
MST                .degF     81.9                          : Mud Sample Temperature
ORIGINALWELLNAME   .         LIVELY GROVE #1               : 
PDAT               .         GL                            : Permanent Datum
PRODUCER-CODE      .         440                           : 
PRODUCER-NAME      .         Schlumberger                  : 
RMB                .ohm.m    0.9233273                     : Resistivity of Mud at Bottom Hole Temperature
RMCS               .ohm.m    1.44                          : Resistivity of Mud Cake Sample
RMFS               .ohm.m    1.033                         : Resistivity of Mud Filtrate Sample
RMS                .ohm.m    1.268                         : Resistivity of Mud Sample
RUN                .         RUN 1B                        : Run Number
TCS                .         17_00_00                      : Time Circulation Stopped
TDD                .ft       5888                          : Driller Total Depth
TDL                .ft       5888.35                       : Logger Total Depth
TLAB               .         07_19_00                      : Time Logger At Bottom
TLI                .ft       1049                          : Top Log Interval
~Parameter Information Block
#_______________________________________________________________________________
#
#PARAMETER_NAME    .UNIT     VALUE                         : DESCRIPTION
#_______________________________________________________________________________
SET                .         0_CP_MP_Delivered             : 
TLFamily_BS        .         Bit Size                      : 
TLFamily_C44       .         Elastic Modulus               : 
TLFamily_C55       .         Elastic Modulus               : 
TLFamily_C66       .         Elastic Modulus               : 
TLFamily_DEVIM     .         Hole Deviation                : 
TLFamily_DPHZ      .         Density Porosity              : 
TLFamily_DTCO_MF_DDBHC .     Compressional Slowness        : 
TLFamily_DTSH_FAST_DDBHC .   Fast Shear Slowness           : 
TLFamily_DTSH_SLOW_DDBHC .   Slow Shear Slowness           : 
TLFamily_DTSH_STRVP .        Stoneley Shear Slowness       : 
TLFamily_GAMMA     .         Regularization Factor         : 
TLFamily_GR_EDTC   .         Gamma Ray                     : 
TLFamily_HCAL      .         Caliper                       : 
TLFamily_ISHE      .         Shear Strength                : 
TLFamily_MAXXENE_OVERALL .   Acoustic Energy               : 
TLFamily_MD        .         Measured Depth                : 
TLFamily_MINXENE_OVERALL .   Acoustic Energy               : 
TLFamily_PPGI      .         Pore Pressure Gradient        : 
TLFamily_PR_HH     .         Poisson Ratio (Dynamic)       : 
TLFamily_PR_VH     .         Poisson Ratio (Dynamic)       : 
TLFamily_RHOZ      .         Bulk Density                  : 
TLFamily_RHOZ_EDT  .         Bulk Density                  : 
TLFamily_SDEVM     .         Sonde Deviation               : 
TLFamily_SLOANI    .         Acoustic Anisotropy           : 
TLFamily_SPHI      .         Total Porosity                : 
TLFamily_TNPH      .         Thermal Neutron Porosity      : 
TLFamily_TSTR      .         Tensile Strength              : 
TLFamily_TXSG_ANISO .        Minimum Horizontal Stress Gradient: 
TLFamily_TXSG_ISO  .         Minimum Horizontal Stress Gradient: 
TLFamily_TXSP_ANISO .         Minimum Horizontal Stress     : 
TLFamily_TZSG      .         Vertical Stress Gradient      : 
TLFamily_UCS       .         Compressive Strength          : 
TLFamily_YME_H_STA .         Young's Modulus (Dynamic)     : 
TLFamily_YME_V_STA .         Young's Modulus (Dynamic)     : 
~Curve Information
#_______________________________________________________________________________
#
#LOGNAME           .UNIT     LOG_ID                        : DESCRIPTION
#_______________________________________________________________________________
MD                 .ft                                     : Measured Depth 
BS                 .in                                     : Bit Size 
C44                .Mpsi                                   : C44 Modulus 
C55                .Mpsi                                   : C55 Modulus 
C66                .Mpsi                                   : C66 Modulus 
DEVIM              .deg                                    : Memorized Deviation 
DPHZ               .ft3/ft3                                : Standard Resolution Density Porosity (F11 
DTCO_MF_DDBHC      .us/ft                                  : Compressional slowness 
DTSH_FAST_DDBHC    .us/ft                                  : Fast Shear slowness 
DTSH_SLOW_DDBHC    .us/ft                                  : Slow Shear slowness 
DTSH_STRVP         .us/ft                                  : Horizontal Shear
GAMMA              .unitless                               : Thomsens Anisotropy Parameter Gamma 
GR_EDTC            .gAPI                                   : Gamma Ray 
HCAL               .IN                                     : HRCC Caliper Calibrated (F11 
ISHE               .psi                                    : Cohesive Strength 
MAXXENE_OVERALL    .unitless                               : Maximum cross energy - overall 
MINXENE_OVERALL    .unitless                               : Minimum cross energy - overall 
PPGI               .psi/ft                                 : Pore Pressure Gradient 
PR_HH              .unitless                               : Poissons Ratio - Loading Horizontal - Displacement Horizontal 
PR_VH              .unitless                               : Poissons Ratio - Loading Vertical - Displacement Horizontal 
RHOZ               .g/cm3                                  : Standard Resolution Formation Density 
RHOZ_EDT           .g/cm3                                  : Standard Resolution Formation Density 
SDEVM              .deg                                    : Memorized Sonde Deviation 
SLOANI             .%                                      : Slowness-Based Anisotropy 
SPHI               .ft3/ft3                                : Total porosity from Sonic 
TNPH               .ft3/ft3                                : Thermal Neutron Porosity (Ratio Method) in Selected Lithology (F11 
TSTR               .psi                                    : Tensile Strength 
TXSG_ANISO         .psi/ft                                 : Anisotropic Minimum Horizontal Stress Gradient 
TXSG_ISO           .psi/ft                                 : Isotropic Minimum Horizontal Stress Gradient 
TXSP_ANISO         .psi                                    : Anisotropic Minimum Horizontal Stress 
TZSG               .psi/ft                                 : Overburden Stress Gradient 
UCS                .psi                                    : Unconfined Compressive Strength 
YME_H_STA          .Mpsi                                   : Static Horizontal Youngs Modulus 
YME_V_STA          .Mpsi                                   : Static Vertical Youngs Modulus 
~Ascii
# ...
3602.0000  8.5000     2.3500     2.3500     2.5410     0.8763     0.1377     68.3568    113.3479   122.9673   113.3479   0.0406     9.1259     9.5931     2049.6956  0.1684     0.0105     0.4800     0.2324     0.2368     2.4228     2.4228     0.8763     8.1412     0.1474     0.1252     778.6309   0.6983     0.6908     2514.9573  1.1000     9343.5713  3.5664     3.3150    
3602.5000  8.5000     2.4064     2.4064     2.6038     0.8767     0.1257     68.2138    112.4269   122.0600   112.4269   0.0410     9.0685     9.5190     2096.7314  0.1658     0.0107     0.4800     0.2280     0.2323     2.4425     2.4425     0.8767     8.2163     0.1464     0.1220     797.2571   0.6941     0.6865     2500.1487  1.1000     9567.0850  3.6598     3.3981    
3603.0000  8.5000     2.4655     2.4655     2.6388     0.8768     0.1183     67.7330    111.9570   120.1244   111.9570   0.0351     9.4803     9.4661     2133.3628  0.1627     0.0107     0.4800     0.2280     0.2317     2.4547     2.4547     0.8768     7.0384     0.1430     0.1175     820.6240   0.6924     0.6858     2494.3704  1.1000     9847.4883  3.7208     3.4898    
3603.5000  8.5000     2.5769     2.5769     2.7384     0.8767     0.1066     66.9026    110.3352   117.4845   110.3352   0.0314     9.5844     9.3814     2230.8206  0.1593     0.0108     0.4800     0.2247     0.2279     2.4741     2.4741     0.8767     6.2762     0.1371     0.1096     869.1738   0.6893     0.6832     2483.4282  1.1000     10430.0850 3.8827     3.6650    
3604.0000  8.5000     2.6635     2.6635     2.8284     0.8764     0.1021     66.1249    108.7291   115.6852   108.7291   0.0310     9.3690     9.3603     2327.8596  0.1570     0.0108     0.4800     0.2222     0.2253     2.4816     2.4816     0.8764     6.1993     0.1316     0.1009     914.5813   0.6886     0.6826     2481.4841  1.1000     10974.9756 4.0309     3.8068    
3604.5000  8.5000     2.7169     2.7169     2.8732     0.8764     0.0998     65.6418    107.9612   114.3632   107.9612   0.0288     8.4674     9.2544     2376.6821  0.1549     0.0109     0.4800     0.2215     0.2243     2.4854     2.4854     0.8764     5.7592     0.1282     0.0964     940.9316   0.6881     0.6824     2479.9087  1.1000     11291.1787 4.1070     3.8936    
3605.0000  8.5000     2.7291     2.7291     2.8692     0.8766     0.0998     65.3392    108.0348   113.7343   108.0348   0.0257     7.8434     9.1697     2395.3528  0.1519     0.0110     0.4800     0.2244     0.2270     2.4853     2.4853     0.8766     5.1401     0.1261     0.0986     954.9566   0.6908     0.6857     2490.0398  1.1000     11459.4795 4.1121     3.9208    
3605.5000  8.5000     2.7720     2.7720     2.8883     0.8774     0.0999     65.2547    107.6755   112.2904   107.6755   0.0210     7.6193     9.1697     2367.7417  0.1497     0.0110     0.4800     0.2207     0.2227     2.4852     2.4852     0.8774     4.1960     0.1255     0.1020     950.3837   0.6836     0.6794     2464.4661  1.1000     11404.6055 4.1302     3.9709    
3606.0000  8.5000     2.7933     2.7933     2.8962     0.8786     0.1037     65.3997    107.3915   111.4245   107.3915   0.0184     8.2055     9.1485     2313.6748  0.1496     0.0110     0.4800     0.2154     0.2171     2.4789     2.4789     0.8786     3.6861     0.1265     0.0988     930.2474   0.6749     0.6713     2433.4854  1.1000     11162.9688 4.1221     3.9807    
3606.5000  8.5000     2.7535     2.7535     2.8563     0.8803     0.1091     65.7835    107.9440   112.0520   107.9440   0.0187     8.8077     9.1274     2253.8706  0.1495     0.0110     0.4800     0.2149     0.2166     2.4699     2.4699     0.8803     3.7346     0.1292     0.1014     902.2757   0.6729     0.6692     2426.3401  1.1000     10827.3086 4.0499     3.9091    
3607.0000  8.5000     2.7145     2.7145     2.8441     0.8829     0.1188     65.8405    107.8258   113.1016   107.8258   0.0239     8.5794     9.1485     2254.1328  0.1495     0.0106     0.4800     0.2158     0.2180     2.4540     2.4540     0.8829     4.7760     0.1296     0.1004     896.0075   0.6761     0.6715     2438.3889  1.1000     10752.0908 4.0321     3.8551    
3607.5000  8.5000     2.7239     2.7239     2.8458     0.8855     0.1258     66.3180    107.5406   112.4657   107.5406   0.0224     8.2910     9.1485     2157.3511  0.1504     0.0102     0.4800     0.2066     0.2085     2.4425     2.4425     0.8855     4.4772     0.1330     0.1077     854.8876   0.6621     0.6579     2388.3269  1.1000     10258.6504 3.9973     3.8302    
3608.0000  8.5000     2.7286     2.7286     2.8275     0.8881     0.1297     66.9198    107.7417   111.7215   107.7417   0.0181     7.7164     9.1485     2042.4512  0.1513     0.0098     0.4800     0.1978     0.1992     2.4359     2.4359     0.8881     3.6268     0.1372     0.1058     808.5761   0.6472     0.6438     2334.8669  1.1000     9702.9131  3.9298     3.7939    
3608.5000  8.5000     2.6860     2.6860     2.7801     0.8915     0.1280     67.0339    108.7204   112.6004   108.7204   0.0175     8.0243     9.1485     2042.2455  0.1513     0.0094     0.4800     0.2041     0.2056     2.4388     2.4388     0.8915     3.5062     0.1380     0.1078     808.1449   0.6542     0.6509     2360.1968  1.1000     9697.7383  3.8736     3.7451    
3609.0000  8.5000     2.6467     2.6467     2.7479     0.8942     0.1248     67.0836    109.4726   113.7422   109.4726   0.0191     8.2757     9.1274     2065.0464  0.1517     0.0089     0.4800     0.2104     0.2121     2.4440     2.4440     0.8942     3.8256     0.1384     0.1069     815.1473   0.6626     0.6590     2391.0659  1.1000     9781.7666  3.8429     3.7054    
3609.5000  8.5000     2.6312     2.6312     2.7429     0.8966     0.1180     67.0638    109.8267   114.5939   109.8267   0.0212     8.8351     9.1062     2104.8862  0.1528     0.0085     0.4800     0.2145     0.2164     2.4553     2.4553     0.8966     4.2485     0.1383     0.1035     828.8918   0.6693     0.6652     2415.3887  1.1000     9946.7012  3.8502     3.6987    
3610.0000  8.5000     2.5724     2.5724     2.6824     0.8988     0.1030     67.1825    111.6164   116.4950   111.6164   0.0214     9.4258     9.1274     2150.0999  0.1552     0.0081     0.4800     0.2264     0.2286     2.4801     2.4801     0.8988     4.2774     0.1391     0.1017     845.5206   0.6846     0.6805     2470.8821  1.1000     10146.2471 3.7908     3.6430    
3610.5000  8.5000     2.4907     2.4907     2.5999     0.9012     0.0949     67.3493    113.6760   118.7745   113.6760   0.0219     8.9847     9.1062     2169.5884  0.1583     0.0080     0.4800     0.2388     0.2413     2.4933     2.4933     0.9012     4.3867     0.1403     0.1029     851.1684   0.7004     0.6962     2528.4717  1.1000     10214.0205 3.6928     3.5477    
3611.0000  8.5000     2.4070     2.4070     2.5200     0.9030     0.0993     67.7459    115.2957   120.8421   115.2957   0.0235     8.6532     9.0850     2128.3948  0.1606     0.0079     0.4800     0.2454     0.2483     2.4861     2.4861     0.9030     4.6976     0.1431     0.1109     830.0974   0.7083     0.7038     2557.3928  1.1000     9961.1689  3.5763     3.4277    
3611.5000  8.5000     2.3428     2.3428     2.4322     0.9047     0.1180     68.4374    116.6278   121.1671   116.6278   0.0191     8.5356     9.0639     1982.4493  0.1625     0.0077     0.4800     0.2449     0.2472     2.4552     2.4552     0.9047     3.8178     0.1480     0.1177     771.8883   0.7017     0.6982     2533.8840  1.1000     9262.6602  3.4209     3.3042    
3612.0000  8.5000     2.2939     2.2939     2.3960     0.9064     0.1306     69.0903    117.0071   122.3396   117.0071   0.0223     8.7927     9.0850     1903.8575  0.1635     0.0075     0.4800     0.2414     0.2440     2.4345     2.4345     0.9064     4.4559     0.1526     0.1242     733.6783   0.6968     0.6927     2516.5188  1.1000     8804.1387  3.3465     3.2136    
3612.5000  8.5000     2.2665     2.2665     2.3975     0.9077     0.1320     69.3049    116.9188   123.8852   116.9188   0.0289     8.3059     9.0639     1915.5321  0.1639     0.0074     0.4800     0.2409     0.2443     2.4323     2.4323     0.9077     5.7860     0.1541     0.1221     730.8975   0.6997     0.6944     2527.1326  1.1000     8770.7705  3.3473     3.1771    
