~Version
 VERS              .         2.0                           : CWLS LOG ASCII STANDARD - VERSION 2.0
 WRAP              .         NO                            : ONE LINE PER DEPTH STEP
 DLM               .         SPACE                         : DELIMITING CHARACTER(SPACE TAB OR COMMA)
~Well Information
#_______________________________________________________________________________
#
#PARAMETER_NAME    .UNIT     VALUE                         : DESCRIPTION
#_______________________________________________________________________________
STRT               .ft       1049.0000                     : First reference value
STOP               .ft       5858.0000                     : Last reference value
STEP               .ft       0.5000                        : Step increment
NULL               .         -999.25                       : Missing value
COMP               .         PRAIRIE STATE GENERATING CO, LLC: Company
WELL               .         LIVELY GROVE #1               : Well name
FLD                .         N/A                           : Field
LOC                .                                       : Location
CNTY               .         WASHINGTON                    : County
STAT               .         ILLINOIS                      : State
CTRY               .         USA                           : Country
SRVC               .         Schlumberger                  : Service Company
DATE               .         13-Aug-2021                   : Date
UWI                .                                       : Unique Well ID
APD                .ft       16                            : Elevation of Depth Reference (LMF) Above Permanent Datum
API                .         12-189-24947-00               : 
BHS                .         OPEN                          : Borehole Status (Open or Cased Hole)
BHT                .degF     115                           : Bottom Hole Temperature
BLI                .ft       5888                          : Bottom Log Interval
BS                 .in       8.5                           : Bit Size
CBDR               .ft       1049                          : Casing Bottom of Driller
CBLO               .ft       1049                          : Logger Casing Shoe Depth
CSIZ               .in       9.625                         : Current Casing Size
CWEI               .lbm/ft   36                            : Casing Weight
DCS                .         11-Aug-2021                   : Date Circulation Stopped
DFD                .lbm/gal  9.35                          : Drilling Fluid Density
DFT                .         FRESH WBM                     : Drilling Fluid Type
DLAB               .         12-Aug-2021                   : Date Logger At Bottom
EDF                .ft       477                           : Elevation of Drill Floor
EGL                .ft       461                           : Elevation of Ground Level
EKB                .ft       477                           : Elevation of Kelly Bushing
EPD                .ft       461                           : Elevation of Permanent Datum (PDAT) above Mean Sea Level
LMF                .         KB                            : Logging Measured From (Name of Logging Elevation Reference)
LUL                .         BRADFORD, PA                  : Logging Unit Location
LUN                .         OSLC 2266                     : Logging Unit Number
LATI               .         38.352151 degrees             : Latitude
LONG               .         -89.644768 degrees            : Longitude
MCST               .degF     81.9                          : Mudcake Sample Temperature
MFST               .degF     81.9                          : Mud Filtrate Sample Temperature
MRT                .degF     115                           : Maximum Recorded Temperature
MST                .degF     81.9                          : Mud Sample Temperature
ORIGINALWELLNAME   .         LIVELY GROVE #1               : 
PDAT               .         GL                            : Permanent Datum
PRODUCER-CODE      .         440                           : 
PRODUCER-NAME      .         Schlumberger                  : 
RMB                .ohm.m    0.9233273                     : Resistivity of Mud at Bottom Hole Temperature
RMCS               .ohm.m    1.44                          : Resistivity of Mud Cake Sample
RMFS               .ohm.m    1.033                         : Resistivity of Mud Filtrate Sample
RMS                .ohm.m    1.268                         : Resistivity of Mud Sample
RUN                .         RUN 1D                        : Run Number
TCS                .         13_00_00                      : Time Circulation Stopped
TDD                .ft       5888.35                       : Driller Total Depth
TDL                .ft       5888.35                       : Logger Total Depth
TLAB               .         17_08_00                      : Time Logger At Bottom
TLI                .ft       1049                          : Top Log Interval
~Parameter Information Block
#_______________________________________________________________________________
#
#PARAMETER_NAME    .UNIT     VALUE                         : DESCRIPTION
#_______________________________________________________________________________
SET                .         0_PnS_Aniso                   : 
TLFamily_BS        .         Bit Size                      : 
TLFamily_DEVIM     .         Hole Deviation                : 
TLFamily_DPHZ      .         Density Porosity              : 
TLFamily_DTCO_MF_DDBHC .         Compressional Slowness        : 
TLFamily_DTCO_MF_R .         Compressional Slowness        : 
TLFamily_DTCO_MF_T .         Compressional Slowness        : 
TLFamily_DTSH_FAST_DDBHC .         Fast Shear Slowness           : 
TLFamily_DTSH_FAST_R .         Fast Shear Slowness           : 
TLFamily_DTSH_FAST_T .         Fast Shear Slowness           : 
TLFamily_DTSH_SLOW_DDBHC .         Slow Shear Slowness           : 
TLFamily_DTSH_SLOW_R .         Slow Shear Slowness           : 
TLFamily_DTSH_SLOW_T .         Slow Shear Slowness           : 
TLFamily_FSA_NAZ   .         Fast Shear Azimuth            : 
TLFamily_FSA_NAZ_ERR .         Fast Shear Azimuth            : 
TLFamily_FSA_NAZ_ERRMINUS .         Fast Shear Azimuth            : 
TLFamily_FSA_NAZ_ERRPLUS .         Fast Shear Azimuth            : 
TLFamily_FSA_NAZ_IN .         Fast Shear Azimuth            : 
TLFamily_GR_EDTC   .         Gamma Ray                     : 
TLFamily_HAZIM     .         Hole Azimuth                  : 
TLFamily_HDAR      .         Borehole Diameter             : 
TLFamily_MAXXENE_OVERALL .         Acoustic Energy               : 
TLFamily_MD        .         Measured Depth                : 
TLFamily_MINXENE_OVERALL .         Acoustic Energy               : 
TLFamily_P1NO_MAST .         Pad A North                   : 
TLFamily_PEFZ      .         Photoelectric Factor          : 
TLFamily_PR_FAST   .         Poisson Ratio (Dynamic)       : 
TLFamily_SDEVM     .         Sonde Deviation               : 
TLFamily_SENSOR_AZIM_QCI .         Sensor Azimuth                : 
TLFamily_SLOANI    .         Acoustic Anisotropy           : 
TLFamily_SPHI      .         Total Porosity                : 
TLFamily_TDIF_ALT_OVERALL .         Time Interval                 : 
TLFamily_TDIF_ORG_OVERALL .         Time Interval                 : 
TLFamily_TENS      .         Tension                       : 
TLFamily_TIMANI    .         Acoustic Anisotropy           : 
TLFamily_TNPH      .         Thermal Neutron Porosity      : 
TLFamily_TW_B_L6   .         Travel Time                   : 
TLFamily_TW_E_L6   .         Travel Time                   : 
TLFamily_VPVS_FAST .         VpVs (Compressional To Shear) Ratio: 
TLFamily_XENEDIF   .         Acoustic Energy               : 
~Curve Information
#_______________________________________________________________________________
#
#LOGNAME           .UNIT     LOG_ID                        : DESCRIPTION
#_______________________________________________________________________________
MD                 .ft                                     : Measured Depth
BS                 .in                                     : Bit Size 
DEVIM              .deg                                    : Memorized Deviation 
DPHZ               .ft3/ft3                                : Standard Resolution Density Porosity <_techsia_lb_>F11 
DTCO_MF_DDBHC      .us/ft                                  : Compressional slowness 
DTCO_MF_R          .us/ft                                  : Compressional slowness 
DTCO_MF_T          .us/ft                                  : Compressional slowness 
DTSH_FAST_DDBHC    .us/ft                                  : Shear slowness 
DTSH_FAST_R        .us/ft                                  : Shear slowness 
DTSH_FAST_T        .us/ft                                  : Shear slowness 
DTSH_SLOW_DDBHC    .us/ft                                  : Shear slowness 
DTSH_SLOW_R        .us/ft                                  : Shear slowness 
DTSH_SLOW_T        .us/ft                                  : Shear slowness 
FSA_NAZ            .deg                                    : Fast shear azimuth(NAZ REF90) - overall - swapped 
FSA_NAZ_ERR        .deg                                    : Fast shear azimuth error, reference frame NAZ 
FSA_NAZ_ERRMINUS   .deg                                    : Fast shear azimuth error minus(NAZ REF90) - swapped 
FSA_NAZ_ERRPLUS    .deg                                    : Fast shear azimuth error plus(NAZ REF90) - swapped 
FSA_NAZ_IN         .deg                                    : Fast Shear Azimuth Indicator 
GR_EDTC            .gAPI                                   : Gamma Ray 
HAZIM              .deg                                    : Memorized Hole Azimuth 
HDAR               .in                                     : Hole Diameter from Area 
MAXXENE_OVERALL    .unitless                               : Maximum cross energy - overall 
MINXENE_OVERALL    .unitless                               : Minimum cross energy - overall 
P1NO_MAST          .deg                                    : Pad 1 Azimuth in Plane Orthogonal to Tool Axis (0 = True North), memorized to MAST 
PEFZ               .                                       : Standard Resolution Formation Photoelectric Factor <_techsia_lb_>F11 
PR_FAST            .unitless                               : Possion's Ratio 
SDEVM              .deg                                    : Memorized Sonde Deviation 
SENSOR_AZIM_QCI    .deg                                    : Tool azimuth for input QC 
SLOANI             .%                                      : Slowness-Based Anisotropy 
SPHI               .ft3/ft3                                : Total porosity from Sonic 
TDIF_ALT_OVERALL   .s                                      : Arrival time difference between fast and slow waves(alternate) - overall - swapped 
TDIF_ORG_OVERALL   .s                                      : Arrival time difference between fast and slow waves(original) - overall - swapped 
TENS               .lbf                                    : Cable Tension 
TIMANI             .%                                      : Time-Based Anisotropy 
TNPH               .ft3/ft3                                : Thermal Neutron Porosity (Ratio Method) in Selected Lithology <_techsia_lb_>F11 
TW_B_L6            .us                                     : Time window begin - packed 
TW_E_L6            .us                                     : Time window end - packed 
VPVS_FAST          .unitless                               : VpVs Ratio 
XENEDIF            .unitless                               : Energy-Based Anisotropy 
~Ascii
# ...
4887.0000  8.5000     0.6071     -0.0819    48.9306    49.5725    48.2887    87.7071    88.8779    86.5363    88.1950    89.2841    87.1060    61.4243    0.8355     60.5888    62.2598    -999.2500  10.0328    270.0573   8.9072     0.5450     0.0036     65.6726    3.2077     0.2741     0.6071     65.7566    0.5548     0.0101     -0.0003    0.0002     2797.2368  9.0459     0.0826     1622.4401  4622.4399  1.7925     54.1407   
4887.5000  8.5000     0.6077     -0.0927    47.0644    48.2686    45.8601    87.3222    88.8779    85.7665    87.7253    89.2905    86.1601    61.3999    0.7965     60.6034    62.1964    -999.2500  9.7423     270.0830   8.8991     0.5427     0.0036     65.7847    3.2512     0.2953     0.6077     65.9784    0.4605     0.0000     -0.0003    0.0001     2793.7593  8.9308     0.0851     1623.7197  4623.7197  1.8554     53.9125   
4888.0000  8.5000     0.6088     -0.0969    46.4329    47.4219    45.4439    87.1992    88.6609    85.7375    87.5792    89.1278    86.0306    61.3648    0.7881     60.5766    62.1529    -999.2500  9.8272     270.0951   8.8820     0.5409     0.0036     65.9705    3.2283     0.3021     0.6088     66.0062    0.4348     0.0000     -0.0003    0.0001     2787.4697  8.8194     0.0825     1625.2965  4625.2969  1.8780     53.7285   
4888.5000  8.5000     0.6104     -0.0948    46.5446    47.6316    45.4576    86.8498    87.9773    85.7223    87.2733    88.4569    86.0898    61.3021    0.7904     60.5117    62.0925    -999.2500  9.4008     270.0746   8.8720     0.5394     0.0036     66.2061    3.1952     0.2985     0.6104     65.6532    0.4864     0.0000     -0.0003    0.0001     2782.7446  8.7060     0.0816     1627.8843  4627.8843  1.8659     53.5753   
4889.0000  8.5000     0.6124     -0.0948    46.8122    48.0100    45.6145    86.5654    87.3349    85.7959    87.0451    87.7869    86.3034    61.2317    0.8095     60.4221    62.0412    -999.2500  11.0438    270.0327   8.8716     0.5378     0.0037     66.5455    3.1615     0.2934     0.6124     65.4267    0.5527     0.0000     -0.0003    0.0001     2784.9814  8.5721     0.0832     1630.7173  4630.7173  1.8492     53.4181   
4889.5000  8.5000     0.6146     -0.0999    46.9965    48.4302    45.5628    86.7591    87.2852    86.2331    87.2002    87.6644    86.7360    61.1439    0.8360     60.3080    61.9799    -999.2500  11.7051    269.9629   8.8577     0.5363     0.0037     66.8307    3.1802     0.2924     0.6146     65.4759    0.5070     0.0000     -0.0003    0.0001     2792.1316  8.4244     0.0806     1632.0830  4632.0830  1.8461     53.2608   
4890.0000  8.5000     0.6170     -0.1134    46.8494    47.7645    45.9343    86.8014    87.5330    86.0698    87.2803    87.9406    86.6199    61.0482    0.8373     60.2109    61.8856    -999.2500  11.6686    269.8691   8.8577     0.5350     0.0037     67.1579    3.2369     0.2945     0.6170     65.5068    0.5502     0.0000     -0.0003    0.0001     2787.6001  8.2898     0.0716     1630.7921  4630.7920  1.8528     53.1306   
4890.5000  8.5000     0.6195     -0.1220    46.1464    46.4031    45.8898    86.3359    87.6243    85.0475    86.7804    87.9236    85.6372    60.9291    0.8304     60.0987    61.7596    -999.2500  11.1684    269.7754   8.8962     0.5338     0.0037     67.3119    3.2904     0.3000     0.6195     65.3577    0.5135     0.0000     -0.0003    0.0001     2785.2056  8.1855     0.0677     1627.5011  4627.5010  1.8709     53.0080   
4891.0000  8.5000     0.6222     -0.1245    45.2225    45.1450    45.3000    86.0221    87.0297    85.0144    86.6023    87.3915    85.8131    60.7948    0.8469     59.9479    61.6418    -999.2500  13.6492    269.6812   8.8800     0.5321     0.0037     67.4912    3.2871     0.3090     0.6222     65.1459    0.6723     0.0000     -0.0003    0.0001     2807.7554  8.0858     0.0677     1624.5236  4624.5239  1.9022     52.8389   
4891.5000  8.5000     0.6249     -0.1299    44.7871    44.4785    45.0956    86.1353    86.7634    85.5071    86.7622    87.2380    86.2865    60.6697    0.8740     59.7957    61.5437    -999.2500  13.2128    269.6142   8.8523     0.5302     0.0037     68.0018    3.2515     0.3147     0.6249     64.9523    0.7253     0.0000     -0.0003    0.0001     2807.9395  7.9802     0.0657     1623.2794  4623.2793  1.9232     52.6585   
4892.0000  8.5000     0.6269     -0.1255    44.9586    44.7422    45.1750    86.2390    86.5148    85.9632    86.9844    87.2896    86.6791    60.5159    0.9111     59.6048    61.4270    -999.2500  12.2682    269.5714   8.8867     0.5294     0.0036     68.4982    3.2196     0.3134     0.6269     64.8790    0.8606     0.0000     -0.0003    0.0001     2807.0645  7.9024     0.0655     1622.4290  4622.4292  1.9182     52.5827   
4892.5000  8.5000     0.6287     -0.1189    45.2684    45.0818    45.4550    85.9950    85.6817    86.3082    86.5298    86.2868    86.7729    60.3451    0.9328     59.4123    61.2779    -999.2500  9.4802     269.5559   8.8932     0.5295     0.0035     69.3700    3.2275     0.3083     0.6287     65.0001    0.6200     0.0000     -0.0003    0.0001     2835.5381  7.8576     0.0650     1619.6080  4619.6079  1.8997     52.6022   
4893.0000  8.5000     0.6302     -0.1022    45.4751    45.3277    45.6225    85.6234    85.2778    85.9691    86.0264    85.8191    86.2336    60.1898    0.9057     59.2841    61.0955    -999.2500  10.1756    269.5792   8.8810     0.5297     0.0034     70.4250    3.2266     0.3036     0.6302     64.9944    0.4695     0.0000     -0.0003    0.0001     2832.0132  7.8494     0.0694     1614.7668  4614.7671  1.8829     52.6298   
4893.5000  8.5000     0.6311     -0.0957    45.6968    45.5799    45.8136    85.1502    84.8457    85.4546    85.9037    86.1092    85.6983    60.0468    0.8507     59.1962    60.8975    -999.2500  10.7088    269.6374   8.8916     0.5290     0.0033     72.7771    3.2111     0.2977     0.6311     64.9904    0.8811     0.0000     -0.0003    0.0001     2805.5659  7.8346     0.0722     1608.9890  4608.9893  1.8634     52.5771   
4894.0000  8.5000     0.6321     -0.0949    46.0348    45.7661    46.3034    85.5223    84.9582    86.0864    86.6871    87.1511    86.2231    59.9575    0.8015     59.1560    60.7589    -999.2500  11.9690    269.7589   8.8936     0.5280     0.0032     75.6786    3.1540     0.2960     0.6321     65.2486    1.3527     0.0000     -0.0003    0.0001     2793.2632  7.7981     0.0736     1603.5293  4603.5293  1.8578     52.4816   
4894.5000  8.5000     0.6330     -0.1010    46.4513    46.0631    46.8395    86.0042    85.4374    86.5711    87.5460    88.3749    86.7171    59.9089    0.7920     59.1169    60.7010    -999.2500  10.9492    269.8613   8.9083     0.5269     0.0032     76.3682    3.1357     0.2941     0.6330     65.6621    1.7767     0.0000     -0.0003    0.0001     2808.9473  7.7591     0.0726     1600.6237  4600.6235  1.8515     52.3703   
4895.0000  8.5000     0.6335     -0.1042    46.7478    46.2403    47.2554    86.4784    85.7039    87.2529    88.5063    89.3818    87.6307    59.9318    0.8239     59.1079    60.7557    -999.2500  11.3372    269.9606   8.9202     0.5255     0.0032     71.2831    3.1302     0.2936     0.6335     65.7157    2.3178     0.0000     -0.0003    0.0001     2812.6580  7.7094     0.0723     1600.5093  4600.5093  1.8499     52.2257   
4895.5000  8.5000     0.6336     -0.1013    47.0276    46.3081    47.7470    87.1772    86.0862    88.2682    88.9824    89.3379    88.6268    59.9643    0.8557     59.1086    60.8200    -999.2500  9.8253     270.0526   8.9056     0.5233     0.0033     69.7483    3.1755     0.2948     0.6336     65.9280    2.0495     0.0000     -0.0003    0.0001     2788.7080  7.6169     0.0753     1601.3752  4601.3750  1.8537     52.0065   
4896.0000  8.5000     0.6334     -0.0981    47.3324    46.5859    48.0789    87.7327    86.6193    88.8461    88.9408    88.8817    89.0000    60.0282    0.8992     59.1290    60.9274    -999.2500  10.0283    270.1353   8.9253     0.5207     0.0033     71.3477    3.1794     0.2947     0.6334     66.0809    1.3676     0.0000     -0.0003    0.0001     2789.2344  7.4962     0.0750     1602.5092  4602.5093  1.8535     51.7428   
