~Version
 VERS              .         2.0                           : CWLS LOG ASCII STANDARD - VERSION 2.0
 WRAP              .         NO                            : ONE LINE PER DEPTH STEP
 DLM               .         SPACE                         : DELIMITING CHARACTER(SPACE TAB OR COMMA)
~Well Information
#_______________________________________________________________________________
#
#PARAMETER_NAME    .UNIT     VALUE                         : DESCRIPTION
#_______________________________________________________________________________
STRT               .ft       1049.0000                     : First reference value
STOP               .ft       5858.0000                     : Last reference value
STEP               .ft       0.5000                        : Step increment
NULL               .         -999.25                       : Missing value
COMP               .         PRAIRIE STATE GENERATING CO, LLC: Company
WELL               .         LIVELY GROVE #1               : Well name
FLD                .         N/A                           : Field
LOC                .                                       : Location
CNTY               .         WASHINGTON                    : County
STAT               .         ILLINOIS                      : State
CTRY               .         USA                           : Country
SRVC               .         Schlumberger                  : Service Company
DATE               .         13-Aug-2021                   : Date
UWI                .                                       : Unique Well ID
APD                .ft       16                            : Elevation of Depth Reference (LMF) Above Permanent Datum
API                .         12-189-24947-00               : 
BHS                .         OPEN                          : Borehole Status (Open or Cased Hole)
BHT                .degF     115                           : Bottom Hole Temperature
BLI                .ft       5888                          : Bottom Log Interval
BS                 .in       8.5                           : Bit Size
CBDR               .ft       1049                          : Casing Bottom of Driller
CBLO               .ft       1049                          : Logger Casing Shoe Depth
CSIZ               .in       9.625                         : Current Casing Size
CWEI               .lbm/ft   36                            : Casing Weight
DCS                .         11-Aug-2021                   : Date Circulation Stopped
DFD                .lbm/gal  9.35                          : Drilling Fluid Density
DFT                .         FRESH WBM                     : Drilling Fluid Type
DLAB               .         12-Aug-2021                   : Date Logger At Bottom
EDF                .ft       477                           : Elevation of Drill Floor
EGL                .ft       461                           : Elevation of Ground Level
EKB                .ft       477                           : Elevation of Kelly Bushing
EPD                .ft       461                           : Elevation of Permanent Datum (PDAT) above Mean Sea Level
LMF                .         KB                            : Logging Measured From (Name of Logging Elevation Reference)
LUL                .         BRADFORD, PA                  : Logging Unit Location
LUN                .         OSLC 2266                     : Logging Unit Number
LATI               .         38.352151 degrees             : Latitude
LONG               .         -89.644768 degrees            : Longitude
MCST               .degF     81.9                          : Mudcake Sample Temperature
MFST               .degF     81.9                          : Mud Filtrate Sample Temperature
MRT                .degF     115                           : Maximum Recorded Temperature
MST                .degF     81.9                          : Mud Sample Temperature
ORIGINALWELLNAME   .         LIVELY GROVE #1               : 
PDAT               .         GL                            : Permanent Datum
PRODUCER-CODE      .         440                           : 
PRODUCER-NAME      .         Schlumberger                  : 
RMB                .ohm.m    0.9233273                     : Resistivity of Mud at Bottom Hole Temperature
RMCS               .ohm.m    1.44                          : Resistivity of Mud Cake Sample
RMFS               .ohm.m    1.033                         : Resistivity of Mud Filtrate Sample
RMS                .ohm.m    1.268                         : Resistivity of Mud Sample
RUN                .         RUN 1D                        : Run Number
TCS                .         13_00_00                      : Time Circulation Stopped
TDD                .ft       5888.35                       : Driller Total Depth
TDL                .ft       5888.35                       : Logger Total Depth
TLAB               .         17_08_00                      : Time Logger At Bottom
TLI                .ft       1049                          : Top Log Interval
~Parameter Information Block
#_______________________________________________________________________________
#
#PARAMETER_NAME    .UNIT     VALUE                         : DESCRIPTION
#_______________________________________________________________________________
SET                .         0_PnS_Aniso                   : 
TLFamily_BS        .         Bit Size                      : 
TLFamily_DEVIM     .         Hole Deviation                : 
TLFamily_DPHZ      .         Density Porosity              : 
TLFamily_DTCO_MF_DDBHC .         Compressional Slowness        : 
TLFamily_DTCO_MF_R .         Compressional Slowness        : 
TLFamily_DTCO_MF_T .         Compressional Slowness        : 
TLFamily_DTSH_FAST_DDBHC .         Fast Shear Slowness           : 
TLFamily_DTSH_FAST_R .         Fast Shear Slowness           : 
TLFamily_DTSH_FAST_T .         Fast Shear Slowness           : 
TLFamily_DTSH_SLOW_DDBHC .         Slow Shear Slowness           : 
TLFamily_DTSH_SLOW_R .         Slow Shear Slowness           : 
TLFamily_DTSH_SLOW_T .         Slow Shear Slowness           : 
TLFamily_FSA_NAZ   .         Fast Shear Azimuth            : 
TLFamily_FSA_NAZ_ERR .         Fast Shear Azimuth            : 
TLFamily_FSA_NAZ_ERRMINUS .         Fast Shear Azimuth            : 
TLFamily_FSA_NAZ_ERRPLUS .         Fast Shear Azimuth            : 
TLFamily_FSA_NAZ_IN .         Fast Shear Azimuth            : 
TLFamily_GR_EDTC   .         Gamma Ray                     : 
TLFamily_HAZIM     .         Hole Azimuth                  : 
TLFamily_HDAR      .         Borehole Diameter             : 
TLFamily_MAXXENE_OVERALL .         Acoustic Energy               : 
TLFamily_MD        .         Measured Depth                : 
TLFamily_MINXENE_OVERALL .         Acoustic Energy               : 
TLFamily_P1NO_MAST .         Pad A North                   : 
TLFamily_PEFZ      .         Photoelectric Factor          : 
TLFamily_PR_FAST   .         Poisson Ratio (Dynamic)       : 
TLFamily_SDEVM     .         Sonde Deviation               : 
TLFamily_SENSOR_AZIM_QCI .         Sensor Azimuth                : 
TLFamily_SLOANI    .         Acoustic Anisotropy           : 
TLFamily_SPHI      .         Total Porosity                : 
TLFamily_TDIF_ALT_OVERALL .         Time Interval                 : 
TLFamily_TDIF_ORG_OVERALL .         Time Interval                 : 
TLFamily_TENS      .         Tension                       : 
TLFamily_TIMANI    .         Acoustic Anisotropy           : 
TLFamily_TNPH      .         Thermal Neutron Porosity      : 
TLFamily_TW_B_L6   .         Travel Time                   : 
TLFamily_TW_E_L6   .         Travel Time                   : 
TLFamily_VPVS_FAST .         VpVs (Compressional To Shear) Ratio: 
TLFamily_XENEDIF   .         Acoustic Energy               : 
~Curve Information
#_______________________________________________________________________________
#
#LOGNAME           .UNIT     LOG_ID                        : DESCRIPTION
#_______________________________________________________________________________
MD                 .ft                                     : Measured Depth
BS                 .in                                     : Bit Size 
DEVIM              .deg                                    : Memorized Deviation 
DPHZ               .ft3/ft3                                : Standard Resolution Density Porosity <_techsia_lb_>F11 
DTCO_MF_DDBHC      .us/ft                                  : Compressional slowness 
DTCO_MF_R          .us/ft                                  : Compressional slowness 
DTCO_MF_T          .us/ft                                  : Compressional slowness 
DTSH_FAST_DDBHC    .us/ft                                  : Shear slowness 
DTSH_FAST_R        .us/ft                                  : Shear slowness 
DTSH_FAST_T        .us/ft                                  : Shear slowness 
DTSH_SLOW_DDBHC    .us/ft                                  : Shear slowness 
DTSH_SLOW_R        .us/ft                                  : Shear slowness 
DTSH_SLOW_T        .us/ft                                  : Shear slowness 
FSA_NAZ            .deg                                    : Fast shear azimuth(NAZ REF90) - overall - swapped 
FSA_NAZ_ERR        .deg                                    : Fast shear azimuth error, reference frame NAZ 
FSA_NAZ_ERRMINUS   .deg                                    : Fast shear azimuth error minus(NAZ REF90) - swapped 
FSA_NAZ_ERRPLUS    .deg                                    : Fast shear azimuth error plus(NAZ REF90) - swapped 
FSA_NAZ_IN         .deg                                    : Fast Shear Azimuth Indicator 
GR_EDTC            .gAPI                                   : Gamma Ray 
HAZIM              .deg                                    : Memorized Hole Azimuth 
HDAR               .in                                     : Hole Diameter from Area 
MAXXENE_OVERALL    .unitless                               : Maximum cross energy - overall 
MINXENE_OVERALL    .unitless                               : Minimum cross energy - overall 
P1NO_MAST          .deg                                    : Pad 1 Azimuth in Plane Orthogonal to Tool Axis (0 = True North), memorized to MAST 
PEFZ               .                                       : Standard Resolution Formation Photoelectric Factor <_techsia_lb_>F11 
PR_FAST            .unitless                               : Possion's Ratio 
SDEVM              .deg                                    : Memorized Sonde Deviation 
SENSOR_AZIM_QCI    .deg                                    : Tool azimuth for input QC 
SLOANI             .%                                      : Slowness-Based Anisotropy 
SPHI               .ft3/ft3                                : Total porosity from Sonic 
TDIF_ALT_OVERALL   .s                                      : Arrival time difference between fast and slow waves(alternate) - overall - swapped 
TDIF_ORG_OVERALL   .s                                      : Arrival time difference between fast and slow waves(original) - overall - swapped 
TENS               .lbf                                    : Cable Tension 
TIMANI             .%                                      : Time-Based Anisotropy 
TNPH               .ft3/ft3                                : Thermal Neutron Porosity (Ratio Method) in Selected Lithology <_techsia_lb_>F11 
TW_B_L6            .us                                     : Time window begin - packed 
TW_E_L6            .us                                     : Time window end - packed 
VPVS_FAST          .unitless                               : VpVs Ratio 
XENEDIF            .unitless                               : Energy-Based Anisotropy 
~Ascii
# ...
2645.0000  8.5000     0.8504     -0.0312    57.1856    57.4015    56.9697    108.0346   107.5377   108.5315   108.6888   108.2574   109.1202   78.8756    5.6911     73.1845    84.5667    -999.2500  35.8397    241.5853   8.8125     0.0147     0.0065     179.7867   4.5830     0.3054     0.8504     168.9031   0.6037     0.0684     -0.0004    0.0000     2274.4211  0.3537     0.0914     1860.2748  4860.2749  1.8892     0.8197    
2645.5000  8.5000     0.8532     -0.0337    56.8482    57.1488    56.5477    107.1692   106.2556   108.0828   107.7735   106.6551   108.8920   79.6347    5.8423     73.7924    85.4770    -999.2500  35.5186    241.3173   8.8248     0.0146     0.0065     180.6405   4.6523     0.3042     0.8532     169.4863   0.5624     0.0661     -0.0004    0.0000     2282.6843  0.3586     0.0932     1859.3481  4859.3481  1.8852     0.8094    
2646.0000  8.5000     0.8559     -0.0366    56.7231    57.0242    56.4221    106.9114   105.7212   108.1015   107.6024   106.4261   108.7786   80.3978    5.8963     74.5014    86.2941    -999.2500  35.7490    241.0592   8.8341     0.0145     0.0065     181.3221   4.6248     0.3041     0.8559     170.3190   0.6442     0.0652     -0.0004    0.0000     2277.4211  0.3260     0.0927     1858.9247  4858.9248  1.8848     0.7932    
2646.5000  8.5000     0.8585     -0.0380    56.7944    56.9537    56.6352    107.0636   105.6813   108.4458   107.7315   106.3591   109.1038   80.7982    6.0754     74.7228    86.8737    -999.2500  35.1320    240.8142   8.8051     0.0143     0.0066     182.3517   4.6001     0.3042     0.8585     170.8990   0.6219     0.0657     -0.0004    0.0000     2285.1499  0.3383     0.0923     1859.4607  4859.4609  1.8851     0.7789    
2647.0000  8.5000     0.8609     -0.0345    57.1055    57.0448    57.1663    107.0985   106.0111   108.1860   107.7116   106.6640   108.7592   81.2632    5.8723     75.3909    87.1355    -999.2500  34.1637    240.5809   8.7930     0.0144     0.0066     183.3785   4.5535     0.3014     0.8609     171.7791   0.5708     0.0679     -0.0004    0.0000     2293.2632  0.3721     0.0906     1860.9150  4860.9150  1.8754     0.7848    
2647.5000  8.5000     0.8632     -0.0365    57.5063    57.3582    57.6544    107.0860   106.1387   108.0333   107.3714   106.4621   108.2806   82.0508    6.1817     75.8691    88.2324    -999.2500  35.4383    240.3278   8.7981     0.0144     0.0066     184.0883   4.5467     0.2974     0.8632     172.6564   0.2661     0.0707     -0.0004    0.0000     2298.4736  0.3809     0.0897     1863.2483  4863.2485  1.8622     0.7771    
2648.0000  8.5000     0.8650     -0.0375    57.7103    57.6813    57.7394    107.0835   106.3662   107.8008   107.5242   106.6666   108.3818   82.7731    6.6197     76.1535    89.3928    -999.2500  35.4610    240.1283   8.7511     0.0142     0.0066     185.1069   4.5516     0.2953     0.8650     173.2768   0.4107     0.0722     -0.0004    0.0000     2253.1501  0.3892     0.0899     1865.4558  4865.4561  1.8555     0.7617    
2648.5000  8.5000     0.8666     -0.0369    57.5006    57.5311    57.4702    107.3929   106.9268   107.8589   107.9755   107.5626   108.3885   83.5861    7.1397     76.4464    90.7258    -999.2500  36.0626    239.9394   8.7344     0.0140     0.0066     185.7263   4.5511     0.2991     0.8666     174.1807   0.5411     0.0707     -0.0004    0.0000     2287.0527  0.3920     0.0905     1867.8158  4867.8159  1.8677     0.7452    
2649.0000  8.5000     0.8679     -0.0352    57.3539    57.1136    57.5942    108.2596   107.4156   109.1037   108.8238   107.9220   109.7255   83.9540    7.2231     76.7309    91.1772    -999.2500  34.8594    239.7747   8.7561     0.0141     0.0066     186.7109   4.4966     0.3049     0.8679     174.7786   0.5198     0.0696     -0.0004    0.0000     2265.1580  0.4043     0.0966     1870.1350  4870.1348  1.8876     0.7497    
2649.5000  8.5000     0.8689     -0.0368    57.9923    57.3499    58.6346    109.0460   107.3404   110.7515   109.6300   107.9004   111.3596   84.5034    7.1135     77.3899    91.6170    -999.2500  35.4846    239.6202   8.7281     0.0142     0.0066     187.7100   4.3394     0.3028     0.8689     175.6369   0.5342     0.0742     -0.0004    0.0000     2260.1001  0.4200     0.1039     1872.4218  4872.4214  1.8804     0.7588    
2650.0000  8.5000     0.8699     -0.0401    59.5009    58.6065    60.3953    109.9574   107.6962   112.2186   110.4897   108.0878   112.8915   84.6953    7.1051     77.5902    91.8004    -999.2500  39.1428    239.5005   8.7345     0.0145     0.0067     188.4503   4.0868     0.2930     0.8699     176.2371   0.4829     0.0848     -0.0004    0.0000     2273.6316  0.4435     0.1267     1875.1460  4875.1460  1.8480     0.7828    
2650.5000  8.5000     0.8705     -0.0365    61.4912    60.7170    62.2653    111.5393   109.4750   113.6036   111.8631   109.6655   114.0607   85.3078    7.4323     77.8756    92.7401    -999.2500  45.3405    239.3909   8.7813     0.0149     0.0068     189.4664   3.8542     0.2817     0.8705     177.1375   0.2898     0.0989     -0.0004    0.0000     2262.3159  0.4641     0.1442     1877.8168  4877.8164  1.8139     0.8080    
2651.0000  8.5000     0.8715     -0.0267    63.1780    62.4991    63.8569    113.5571   111.8451   115.2690   114.0035   112.2130   115.7940   85.6174    7.4292     78.1882    93.0466    -999.2500  52.3455    239.2968   8.8559     0.0152     0.0069     190.1862   3.6897     0.2759     0.8715     177.9495   0.3924     0.1108     -0.0004    0.0000     2284.4739  0.4843     0.1690     1880.6326  4880.6323  1.7974     0.8359    
2651.5000  8.5000     0.8721     -0.0199    64.2940    63.6075    64.9805    114.8942   114.0189   115.7694   115.2328   114.3632   116.1025   85.9084    7.0642     78.8442    92.9726    -999.2500  58.5964    239.2249   8.9102     0.0158     0.0069     191.2817   3.5677     0.2720     0.8721     178.5179   0.2943     0.1187     -0.0004    0.0000     2279.2632  0.5103     0.1806     1884.0570  4884.0571  1.7870     0.8873    
2652.0000  8.5000     0.8728     -0.0206    64.8903    64.4767    65.3039    115.3353   115.2509   115.4197   115.9254   115.9979   115.8530   86.2325    6.8469     79.3856    93.0794    -999.2500  62.5368    239.1580   8.9172     0.0163     0.0070     191.9695   3.5015     0.2684     0.8728     179.2023   0.5104     0.1229     -0.0004    0.0000     2268.7500  0.5381     0.1939     1887.6945  4887.6948  1.7774     0.9331    
2652.5000  8.5000     0.8737     -0.0194    64.9888    64.8288    65.1488    115.5000   115.4414   115.5586   116.3183   116.5553   116.0813   86.5206    7.0379     79.4827    93.5584    -999.2500  67.4262    239.0984   8.9307     0.0166     0.0071     192.8046   3.4590     0.2684     0.8737     179.7867   0.7060     0.1236     -0.0004    0.0000     2295.4739  0.5516     0.2056     1891.3853  4891.3853  1.7772     0.9525    
2653.0000  8.5000     0.8748     -0.0138    65.0251    64.9514    65.0989    115.8251   115.7280   115.9222   116.6959   116.7271   116.6647   87.0510    6.8316     80.2194    93.8826    -999.2500  68.8959    239.0324   8.9316     0.0168     0.0071     193.8284   3.4760     0.2699     0.8748     180.6405   0.7490     0.1239     -0.0004    0.0000     2303.2632  0.5667     0.2019     1895.6598  4895.6597  1.7812     0.9761    
2653.5000  8.5000     0.8761     -0.0090    65.2589    65.0387    65.4792    116.5980   116.2812   116.9148   117.0348   116.7636   117.3060   87.2623    6.7974     80.4649    94.0597    -999.2500  70.7912    238.9595   8.9399     0.0171     0.0071     194.5440   3.4721     0.2719     0.8761     181.3221   0.3739     0.1255     -0.0004    0.0000     2287.7002  0.5834     0.2064     1899.9318  4899.9321  1.7867     0.9967    
2654.0000  8.5000     0.8778     -0.0133    65.5940    65.2494    65.9385    117.0981   116.6817   117.5146   117.3707   117.1854   117.5559   87.3654    6.3370     81.0284    93.7024    -999.2500  67.6730    238.8717   8.9336     0.0174     0.0071     195.5602   3.5027     0.2714     0.8778     182.3517   0.2325     0.1279     -0.0004    0.0000     2277.4211  0.6006     0.2055     1904.3392  4904.3394  1.7852     1.0242    
