~Version
 VERS              .         2.0                           : CWLS LOG ASCII STANDARD - VERSION 2.0
 WRAP              .         NO                            : ONE LINE PER DEPTH STEP
 DLM               .         SPACE                         : DELIMITING CHARACTER(SPACE TAB OR COMMA)
~Well Information
#_______________________________________________________________________________
#
#PARAMETER_NAME    .UNIT     VALUE                         : DESCRIPTION
#_______________________________________________________________________________
STRT               .ft       1049.0000                     : First reference value
STOP               .ft       5858.0000                     : Last reference value
STEP               .ft       0.5000                        : Step increment
NULL               .         -999.25                       : Missing value
COMP               .         PRAIRIE STATE GENERATING CO, LLC: Company
WELL               .         LIVELY GROVE #1               : Well name
FLD                .         N/A                           : Field
LOC                .                                       : Location
CNTY               .         WASHINGTON                    : County
STAT               .         ILLINOIS                      : State
CTRY               .         USA                           : Country
SRVC               .         Schlumberger                  : Service Company
DATE               .         13-Aug-2021                   : Date
UWI                .                                       : Unique Well ID
APD                .ft       16                            : Elevation of Depth Reference (LMF) Above Permanent Datum
API                .         12-189-24947-00               : 
BHS                .         OPEN                          : Borehole Status (Open or Cased Hole)
BHT                .degF     115                           : Bottom Hole Temperature
BLI                .ft       5888                          : Bottom Log Interval
BS                 .in       8.5                           : Bit Size
CBDR               .ft       1049                          : Casing Bottom of Driller
CBLO               .ft       1049                          : Logger Casing Shoe Depth
CSIZ               .in       9.625                         : Current Casing Size
CWEI               .lbm/ft   36                            : Casing Weight
DCS                .         11-Aug-2021                   : Date Circulation Stopped
DFD                .lbm/gal  9.35                          : Drilling Fluid Density
DFT                .         FRESH WBM                     : Drilling Fluid Type
DLAB               .         12-Aug-2021                   : Date Logger At Bottom
EDF                .ft       477                           : Elevation of Drill Floor
EGL                .ft       461                           : Elevation of Ground Level
EKB                .ft       477                           : Elevation of Kelly Bushing
EPD                .ft       461                           : Elevation of Permanent Datum (PDAT) above Mean Sea Level
LMF                .         KB                            : Logging Measured From (Name of Logging Elevation Reference)
LUL                .         BRADFORD, PA                  : Logging Unit Location
LUN                .         OSLC 2266                     : Logging Unit Number
LATI               .         38.352151 degrees             : Latitude
LONG               .         -89.644768 degrees            : Longitude
MCST               .degF     81.9                          : Mudcake Sample Temperature
MFST               .degF     81.9                          : Mud Filtrate Sample Temperature
MRT                .degF     115                           : Maximum Recorded Temperature
MST                .degF     81.9                          : Mud Sample Temperature
ORIGINALWELLNAME   .         LIVELY GROVE #1               : 
PDAT               .         GL                            : Permanent Datum
PRODUCER-CODE      .         440                           : 
PRODUCER-NAME      .         Schlumberger                  : 
RMB                .ohm.m    0.9233273                     : Resistivity of Mud at Bottom Hole Temperature
RMCS               .ohm.m    1.44                          : Resistivity of Mud Cake Sample
RMFS               .ohm.m    1.033                         : Resistivity of Mud Filtrate Sample
RMS                .ohm.m    1.268                         : Resistivity of Mud Sample
RUN                .         RUN 1D                        : Run Number
TCS                .         13_00_00                      : Time Circulation Stopped
TDD                .ft       5888.35                       : Driller Total Depth
TDL                .ft       5888.35                       : Logger Total Depth
TLAB               .         17_08_00                      : Time Logger At Bottom
TLI                .ft       1049                          : Top Log Interval
~Parameter Information Block
#_______________________________________________________________________________
#
#PARAMETER_NAME    .UNIT     VALUE                         : DESCRIPTION
#_______________________________________________________________________________
SET                .         0_PnS_Aniso                   : 
TLFamily_BS        .         Bit Size                      : 
TLFamily_DEVIM     .         Hole Deviation                : 
TLFamily_DPHZ      .         Density Porosity              : 
TLFamily_DTCO_MF_DDBHC .         Compressional Slowness        : 
TLFamily_DTCO_MF_R .         Compressional Slowness        : 
TLFamily_DTCO_MF_T .         Compressional Slowness        : 
TLFamily_DTSH_FAST_DDBHC .         Fast Shear Slowness           : 
TLFamily_DTSH_FAST_R .         Fast Shear Slowness           : 
TLFamily_DTSH_FAST_T .         Fast Shear Slowness           : 
TLFamily_DTSH_SLOW_DDBHC .         Slow Shear Slowness           : 
TLFamily_DTSH_SLOW_R .         Slow Shear Slowness           : 
TLFamily_DTSH_SLOW_T .         Slow Shear Slowness           : 
TLFamily_FSA_NAZ   .         Fast Shear Azimuth            : 
TLFamily_FSA_NAZ_ERR .         Fast Shear Azimuth            : 
TLFamily_FSA_NAZ_ERRMINUS .         Fast Shear Azimuth            : 
TLFamily_FSA_NAZ_ERRPLUS .         Fast Shear Azimuth            : 
TLFamily_FSA_NAZ_IN .         Fast Shear Azimuth            : 
TLFamily_GR_EDTC   .         Gamma Ray                     : 
TLFamily_HAZIM     .         Hole Azimuth                  : 
TLFamily_HDAR      .         Borehole Diameter             : 
TLFamily_MAXXENE_OVERALL .         Acoustic Energy               : 
TLFamily_MD        .         Measured Depth                : 
TLFamily_MINXENE_OVERALL .         Acoustic Energy               : 
TLFamily_P1NO_MAST .         Pad A North                   : 
TLFamily_PEFZ      .         Photoelectric Factor          : 
TLFamily_PR_FAST   .         Poisson Ratio (Dynamic)       : 
TLFamily_SDEVM     .         Sonde Deviation               : 
TLFamily_SENSOR_AZIM_QCI .         Sensor Azimuth                : 
TLFamily_SLOANI    .         Acoustic Anisotropy           : 
TLFamily_SPHI      .         Total Porosity                : 
TLFamily_TDIF_ALT_OVERALL .         Time Interval                 : 
TLFamily_TDIF_ORG_OVERALL .         Time Interval                 : 
TLFamily_TENS      .         Tension                       : 
TLFamily_TIMANI    .         Acoustic Anisotropy           : 
TLFamily_TNPH      .         Thermal Neutron Porosity      : 
TLFamily_TW_B_L6   .         Travel Time                   : 
TLFamily_TW_E_L6   .         Travel Time                   : 
TLFamily_VPVS_FAST .         VpVs (Compressional To Shear) Ratio: 
TLFamily_XENEDIF   .         Acoustic Energy               : 
~Curve Information
#_______________________________________________________________________________
#
#LOGNAME           .UNIT     LOG_ID                        : DESCRIPTION
#_______________________________________________________________________________
MD                 .ft                                     : Measured Depth
BS                 .in                                     : Bit Size 
DEVIM              .deg                                    : Memorized Deviation 
DPHZ               .ft3/ft3                                : Standard Resolution Density Porosity <_techsia_lb_>F11 
DTCO_MF_DDBHC      .us/ft                                  : Compressional slowness 
DTCO_MF_R          .us/ft                                  : Compressional slowness 
DTCO_MF_T          .us/ft                                  : Compressional slowness 
DTSH_FAST_DDBHC    .us/ft                                  : Shear slowness 
DTSH_FAST_R        .us/ft                                  : Shear slowness 
DTSH_FAST_T        .us/ft                                  : Shear slowness 
DTSH_SLOW_DDBHC    .us/ft                                  : Shear slowness 
DTSH_SLOW_R        .us/ft                                  : Shear slowness 
DTSH_SLOW_T        .us/ft                                  : Shear slowness 
FSA_NAZ            .deg                                    : Fast shear azimuth(NAZ REF90) - overall - swapped 
FSA_NAZ_ERR        .deg                                    : Fast shear azimuth error, reference frame NAZ 
FSA_NAZ_ERRMINUS   .deg                                    : Fast shear azimuth error minus(NAZ REF90) - swapped 
FSA_NAZ_ERRPLUS    .deg                                    : Fast shear azimuth error plus(NAZ REF90) - swapped 
FSA_NAZ_IN         .deg                                    : Fast Shear Azimuth Indicator 
GR_EDTC            .gAPI                                   : Gamma Ray 
HAZIM              .deg                                    : Memorized Hole Azimuth 
HDAR               .in                                     : Hole Diameter from Area 
MAXXENE_OVERALL    .unitless                               : Maximum cross energy - overall 
MINXENE_OVERALL    .unitless                               : Minimum cross energy - overall 
P1NO_MAST          .deg                                    : Pad 1 Azimuth in Plane Orthogonal to Tool Axis (0 = True North), memorized to MAST 
PEFZ               .                                       : Standard Resolution Formation Photoelectric Factor <_techsia_lb_>F11 
PR_FAST            .unitless                               : Possion's Ratio 
SDEVM              .deg                                    : Memorized Sonde Deviation 
SENSOR_AZIM_QCI    .deg                                    : Tool azimuth for input QC 
SLOANI             .%                                      : Slowness-Based Anisotropy 
SPHI               .ft3/ft3                                : Total porosity from Sonic 
TDIF_ALT_OVERALL   .s                                      : Arrival time difference between fast and slow waves(alternate) - overall - swapped 
TDIF_ORG_OVERALL   .s                                      : Arrival time difference between fast and slow waves(original) - overall - swapped 
TENS               .lbf                                    : Cable Tension 
TIMANI             .%                                      : Time-Based Anisotropy 
TNPH               .ft3/ft3                                : Thermal Neutron Porosity (Ratio Method) in Selected Lithology <_techsia_lb_>F11 
TW_B_L6            .us                                     : Time window begin - packed 
TW_E_L6            .us                                     : Time window end - packed 
VPVS_FAST          .unitless                               : VpVs Ratio 
XENEDIF            .unitless                               : Energy-Based Anisotropy 
~Ascii
# ...
4564.0000  8.5000     0.4667     -0.0725    49.6221    53.1868    46.0574    91.1489    93.6674    88.6305    91.6351    94.1088    89.1615    60.5922    10.5253    50.0669    71.1174    -999.2500  8.7680     212.4475   9.0226     0.1201     0.0435     61.4974    3.1043     0.2894     0.4667     68.5029    0.5320     0.0150     -0.0004    0.0000     2728.6499  1.8739     0.1335     1694.9620  4694.9619  1.8369     7.6586    
4564.5000  8.5000     0.4689     -0.0656    47.8902    51.6657    44.1148    91.2648    91.9144    90.6152    92.2789    93.5572    91.0007    61.9103    12.0443    49.8660    73.9544    -999.2500  9.4003     212.8644   8.9826     0.1149     0.0467     62.1766    3.0697     0.3100     0.4689     68.5817    1.1051     0.0028     -0.0004    0.0000     2718.3750  1.8418     0.1230     1701.6036  4701.6035  1.9057     6.8183    
4565.0000  8.5000     0.4706     -0.0432    47.9324    51.2884    44.5764    91.4839    91.6595    91.3084    93.6916    95.3558    92.0273    63.4611    13.9480    49.5132    77.4091    -999.2500  9.5585     212.7680   8.9508     0.1055     0.0498     63.6202    2.9303     0.3108     0.4706     68.4757    2.3844     0.0031     -0.0004    0.0000     2733.1821  1.7880     0.1204     1706.7653  4706.7651  1.9086     5.5640    
4565.5000  8.5000     0.4724     -0.0119    49.8288    52.7305    46.9272    90.7736    92.8804    88.6667    92.8738    96.5595    89.1881    66.2649    15.8497    50.4152    82.1149    -999.2500  9.8448     212.4712   8.9617     0.0962     0.0523     65.0648    2.6976     0.2844     0.4724     68.2503    2.2873     0.0165     -0.0004    0.0000     2749.8823  1.7796     0.1095     1709.7932  4709.7935  1.8217     4.3965    
4566.0000  8.5000     0.4757     0.0081     52.6502    54.6844    50.6160    91.0157    93.6665    88.3650    92.6526    96.2865    89.0186    69.9765    16.3125    53.6639    86.2890    -999.2500  10.2996    212.1061   8.8619     0.0933     0.0536     65.7313    2.4837     0.2485     0.4757     68.2355    1.7824     0.0364     -0.0004    0.0000     2736.0752  1.8607     0.1034     1711.4996  4711.4995  1.7287     3.9668    
4566.5000  8.5000     0.4785     0.0327     55.1358    55.7077    54.5640    93.1087    94.8609    91.3565    93.8510    95.9649    91.7370    74.0970    17.3305    56.7664    91.4279    -999.2500  11.5723    211.6582   8.7366     0.0880     0.0537     67.8059    2.3947     0.2300     0.4785     68.1783    0.7941     0.0540     -0.0004    0.0000     2724.6001  1.8950     0.1057     1709.5170  4709.5166  1.6887     3.4328    
4567.0000  8.5000     0.4784     0.0211     56.2727    55.5820    56.9633    95.4697    96.2157    94.7238    95.8630    96.8572    94.8688    78.5859    18.0613    60.5244    96.6475    -999.2500  12.0991    210.8074   8.7010     0.0836     0.0521     69.4000    2.4924     0.2338     0.4784     68.1349    0.4111     0.0620     -0.0004    0.0000     2755.3750  1.9181     0.1162     1704.0636  4704.0635  1.6966     3.1503    
4567.5000  8.5000     0.4800     0.0006     55.7489    54.5001    56.9978    97.5469    97.6363    97.4574    97.8226    98.0198    97.6253    82.3813    17.9137    64.4677    100.2950   -999.2500  10.9650    210.2211   8.7069     0.0802     0.0493     70.4335    2.6518     0.2575     0.4800     66.4455    0.2823     0.0583     -0.0004    0.0000     2766.8750  1.9121     0.1223     1697.0917  4697.0913  1.7498     3.0898    
4568.0000  8.5000     0.4821     -0.0054    55.7072    54.4181    56.9963    98.4292    98.2738    98.5845    98.7513    98.5078    98.9948    85.5910    17.4122    68.1789    103.0031   -999.2500  10.7228    209.8263   8.7282     0.0770     0.0458     70.4811    2.7534     0.2644     0.4821     64.5760    0.3268     0.0580     -0.0004    0.0000     2758.9502  1.8808     0.1272     1690.2955  4690.2954  1.7669     3.1249    
4568.5000  8.5000     0.4849     0.0114     57.6005    56.7506    58.4505    98.3674    98.7009    98.0339    98.6157    98.9847    98.2466    87.6416    16.8464    70.7952    104.4880   -999.2500  12.1650    209.5529   8.7658     0.0741     0.0426     66.1220    2.7148     0.2391     0.4849     63.5998    0.2521     0.0714     -0.0004    0.0000     2760.0540  1.8358     0.1365     1684.5999  4684.5996  1.7078     3.1493    
4569.0000  8.5000     0.4870     0.0358     58.7312    58.5453    58.9172    99.0575    99.7210    98.3940    99.4132    99.9446    98.8818    88.4383    17.0807    71.3576    105.5191   -999.2500  15.0946    209.3472   8.7736     0.0704     0.0404     61.9021    2.6131     0.2290     0.4870     62.5573    0.3585     0.0794     -0.0004    0.0000     2775.1001  1.7580     0.1469     1680.3290  4680.3291  1.6866     3.0079    
4569.5000  8.5000     0.4884     0.0357     58.8224    58.6449    59.0000    99.6624    99.4059    99.9188    100.1557   99.6170    100.6945   89.9173    16.9704    72.9469    106.8877   -999.2500  16.3391    209.2629   8.7984     0.0667     0.0382     61.1540    2.5320     0.2327     0.4884     61.5489    0.4938     0.0800     -0.0004    0.0000     2756.9048  1.6777     0.1396     1677.4122  4677.4126  1.6943     2.8550    
4570.0000  8.5000     0.4898     0.0263     57.2824    56.7677    57.7971    96.5713    96.8047    96.3378    99.6887    97.3067    102.0707   91.7777    15.4925    76.2853    107.2702   -999.2500  15.6617    209.2952   8.8857     0.0651     0.0361     61.3588    2.5446     0.2286     0.4898     61.3849    3.1768     0.0691     -0.0004    0.0000     2737.2827  1.6365     0.1283     1675.2823  4675.2827  1.6859     2.8986    
4570.5000  8.5000     0.4902     0.0124     54.6881    53.9217    55.4546    92.8742    94.0711    91.6774    98.0233    94.7251    101.3214   90.7507    14.7397    76.0111    105.4904   -999.2500  16.0712    209.3564   8.8705     0.0653     0.0358     61.5021    2.6487     0.2346     0.4902     61.3380    5.3945     0.0508     -0.0004    0.0000     2774.3252  1.6374     0.1287     1672.9983  4672.9980  1.6983     2.9468    
4571.0000  8.5000     0.4903     -0.0073    53.3926    52.0474    54.7378    91.2625    91.9218    90.6031    95.8385    92.4988    99.1782    88.2583    15.2475    73.0108    103.5058   -999.2500  16.9220    209.4618   8.7627     0.0685     0.0372     61.4031    2.7770     0.2398     0.4903     61.1753    4.8915     0.0416     -0.0004    0.0000     2779.9001  1.6234     0.1287     1669.7931  4669.7930  1.7093     3.1363    
4571.5000  8.5000     0.4908     -0.0191    52.8510    51.4126    54.2894    90.8642    91.1496    90.5788    93.7665    91.5689    95.9640    84.9151    16.2684    68.6482    101.1826   -999.2500  16.5627    209.5257   8.8872     0.0829     0.0396     61.3393    2.9090     0.2444     0.4908     61.2189    3.1439     0.0378     -0.0004    0.0000     2762.8501  1.6782     0.1298     1665.3040  4665.3037  1.7193     4.3320    
4572.0000  8.5000     0.4911     -0.0398    52.0912    50.9178    53.2646    91.0327    91.5161    90.5492    92.3581    91.7902    92.9260    78.8335    17.2105    61.6229    96.0441    -999.2500  13.7850    209.5396   8.9327     0.1064     0.0420     61.4115    2.9649     0.2566     0.4911     61.6325    1.4455     0.0324     -0.0004    0.0000     2793.8882  1.9028     0.1154     1659.5179  4659.5176  1.7476     6.4428    
4572.5000  8.5000     0.4916     -0.0641    50.8926    50.2959    51.4893    89.7668    90.4721    89.0615    90.6855    91.0243    90.3466    76.4059    16.0586    60.3474    92.4646    -999.2500  11.8438    209.4556   8.9366     0.1200     0.0429     61.6634    2.9951     0.2632     0.4916     62.4883    1.0182     0.0240     -0.0004    0.0000     2780.5132  2.0992     0.1053     1652.2620  4652.2617  1.7638     7.7072    
4573.0000  8.5000     0.4922     -0.0915    48.7917    49.1630    48.4205    88.6041    88.9180    88.2902    89.2024    89.4933    88.9114    75.9435    14.6526    61.2909    90.5961    -999.2500  9.9721     209.3310   8.9098     0.1242     0.0438     62.1870    3.0069     0.2824     0.4922     63.9907    0.6729     0.0091     -0.0004    0.0000     2766.8999  2.1816     0.0910     1642.9802  4642.9800  1.8160     8.0379    
