~Version
 VERS              .         2.0                           : CWLS LOG ASCII STANDARD - VERSION 2.0
 WRAP              .         NO                            : ONE LINE PER DEPTH STEP
 DLM               .         SPACE                         : DELIMITING CHARACTER(SPACE TAB OR COMMA)
~Well Information
#_______________________________________________________________________________
#
#PARAMETER_NAME    .UNIT     VALUE                         : DESCRIPTION
#_______________________________________________________________________________
STRT               .ft       1049.0000                     : First reference value
STOP               .ft       5858.0000                     : Last reference value
STEP               .ft       0.5000                        : Step increment
NULL               .         -999.25                       : Missing value
COMP               .         PRAIRIE STATE GENERATING CO, LLC: Company
WELL               .         LIVELY GROVE #1               : Well name
FLD                .         N/A                           : Field
LOC                .                                       : Location
CNTY               .         WASHINGTON                    : County
STAT               .         ILLINOIS                      : State
CTRY               .         USA                           : Country
SRVC               .         Schlumberger                  : Service Company
DATE               .         13-Aug-2021                   : Date
UWI                .                                       : Unique Well ID
APD                .ft       16                            : Elevation of Depth Reference (LMF) Above Permanent Datum
API                .         12-189-24947-00               : 
BHS                .         OPEN                          : Borehole Status (Open or Cased Hole)
BHT                .degF     115                           : Bottom Hole Temperature
BLI                .ft       5888                          : Bottom Log Interval
BS                 .in       8.5                           : Bit Size
CBDR               .ft       1049                          : Casing Bottom of Driller
CBLO               .ft       1049                          : Logger Casing Shoe Depth
CSIZ               .in       9.625                         : Current Casing Size
CWEI               .lbm/ft   36                            : Casing Weight
DCS                .         11-Aug-2021                   : Date Circulation Stopped
DFD                .lbm/gal  9.35                          : Drilling Fluid Density
DFT                .         FRESH WBM                     : Drilling Fluid Type
DLAB               .         12-Aug-2021                   : Date Logger At Bottom
EDF                .ft       477                           : Elevation of Drill Floor
EGL                .ft       461                           : Elevation of Ground Level
EKB                .ft       477                           : Elevation of Kelly Bushing
EPD                .ft       461                           : Elevation of Permanent Datum (PDAT) above Mean Sea Level
LMF                .         KB                            : Logging Measured From (Name of Logging Elevation Reference)
LUL                .         BRADFORD, PA                  : Logging Unit Location
LUN                .         OSLC 2266                     : Logging Unit Number
LATI               .         38.352151 degrees             : Latitude
LONG               .         -89.644768 degrees            : Longitude
MCST               .degF     81.9                          : Mudcake Sample Temperature
MFST               .degF     81.9                          : Mud Filtrate Sample Temperature
MRT                .degF     115                           : Maximum Recorded Temperature
MST                .degF     81.9                          : Mud Sample Temperature
ORIGINALWELLNAME   .         LIVELY GROVE #1               : 
PDAT               .         GL                            : Permanent Datum
PRODUCER-CODE      .         440                           : 
PRODUCER-NAME      .         Schlumberger                  : 
RMB                .ohm.m    0.9233273                     : Resistivity of Mud at Bottom Hole Temperature
RMCS               .ohm.m    1.44                          : Resistivity of Mud Cake Sample
RMFS               .ohm.m    1.033                         : Resistivity of Mud Filtrate Sample
RMS                .ohm.m    1.268                         : Resistivity of Mud Sample
RUN                .         RUN 1D                        : Run Number
TCS                .         13_00_00                      : Time Circulation Stopped
TDD                .ft       5888.35                       : Driller Total Depth
TDL                .ft       5888.35                       : Logger Total Depth
TLAB               .         17_08_00                      : Time Logger At Bottom
TLI                .ft       1049                          : Top Log Interval
~Parameter Information Block
#_______________________________________________________________________________
#
#PARAMETER_NAME    .UNIT     VALUE                         : DESCRIPTION
#_______________________________________________________________________________
SET                .         0_PnS_Aniso                   : 
TLFamily_BS        .         Bit Size                      : 
TLFamily_DEVIM     .         Hole Deviation                : 
TLFamily_DPHZ      .         Density Porosity              : 
TLFamily_DTCO_MF_DDBHC .         Compressional Slowness        : 
TLFamily_DTCO_MF_R .         Compressional Slowness        : 
TLFamily_DTCO_MF_T .         Compressional Slowness        : 
TLFamily_DTSH_FAST_DDBHC .         Fast Shear Slowness           : 
TLFamily_DTSH_FAST_R .         Fast Shear Slowness           : 
TLFamily_DTSH_FAST_T .         Fast Shear Slowness           : 
TLFamily_DTSH_SLOW_DDBHC .         Slow Shear Slowness           : 
TLFamily_DTSH_SLOW_R .         Slow Shear Slowness           : 
TLFamily_DTSH_SLOW_T .         Slow Shear Slowness           : 
TLFamily_FSA_NAZ   .         Fast Shear Azimuth            : 
TLFamily_FSA_NAZ_ERR .         Fast Shear Azimuth            : 
TLFamily_FSA_NAZ_ERRMINUS .         Fast Shear Azimuth            : 
TLFamily_FSA_NAZ_ERRPLUS .         Fast Shear Azimuth            : 
TLFamily_FSA_NAZ_IN .         Fast Shear Azimuth            : 
TLFamily_GR_EDTC   .         Gamma Ray                     : 
TLFamily_HAZIM     .         Hole Azimuth                  : 
TLFamily_HDAR      .         Borehole Diameter             : 
TLFamily_MAXXENE_OVERALL .         Acoustic Energy               : 
TLFamily_MD        .         Measured Depth                : 
TLFamily_MINXENE_OVERALL .         Acoustic Energy               : 
TLFamily_P1NO_MAST .         Pad A North                   : 
TLFamily_PEFZ      .         Photoelectric Factor          : 
TLFamily_PR_FAST   .         Poisson Ratio (Dynamic)       : 
TLFamily_SDEVM     .         Sonde Deviation               : 
TLFamily_SENSOR_AZIM_QCI .         Sensor Azimuth                : 
TLFamily_SLOANI    .         Acoustic Anisotropy           : 
TLFamily_SPHI      .         Total Porosity                : 
TLFamily_TDIF_ALT_OVERALL .         Time Interval                 : 
TLFamily_TDIF_ORG_OVERALL .         Time Interval                 : 
TLFamily_TENS      .         Tension                       : 
TLFamily_TIMANI    .         Acoustic Anisotropy           : 
TLFamily_TNPH      .         Thermal Neutron Porosity      : 
TLFamily_TW_B_L6   .         Travel Time                   : 
TLFamily_TW_E_L6   .         Travel Time                   : 
TLFamily_VPVS_FAST .         VpVs (Compressional To Shear) Ratio: 
TLFamily_XENEDIF   .         Acoustic Energy               : 
~Curve Information
#_______________________________________________________________________________
#
#LOGNAME           .UNIT     LOG_ID                        : DESCRIPTION
#_______________________________________________________________________________
MD                 .ft                                     : Measured Depth
BS                 .in                                     : Bit Size 
DEVIM              .deg                                    : Memorized Deviation 
DPHZ               .ft3/ft3                                : Standard Resolution Density Porosity <_techsia_lb_>F11 
DTCO_MF_DDBHC      .us/ft                                  : Compressional slowness 
DTCO_MF_R          .us/ft                                  : Compressional slowness 
DTCO_MF_T          .us/ft                                  : Compressional slowness 
DTSH_FAST_DDBHC    .us/ft                                  : Shear slowness 
DTSH_FAST_R        .us/ft                                  : Shear slowness 
DTSH_FAST_T        .us/ft                                  : Shear slowness 
DTSH_SLOW_DDBHC    .us/ft                                  : Shear slowness 
DTSH_SLOW_R        .us/ft                                  : Shear slowness 
DTSH_SLOW_T        .us/ft                                  : Shear slowness 
FSA_NAZ            .deg                                    : Fast shear azimuth(NAZ REF90) - overall - swapped 
FSA_NAZ_ERR        .deg                                    : Fast shear azimuth error, reference frame NAZ 
FSA_NAZ_ERRMINUS   .deg                                    : Fast shear azimuth error minus(NAZ REF90) - swapped 
FSA_NAZ_ERRPLUS    .deg                                    : Fast shear azimuth error plus(NAZ REF90) - swapped 
FSA_NAZ_IN         .deg                                    : Fast Shear Azimuth Indicator 
GR_EDTC            .gAPI                                   : Gamma Ray 
HAZIM              .deg                                    : Memorized Hole Azimuth 
HDAR               .in                                     : Hole Diameter from Area 
MAXXENE_OVERALL    .unitless                               : Maximum cross energy - overall 
MINXENE_OVERALL    .unitless                               : Minimum cross energy - overall 
P1NO_MAST          .deg                                    : Pad 1 Azimuth in Plane Orthogonal to Tool Axis (0 = True North), memorized to MAST 
PEFZ               .                                       : Standard Resolution Formation Photoelectric Factor <_techsia_lb_>F11 
PR_FAST            .unitless                               : Possion's Ratio 
SDEVM              .deg                                    : Memorized Sonde Deviation 
SENSOR_AZIM_QCI    .deg                                    : Tool azimuth for input QC 
SLOANI             .%                                      : Slowness-Based Anisotropy 
SPHI               .ft3/ft3                                : Total porosity from Sonic 
TDIF_ALT_OVERALL   .s                                      : Arrival time difference between fast and slow waves(alternate) - overall - swapped 
TDIF_ORG_OVERALL   .s                                      : Arrival time difference between fast and slow waves(original) - overall - swapped 
TENS               .lbf                                    : Cable Tension 
TIMANI             .%                                      : Time-Based Anisotropy 
TNPH               .ft3/ft3                                : Thermal Neutron Porosity (Ratio Method) in Selected Lithology <_techsia_lb_>F11 
TW_B_L6            .us                                     : Time window begin - packed 
TW_E_L6            .us                                     : Time window end - packed 
VPVS_FAST          .unitless                               : VpVs Ratio 
XENEDIF            .unitless                               : Energy-Based Anisotropy 
~Ascii
# ...
3291.0000  8.5000     0.7378     -0.0459    49.0383    49.1525    48.9242    93.5500    94.3514    92.7486    94.0588    94.7878    93.3298    57.4074    3.8810     53.5263    61.2884    -999.2500  17.8604    263.3068   8.7725     0.0272     0.0075     54.0620    4.8695     0.3106     0.7378     52.9282    0.5424     0.0109     -0.0004    0.0000     2352.7000  0.1502     0.0307     1672.3685  4672.3687  1.9077     1.9671    
3291.5000  8.5000     0.7372     -0.0401    49.1082    49.2312    48.9851    93.6319    94.5760    92.6878    93.9080    94.6917    93.1242    57.4285    3.8697     53.5588    61.2982    -999.2500  18.8254    263.2814   8.7742     0.0271     0.0076     54.0941    4.9139     0.3103     0.7372     53.0846    0.2944     0.0114     -0.0004    0.0000     2390.9475  0.1572     0.0318     1672.3905  4672.3901  1.9066     1.9540    
3292.0000  8.5000     0.7362     -0.0375    49.3337    49.4483    49.2191    93.9545    94.6987    93.2103    94.2496    94.8530    93.6461    57.4247    3.8376     53.5872    61.2623    -999.2500  18.9019    263.2446   8.7476     0.0269     0.0076     54.0800    4.9967     0.3097     0.7362     53.2589    0.3135     0.0130     -0.0004    0.0000     2360.8501  0.1583     0.0328     1672.2904  4672.2900  1.9045     1.9379    
3292.5000  8.5000     0.7350     -0.0414    49.4872    49.5236    49.4509    94.3140    95.0081    93.6199    94.6399    95.0491    94.2308    57.4328    3.8300     53.6028    61.2629    -999.2500  19.3253    263.2088   8.7365     0.0267     0.0075     54.0748    5.0455     0.3100     0.7350     53.3766    0.3450     0.0140     -0.0004    0.0000     2358.0500  0.1580     0.0319     1672.0762  4672.0757  1.9058     1.9238    
3293.0000  8.5000     0.7342     -0.0448    49.6400    49.6368    49.6433    94.1120    94.6094    93.6145    94.6242    94.9498    94.2986    57.4318    3.7480     53.6838    61.1797    -999.2500  19.4944    263.1873   8.7415     0.0266     0.0075     54.0868    5.0788     0.3073     0.7342     53.4603    0.5428     0.0151     -0.0004    0.0000     2338.1580  0.1565     0.0344     1671.6658  4671.6655  1.8959     1.9158    
3293.5000  8.5000     0.7333     -0.0428    49.7455    49.7835    49.7075    93.6900    94.1667    93.2134    94.1243    94.4528    93.7958    57.4686    3.6801     53.7885    61.1487    -999.2500  22.4778    263.1672   8.7332     0.0266     0.0075     54.0822    5.0996     0.3037     0.7333     53.5492    0.4624     0.0159     -0.0004    0.0000     2362.9502  0.1537     0.0343     1671.1807  4671.1807  1.8834     1.9162    
3294.0000  8.5000     0.7325     -0.0462    49.4984    49.6190    49.3779    93.3333    93.8156    92.8510    93.8371    94.2388    93.4354    57.4635    3.6361     53.8275    61.0996    -999.2500  19.6895    263.1490   8.7221     0.0266     0.0074     53.9959    5.1195     0.3043     0.7325     53.6038    0.5383     0.0141     -0.0004    0.0000     2343.2632  0.1538     0.0345     1671.2883  4671.2881  1.8856     1.9126    
3294.5000  8.5000     0.7318     -0.0454    49.2221    49.2632    49.1811    92.9547    93.2153    92.6941    93.5505    93.7605    93.3405    57.3245    3.4962     53.8282    60.8207    -999.2500  17.6363    263.1256   8.7271     0.0266     0.0074     53.8525    5.0893     0.3052     0.7318     53.5917    0.6389     0.0122     -0.0004    0.0000     2372.7002  0.1583     0.0312     1671.9620  4671.9619  1.8885     1.9144    
3295.0000  8.5000     0.7310     -0.0489    49.2438    49.2488    49.2387    92.6432    92.8740    92.4124    93.1538    93.3423    92.9653    57.1980    3.3728     53.8252    60.5709    -999.2500  12.8930    263.0980   8.7221     0.0267     0.0074     53.7864    5.0625     0.3031     0.7310     53.5273    0.5497     0.0123     -0.0004    0.0000     2444.5000  0.1654     0.0290     1672.3365  4672.3369  1.8813     1.9294    
3295.5000  8.5000     0.7303     -0.0436    49.2188    49.1396    49.2980    92.4929    93.0024    91.9834    92.9325    93.4675    92.3976    57.1594    3.3936     53.7658    60.5531    -999.2500  13.4426    263.0646   8.7266     0.0268     0.0074     53.7411    5.0627     0.3025     0.7303     53.4878    0.4742     0.0121     -0.0004    0.0000     2380.5789  0.1705     0.0278     1672.2141  4672.2144  1.8792     1.9384    
3296.0000  8.5000     0.7297     -0.0440    49.1741    49.1182    49.2301    92.5396    93.2808    91.7985    92.8801    93.6259    92.1343    57.1463    3.4435     53.7029    60.5898    -999.2500  12.9922    263.0143   8.7180     0.0267     0.0074     53.6668    5.1245     0.3033     0.7297     53.5552    0.3672     0.0118     -0.0004    0.0000     2377.9500  0.1689     0.0254     1672.0536  4672.0537  1.8819     1.9339    
3296.5000  8.5000     0.7292     -0.0419    48.8183    48.8620    48.7746    92.7516    93.4810    92.0222    93.0708    93.8121    92.3296    57.1808    3.4035     53.7773    60.5843    -999.2500  12.9094    262.9527   8.7200     0.0266     0.0074     53.6735    5.1568     0.3084     0.7292     53.6754    0.3436     0.0093     -0.0004    0.0000     2404.4001  0.1630     0.0236     1672.0770  4672.0771  1.8999     1.9220    
3297.0000  8.5000     0.7290     -0.0438    48.5361    48.5343    48.5380    93.0141    93.3169    92.7113    93.5116    93.8569    93.1663    57.2516    3.3524     53.8992    60.6040    -999.2500  12.3286    262.8911   8.7122     0.0267     0.0074     53.7969    5.1393     0.3129     0.7290     53.7879    0.5335     0.0073     -0.0004    0.0000     2396.5500  0.1613     0.0224     1671.8983  4671.8984  1.9164     1.9359    
3297.5000  8.5000     0.7291     -0.0513    48.8996    48.7871    49.0121    92.8089    92.8169    92.8009    93.3429    93.4925    93.1933    57.3353    3.3652     53.9701    60.7006    -999.2500  11.5837    262.8256   8.7064     0.0271     0.0073     53.9562    5.1127     0.3079     0.7291     53.8819    0.5737     0.0099     -0.0004    0.0000     2351.4736  0.1681     0.0234     1671.2938  4671.2939  1.8979     1.9775    
3298.0000  8.5000     0.7295     -0.0536    49.2128    49.1486    49.2770    92.3681    92.2487    92.4874    92.7337    92.7060    92.7614    57.4949    3.4127     54.0822    60.9076    -999.2500  11.4770    262.7515   8.7219     0.0274     0.0074     54.0722    5.0656     0.3018     0.7295     53.9768    0.3951     0.0121     -0.0004    0.0000     2425.2500  0.1755     0.0276     1670.5653  4670.5649  1.8769     2.0046    
3298.5000  8.5000     0.7302     -0.0509    49.3878    49.2359    49.5396    92.4370    91.9579    92.9160    92.7574    92.1867    93.3282    57.7120    3.4304     54.2816    61.1423    -999.2500  13.4003    262.6818   8.7067     0.0277     0.0074     54.1946    5.0034     0.3002     0.7302     54.0620    0.3461     0.0133     -0.0004    0.0000     2411.6499  0.1797     0.0288     1669.9628  4669.9629  1.8717     2.0290    
3299.0000  8.5000     0.7311     -0.0483    49.1911    49.1012    49.2809    92.7295    91.9758    93.4832    93.1301    92.3906    93.8696    57.9387    3.4091     54.5296    61.3479    -999.2500  15.5585    262.6277   8.7116     0.0280     0.0074     54.2900    4.9692     0.3042     0.7311     54.0941    0.4310     0.0120     -0.0004    0.0000     2387.6501  0.1832     0.0277     1669.4827  4669.4829  1.8851     2.0647    
3299.5000  8.5000     0.7321     -0.0501    48.8231    48.7587    48.8876    92.9624    92.0350    93.8900    93.5039    92.7435    94.2642    58.1583    3.3740     54.7843    61.5323    -999.2500  15.1427    262.5760   8.7357     0.0285     0.0074     54.2882    4.9636     0.3096     0.7321     54.0800    0.5807     0.0094     -0.0004    0.0000     2379.3684  0.1852     0.0273     1668.9335  4668.9331  1.9041     2.1059    
3300.0000  8.5000     0.7331     -0.0631    48.6331    48.3641    48.9022    93.3590    92.3349    94.3832    94.0069    93.0754    94.9383    58.4305    3.3266     55.1039    61.7571    -999.2500  13.1503    262.5221   8.7169     0.0289     0.0074     54.2529    5.0449     0.3138     0.7331     54.0748    0.6915     0.0080     -0.0004    0.0000     2380.6501  0.1846     0.0265     1668.0009  4668.0010  1.9197     2.1480    
