~Version
 VERS              .         2.0                           : CWLS LOG ASCII STANDARD - VERSION 2.0
 WRAP              .         NO                            : ONE LINE PER DEPTH STEP
 DLM               .         SPACE                         : DELIMITING CHARACTER(SPACE TAB OR COMMA)
~Well Information
#_______________________________________________________________________________
#
#PARAMETER_NAME    .UNIT     VALUE                         : DESCRIPTION
#_______________________________________________________________________________
STRT               .ft       1049.0000                     : First reference value
STOP               .ft       5858.0000                     : Last reference value
STEP               .ft       0.5000                        : Step increment
NULL               .         -999.25                       : Missing value
COMP               .         PRAIRIE STATE GENERATING CO, LLC: Company
WELL               .         LIVELY GROVE #1               : Well name
FLD                .         N/A                           : Field
LOC                .                                       : Location
CNTY               .         WASHINGTON                    : County
STAT               .         ILLINOIS                      : State
CTRY               .         USA                           : Country
SRVC               .         Schlumberger                  : Service Company
DATE               .         13-Aug-2021                   : Date
UWI                .                                       : Unique Well ID
APD                .ft       16                            : Elevation of Depth Reference (LMF) Above Permanent Datum
API                .         12-189-24947-00               : 
BHS                .         OPEN                          : Borehole Status (Open or Cased Hole)
BHT                .degF     115                           : Bottom Hole Temperature
BLI                .ft       5888                          : Bottom Log Interval
BS                 .in       8.5                           : Bit Size
CBDR               .ft       1049                          : Casing Bottom of Driller
CBLO               .ft       1049                          : Logger Casing Shoe Depth
CSIZ               .in       9.625                         : Current Casing Size
CWEI               .lbm/ft   36                            : Casing Weight
DCS                .         11-Aug-2021                   : Date Circulation Stopped
DFD                .lbm/gal  9.35                          : Drilling Fluid Density
DFT                .         FRESH WBM                     : Drilling Fluid Type
DLAB               .         12-Aug-2021                   : Date Logger At Bottom
EDF                .ft       477                           : Elevation of Drill Floor
EGL                .ft       461                           : Elevation of Ground Level
EKB                .ft       477                           : Elevation of Kelly Bushing
EPD                .ft       461                           : Elevation of Permanent Datum (PDAT) above Mean Sea Level
LMF                .         KB                            : Logging Measured From (Name of Logging Elevation Reference)
LUL                .         BRADFORD, PA                  : Logging Unit Location
LUN                .         OSLC 2266                     : Logging Unit Number
LATI               .         38.352151 degrees             : Latitude
LONG               .         -89.644768 degrees            : Longitude
MCST               .degF     81.9                          : Mudcake Sample Temperature
MFST               .degF     81.9                          : Mud Filtrate Sample Temperature
MRT                .degF     115                           : Maximum Recorded Temperature
MST                .degF     81.9                          : Mud Sample Temperature
ORIGINALWELLNAME   .         LIVELY GROVE #1               : 
PDAT               .         GL                            : Permanent Datum
PRODUCER-CODE      .         440                           : 
PRODUCER-NAME      .         Schlumberger                  : 
RMB                .ohm.m    0.9233273                     : Resistivity of Mud at Bottom Hole Temperature
RMCS               .ohm.m    1.44                          : Resistivity of Mud Cake Sample
RMFS               .ohm.m    1.033                         : Resistivity of Mud Filtrate Sample
RMS                .ohm.m    1.268                         : Resistivity of Mud Sample
RUN                .         RUN 1D                        : Run Number
TCS                .         13_00_00                      : Time Circulation Stopped
TDD                .ft       5888.35                       : Driller Total Depth
TDL                .ft       5888.35                       : Logger Total Depth
TLAB               .         17_08_00                      : Time Logger At Bottom
TLI                .ft       1049                          : Top Log Interval
~Parameter Information Block
#_______________________________________________________________________________
#
#PARAMETER_NAME    .UNIT     VALUE                         : DESCRIPTION
#_______________________________________________________________________________
SET                .         0_PnS_Aniso                   : 
TLFamily_BS        .         Bit Size                      : 
TLFamily_DEVIM     .         Hole Deviation                : 
TLFamily_DPHZ      .         Density Porosity              : 
TLFamily_DTCO_MF_DDBHC .         Compressional Slowness        : 
TLFamily_DTCO_MF_R .         Compressional Slowness        : 
TLFamily_DTCO_MF_T .         Compressional Slowness        : 
TLFamily_DTSH_FAST_DDBHC .         Fast Shear Slowness           : 
TLFamily_DTSH_FAST_R .         Fast Shear Slowness           : 
TLFamily_DTSH_FAST_T .         Fast Shear Slowness           : 
TLFamily_DTSH_SLOW_DDBHC .         Slow Shear Slowness           : 
TLFamily_DTSH_SLOW_R .         Slow Shear Slowness           : 
TLFamily_DTSH_SLOW_T .         Slow Shear Slowness           : 
TLFamily_FSA_NAZ   .         Fast Shear Azimuth            : 
TLFamily_FSA_NAZ_ERR .         Fast Shear Azimuth            : 
TLFamily_FSA_NAZ_ERRMINUS .         Fast Shear Azimuth            : 
TLFamily_FSA_NAZ_ERRPLUS .         Fast Shear Azimuth            : 
TLFamily_FSA_NAZ_IN .         Fast Shear Azimuth            : 
TLFamily_GR_EDTC   .         Gamma Ray                     : 
TLFamily_HAZIM     .         Hole Azimuth                  : 
TLFamily_HDAR      .         Borehole Diameter             : 
TLFamily_MAXXENE_OVERALL .         Acoustic Energy               : 
TLFamily_MD        .         Measured Depth                : 
TLFamily_MINXENE_OVERALL .         Acoustic Energy               : 
TLFamily_P1NO_MAST .         Pad A North                   : 
TLFamily_PEFZ      .         Photoelectric Factor          : 
TLFamily_PR_FAST   .         Poisson Ratio (Dynamic)       : 
TLFamily_SDEVM     .         Sonde Deviation               : 
TLFamily_SENSOR_AZIM_QCI .         Sensor Azimuth                : 
TLFamily_SLOANI    .         Acoustic Anisotropy           : 
TLFamily_SPHI      .         Total Porosity                : 
TLFamily_TDIF_ALT_OVERALL .         Time Interval                 : 
TLFamily_TDIF_ORG_OVERALL .         Time Interval                 : 
TLFamily_TENS      .         Tension                       : 
TLFamily_TIMANI    .         Acoustic Anisotropy           : 
TLFamily_TNPH      .         Thermal Neutron Porosity      : 
TLFamily_TW_B_L6   .         Travel Time                   : 
TLFamily_TW_E_L6   .         Travel Time                   : 
TLFamily_VPVS_FAST .         VpVs (Compressional To Shear) Ratio: 
TLFamily_XENEDIF   .         Acoustic Energy               : 
~Curve Information
#_______________________________________________________________________________
#
#LOGNAME           .UNIT     LOG_ID                        : DESCRIPTION
#_______________________________________________________________________________
MD                 .ft                                     : Measured Depth
BS                 .in                                     : Bit Size 
DEVIM              .deg                                    : Memorized Deviation 
DPHZ               .ft3/ft3                                : Standard Resolution Density Porosity <_techsia_lb_>F11 
DTCO_MF_DDBHC      .us/ft                                  : Compressional slowness 
DTCO_MF_R          .us/ft                                  : Compressional slowness 
DTCO_MF_T          .us/ft                                  : Compressional slowness 
DTSH_FAST_DDBHC    .us/ft                                  : Shear slowness 
DTSH_FAST_R        .us/ft                                  : Shear slowness 
DTSH_FAST_T        .us/ft                                  : Shear slowness 
DTSH_SLOW_DDBHC    .us/ft                                  : Shear slowness 
DTSH_SLOW_R        .us/ft                                  : Shear slowness 
DTSH_SLOW_T        .us/ft                                  : Shear slowness 
FSA_NAZ            .deg                                    : Fast shear azimuth(NAZ REF90) - overall - swapped 
FSA_NAZ_ERR        .deg                                    : Fast shear azimuth error, reference frame NAZ 
FSA_NAZ_ERRMINUS   .deg                                    : Fast shear azimuth error minus(NAZ REF90) - swapped 
FSA_NAZ_ERRPLUS    .deg                                    : Fast shear azimuth error plus(NAZ REF90) - swapped 
FSA_NAZ_IN         .deg                                    : Fast Shear Azimuth Indicator 
GR_EDTC            .gAPI                                   : Gamma Ray 
HAZIM              .deg                                    : Memorized Hole Azimuth 
HDAR               .in                                     : Hole Diameter from Area 
MAXXENE_OVERALL    .unitless                               : Maximum cross energy - overall 
MINXENE_OVERALL    .unitless                               : Minimum cross energy - overall 
P1NO_MAST          .deg                                    : Pad 1 Azimuth in Plane Orthogonal to Tool Axis (0 = True North), memorized to MAST 
PEFZ               .                                       : Standard Resolution Formation Photoelectric Factor <_techsia_lb_>F11 
PR_FAST            .unitless                               : Possion's Ratio 
SDEVM              .deg                                    : Memorized Sonde Deviation 
SENSOR_AZIM_QCI    .deg                                    : Tool azimuth for input QC 
SLOANI             .%                                      : Slowness-Based Anisotropy 
SPHI               .ft3/ft3                                : Total porosity from Sonic 
TDIF_ALT_OVERALL   .s                                      : Arrival time difference between fast and slow waves(alternate) - overall - swapped 
TDIF_ORG_OVERALL   .s                                      : Arrival time difference between fast and slow waves(original) - overall - swapped 
TENS               .lbf                                    : Cable Tension 
TIMANI             .%                                      : Time-Based Anisotropy 
TNPH               .ft3/ft3                                : Thermal Neutron Porosity (Ratio Method) in Selected Lithology <_techsia_lb_>F11 
TW_B_L6            .us                                     : Time window begin - packed 
TW_E_L6            .us                                     : Time window end - packed 
VPVS_FAST          .unitless                               : VpVs Ratio 
XENEDIF            .unitless                               : Energy-Based Anisotropy 
~Ascii
# ...
2008.5000  8.5000     1.0299     0.0032     76.5433    77.8318    75.2548    144.6464   145.7521   143.5407   145.8006   147.5682   144.0331   76.8372    16.7369    60.1003    93.5741    -999.2500  75.6844    270.8030   9.0970     0.0155     0.0116     127.3018   3.8737     0.3055     1.0299     117.9137   0.7948     0.2053     -0.0004    0.0000     1988.4358  0.4019     0.2187     2336.2368  5336.2368  1.8897     0.3992    
2009.0000  8.5000     1.0268     0.0009     74.8418    75.8269    73.8566    142.9131   143.1711   142.6551   143.9353   145.1895   142.6812   78.8728    16.5928    62.2801    95.4656    -999.2500  72.3253    270.6675   9.0150     0.0155     0.0115     127.6601   3.9257     0.3111     1.0268     118.5267   0.7127     0.1932     -0.0004    0.0000     1989.5747  0.4063     0.2146     2329.3420  5329.3423  1.9095     0.3967    
2009.5000  8.5000     1.0234     0.0068     74.1975    74.8001    73.5950    142.2174   141.4412   142.9937   143.1482   142.9881   143.3083   78.0173    17.3127    60.7046    95.3301    -999.2500  67.0499    270.5433   8.9706     0.0152     0.0114     128.1029   3.9905     0.3130     1.0234     119.1386   0.6524     0.1887     -0.0004    0.0000     1973.6272  0.4029     0.2141     2322.7678  5322.7676  1.9167     0.3816    
2010.0000  8.5000     1.0197     0.0095     74.7228    74.8072    74.6384    142.6234   141.8190   143.4279   143.2665   142.9265   143.6066   78.9931    17.2495    61.7436    96.2426    -999.2500  64.2282    270.4218   8.9655     0.0150     0.0114     128.3235   3.9386     0.3108     1.0197     120.1032   0.4499     0.1924     -0.0004    0.0000     1994.6272  0.3991     0.2036     2316.6211  5316.6211  1.9087     0.3543    
2010.5000  8.5000     1.0157     0.0077     75.3461    75.3193    75.3729    142.9613   142.9418   142.9807   143.4148   143.6027   143.2269   79.6986    17.3045    62.3940    97.0031    -999.2500  64.4940    270.2990   8.9629     0.0148     0.0114     128.6466   3.8408     0.3077     1.0157     120.6697   0.3168     0.1968     -0.0004    0.0000     2019.7062  0.4019     0.2053     2311.2368  5311.2368  1.8974     0.3408    
2011.0000  8.5000     1.0116     0.0040     75.7685    75.8388    75.6982    143.3232   143.2909   143.3556   143.8044   143.7238   143.8849   80.0536    17.1503    62.9033    97.2039    -999.2500  66.2502    270.1803   8.9594     0.0147     0.0114     128.8168   3.7525     0.3061     1.0116     121.4606   0.3351     0.1998     -0.0004    0.0000     2004.9006  0.4079     0.2153     2306.6602  5306.6606  1.8916     0.3312    
2011.5000  8.5000     1.0074     0.0133     75.8793    76.0413    75.7174    143.3292   143.2937   143.3646   143.9926   144.0152   143.9699   80.6295    17.2696    63.3599    97.8991    -999.2500  66.7749    270.0340   8.9532     0.0146     0.0114     128.8359   3.8503     0.3053     1.0074     122.0250   0.4618     0.2006     -0.0004    0.0000     2010.8743  0.4099     0.2228     2303.0308  5303.0312  1.8889     0.3198    
2012.0000  8.5000     1.0032     0.0196     75.8915    76.0773    75.7058    143.8119   143.5930   144.0307   144.4209   144.7044   144.1373   83.9091    17.0885    66.8206    100.9976   -999.2500  68.1801    269.8986   8.9511     0.0147     0.0117     129.0148   3.9539     0.3070     1.0032     122.7439   0.4226     0.2006     -0.0004    0.0000     2017.8466  0.4105     0.2222     2300.6536  5300.6533  1.8950     0.3070    
2012.5000  8.5000     0.9998     0.0130     75.8840    76.0243    75.7437    144.4985   144.1443   144.8527   145.2835   145.5516   145.0155   84.5066    16.8359    67.6707    101.3426   -999.2500  68.6395    269.7751   8.9460     0.0149     0.0119     129.4812   3.9575     0.3096     0.9998     123.2420   0.5418     0.2006     -0.0004    0.0000     2016.3728  0.4121     0.2182     2299.2156  5299.2158  1.9042     0.3047    
2013.0000  8.5000     0.9956     -0.0024    75.8886    75.9951    75.7822    144.4341   144.4641   144.4041   145.4202   145.7823   145.0581   81.3614    16.9942    64.3673    98.3555    -999.2500  69.9553    269.6357   8.9543     0.0150     0.0122     130.1096   3.8549     0.3093     0.9956     123.8182   0.6804     0.2006     -0.0004    0.0000     2027.1052  0.4149     0.2135     2298.0142  5298.0142  1.9032     0.2828    
2013.5000  8.5000     0.9913     -0.0148    75.8768    76.0045    75.7490    144.4592   144.4254   144.4930   145.6837   145.5498   145.8176   78.1929    17.5128    60.6800    95.7057    -999.2500  69.2807    269.4637   8.9583     0.0151     0.0125     130.5132   3.7772     0.3095     0.9913     124.6142   0.8440     0.2005     -0.0004    0.0000     2024.8436  0.4193     0.2074     2296.9482  5296.9487  1.9039     0.2502    
2014.0000  8.5000     0.9871     -0.0188    76.0487    76.0267    76.0706    144.7148   144.0428   145.3868   145.9573   145.3694   146.5453   79.1712    17.6745    61.4967    96.8458    -999.2500  67.2815    269.2923   8.9738     0.0151     0.0127     131.1283   3.7862     0.3092     0.9871     125.1571   0.8549     0.2018     -0.0004    0.0000     2015.1594  0.4221     0.2114     2295.6311  5295.6313  1.9029     0.2365    
2014.5000  8.5000     0.9826     -0.0153    76.3854    76.1235    76.6473    145.5818   144.2760   146.8877   146.4252   145.3776   147.4729   76.0103    17.4834    58.5269    93.4937    -999.2500  69.3044    269.0931   8.9825     0.0152     0.0128     131.5345   3.7815     0.3101     0.9826     125.8863   0.5777     0.2041     -0.0004    0.0000     2019.5760  0.4232     0.2121     2294.2913  5294.2915  1.9059     0.2373    
2015.0000  8.5000     0.9780     -0.0056    76.7975    76.3415    77.2535    146.5767   145.3590   147.7944   147.2000   146.2995   148.1005   75.0129    17.3087    57.7042    92.3215    -999.2500  74.1840    268.8931   8.9809     0.0153     0.0128     131.9657   3.7939     0.3108     0.9780     126.3940   0.4243     0.2070     -0.0004    0.0000     2014.2339  0.4251     0.2200     2293.5249  5293.5249  1.9086     0.2408    
2015.5000  8.5000     0.9731     0.0091     77.3605    76.7524    77.9687    147.6067   146.9184   148.2950   148.3367   147.9097   148.7638   73.6595    17.0836    56.5759    90.7430    -999.2500  76.1976    268.6367   8.9954     0.0154     0.0129     132.6309   3.8089     0.3106     0.9731     126.9615   0.4934     0.2110     -0.0004    0.0000     2006.0950  0.4278     0.2178     2294.1113  5294.1113  1.9080     0.2537    
2016.0000  8.5000     0.9678     0.0133     77.8729    77.2091    78.5366    149.1917   148.8989   149.4845   149.8884   149.9164   149.8604   74.9531    17.3955    57.5576    92.3486    -999.2500  74.9512    268.3927   9.0324     0.0155     0.0129     133.2414   3.7881     0.3128     0.9678     127.3018   0.4659     0.2146     -0.0004    0.0000     2004.7003  0.4305     0.2181     2295.5457  5295.5454  1.9158     0.2615    
2016.5000  8.5000     0.9622     0.0116     78.4487    77.8406    79.0567    150.8595   150.7106   151.0083   151.3887   151.4797   151.2978   70.4833    16.8601    53.6232    87.3434    -999.2500  75.4206    268.0950   9.0395     0.0158     0.0129     133.7426   3.7242     0.3147     0.9622     127.6601   0.3502     0.2187     -0.0004    0.0000     2014.5000  0.4293     0.2240     2298.5198  5298.5195  1.9230     0.2862    
2017.0000  8.5000     0.9566     0.0088     79.1201    78.5314    79.7087    152.2344   151.7727   152.6961   152.7865   152.2922   153.2808   68.9901    16.5215    52.4686    85.5116    -999.2500  78.7262    267.8075   9.0787     0.0161     0.0129     133.9453   3.6623     0.3150     0.9566     128.1029   0.3620     0.2235     -0.0004    0.0000     2018.3552  0.4289     0.2259     2303.2998  5303.2998  1.9241     0.3251    
2017.5000  8.5000     0.9513     0.0062     79.5529    78.9388    80.1670    152.6389   152.2197   153.0581   153.5997   152.9103   154.2890   70.2253    16.5737    53.6517    86.7990    -999.2500  81.0334    267.4911   9.1259     0.0163     0.0127     134.0946   3.6442     0.3135     0.9513     128.3235   0.6275     0.2265     -0.0004    0.0000     2014.7500  0.4296     0.2347     2309.3643  5309.3643  1.9187     0.3541    
