~Version
 VERS              .         2.0                           : CWLS LOG ASCII STANDARD - VERSION 2.0
 WRAP              .         NO                            : ONE LINE PER DEPTH STEP
 DLM               .         SPACE                         : DELIMITING CHARACTER(SPACE TAB OR COMMA)
~Well Information
#_______________________________________________________________________________
#
#PARAMETER_NAME    .UNIT     VALUE                         : DESCRIPTION
#_______________________________________________________________________________
STRT               .ft       1049.0000                     : First reference value
STOP               .ft       5858.0000                     : Last reference value
STEP               .ft       0.5000                        : Step increment
NULL               .         -999.25                       : Missing value
COMP               .         PRAIRIE STATE GENERATING CO, LLC: Company
WELL               .         LIVELY GROVE #1               : Well name
FLD                .         N/A                           : Field
LOC                .                                       : Location
CNTY               .         WASHINGTON                    : County
STAT               .         ILLINOIS                      : State
CTRY               .         USA                           : Country
SRVC               .         Schlumberger                  : Service Company
DATE               .         13-Aug-2021                   : Date
UWI                .                                       : Unique Well ID
APD                .ft       16                            : Elevation of Depth Reference (LMF) Above Permanent Datum
API                .         12-189-24947-00               : 
BHS                .         OPEN                          : Borehole Status (Open or Cased Hole)
BHT                .degF     115                           : Bottom Hole Temperature
BLI                .ft       5888                          : Bottom Log Interval
BS                 .in       8.5                           : Bit Size
CBDR               .ft       1049                          : Casing Bottom of Driller
CBLO               .ft       1049                          : Logger Casing Shoe Depth
CSIZ               .in       9.625                         : Current Casing Size
CWEI               .lbm/ft   36                            : Casing Weight
DCS                .         11-Aug-2021                   : Date Circulation Stopped
DFD                .lbm/gal  9.35                          : Drilling Fluid Density
DFT                .         FRESH WBM                     : Drilling Fluid Type
DLAB               .         12-Aug-2021                   : Date Logger At Bottom
EDF                .ft       477                           : Elevation of Drill Floor
EGL                .ft       461                           : Elevation of Ground Level
EKB                .ft       477                           : Elevation of Kelly Bushing
EPD                .ft       461                           : Elevation of Permanent Datum (PDAT) above Mean Sea Level
LMF                .         KB                            : Logging Measured From (Name of Logging Elevation Reference)
LUL                .         BRADFORD, PA                  : Logging Unit Location
LUN                .         OSLC 2266                     : Logging Unit Number
LATI               .         38.352151 degrees             : Latitude
LONG               .         -89.644768 degrees            : Longitude
MCST               .degF     81.9                          : Mudcake Sample Temperature
MFST               .degF     81.9                          : Mud Filtrate Sample Temperature
MRT                .degF     115                           : Maximum Recorded Temperature
MST                .degF     81.9                          : Mud Sample Temperature
ORIGINALWELLNAME   .         LIVELY GROVE #1               : 
PDAT               .         GL                            : Permanent Datum
PRODUCER-CODE      .         440                           : 
PRODUCER-NAME      .         Schlumberger                  : 
RMB                .ohm.m    0.9233273                     : Resistivity of Mud at Bottom Hole Temperature
RMCS               .ohm.m    1.44                          : Resistivity of Mud Cake Sample
RMFS               .ohm.m    1.033                         : Resistivity of Mud Filtrate Sample
RMS                .ohm.m    1.268                         : Resistivity of Mud Sample
RUN                .         RUN 1D                        : Run Number
TCS                .         13_00_00                      : Time Circulation Stopped
TDD                .ft       5888.35                       : Driller Total Depth
TDL                .ft       5888.35                       : Logger Total Depth
TLAB               .         17_08_00                      : Time Logger At Bottom
TLI                .ft       1049                          : Top Log Interval
~Parameter Information Block
#_______________________________________________________________________________
#
#PARAMETER_NAME    .UNIT     VALUE                         : DESCRIPTION
#_______________________________________________________________________________
SET                .         0_PnS_Aniso                   : 
TLFamily_BS        .         Bit Size                      : 
TLFamily_DEVIM     .         Hole Deviation                : 
TLFamily_DPHZ      .         Density Porosity              : 
TLFamily_DTCO_MF_DDBHC .         Compressional Slowness        : 
TLFamily_DTCO_MF_R .         Compressional Slowness        : 
TLFamily_DTCO_MF_T .         Compressional Slowness        : 
TLFamily_DTSH_FAST_DDBHC .         Fast Shear Slowness           : 
TLFamily_DTSH_FAST_R .         Fast Shear Slowness           : 
TLFamily_DTSH_FAST_T .         Fast Shear Slowness           : 
TLFamily_DTSH_SLOW_DDBHC .         Slow Shear Slowness           : 
TLFamily_DTSH_SLOW_R .         Slow Shear Slowness           : 
TLFamily_DTSH_SLOW_T .         Slow Shear Slowness           : 
TLFamily_FSA_NAZ   .         Fast Shear Azimuth            : 
TLFamily_FSA_NAZ_ERR .         Fast Shear Azimuth            : 
TLFamily_FSA_NAZ_ERRMINUS .         Fast Shear Azimuth            : 
TLFamily_FSA_NAZ_ERRPLUS .         Fast Shear Azimuth            : 
TLFamily_FSA_NAZ_IN .         Fast Shear Azimuth            : 
TLFamily_GR_EDTC   .         Gamma Ray                     : 
TLFamily_HAZIM     .         Hole Azimuth                  : 
TLFamily_HDAR      .         Borehole Diameter             : 
TLFamily_MAXXENE_OVERALL .         Acoustic Energy               : 
TLFamily_MD        .         Measured Depth                : 
TLFamily_MINXENE_OVERALL .         Acoustic Energy               : 
TLFamily_P1NO_MAST .         Pad A North                   : 
TLFamily_PEFZ      .         Photoelectric Factor          : 
TLFamily_PR_FAST   .         Poisson Ratio (Dynamic)       : 
TLFamily_SDEVM     .         Sonde Deviation               : 
TLFamily_SENSOR_AZIM_QCI .         Sensor Azimuth                : 
TLFamily_SLOANI    .         Acoustic Anisotropy           : 
TLFamily_SPHI      .         Total Porosity                : 
TLFamily_TDIF_ALT_OVERALL .         Time Interval                 : 
TLFamily_TDIF_ORG_OVERALL .         Time Interval                 : 
TLFamily_TENS      .         Tension                       : 
TLFamily_TIMANI    .         Acoustic Anisotropy           : 
TLFamily_TNPH      .         Thermal Neutron Porosity      : 
TLFamily_TW_B_L6   .         Travel Time                   : 
TLFamily_TW_E_L6   .         Travel Time                   : 
TLFamily_VPVS_FAST .         VpVs (Compressional To Shear) Ratio: 
TLFamily_XENEDIF   .         Acoustic Energy               : 
~Curve Information
#_______________________________________________________________________________
#
#LOGNAME           .UNIT     LOG_ID                        : DESCRIPTION
#_______________________________________________________________________________
MD                 .ft                                     : Measured Depth
BS                 .in                                     : Bit Size 
DEVIM              .deg                                    : Memorized Deviation 
DPHZ               .ft3/ft3                                : Standard Resolution Density Porosity <_techsia_lb_>F11 
DTCO_MF_DDBHC      .us/ft                                  : Compressional slowness 
DTCO_MF_R          .us/ft                                  : Compressional slowness 
DTCO_MF_T          .us/ft                                  : Compressional slowness 
DTSH_FAST_DDBHC    .us/ft                                  : Shear slowness 
DTSH_FAST_R        .us/ft                                  : Shear slowness 
DTSH_FAST_T        .us/ft                                  : Shear slowness 
DTSH_SLOW_DDBHC    .us/ft                                  : Shear slowness 
DTSH_SLOW_R        .us/ft                                  : Shear slowness 
DTSH_SLOW_T        .us/ft                                  : Shear slowness 
FSA_NAZ            .deg                                    : Fast shear azimuth(NAZ REF90) - overall - swapped 
FSA_NAZ_ERR        .deg                                    : Fast shear azimuth error, reference frame NAZ 
FSA_NAZ_ERRMINUS   .deg                                    : Fast shear azimuth error minus(NAZ REF90) - swapped 
FSA_NAZ_ERRPLUS    .deg                                    : Fast shear azimuth error plus(NAZ REF90) - swapped 
FSA_NAZ_IN         .deg                                    : Fast Shear Azimuth Indicator 
GR_EDTC            .gAPI                                   : Gamma Ray 
HAZIM              .deg                                    : Memorized Hole Azimuth 
HDAR               .in                                     : Hole Diameter from Area 
MAXXENE_OVERALL    .unitless                               : Maximum cross energy - overall 
MINXENE_OVERALL    .unitless                               : Minimum cross energy - overall 
P1NO_MAST          .deg                                    : Pad 1 Azimuth in Plane Orthogonal to Tool Axis (0 = True North), memorized to MAST 
PEFZ               .                                       : Standard Resolution Formation Photoelectric Factor <_techsia_lb_>F11 
PR_FAST            .unitless                               : Possion's Ratio 
SDEVM              .deg                                    : Memorized Sonde Deviation 
SENSOR_AZIM_QCI    .deg                                    : Tool azimuth for input QC 
SLOANI             .%                                      : Slowness-Based Anisotropy 
SPHI               .ft3/ft3                                : Total porosity from Sonic 
TDIF_ALT_OVERALL   .s                                      : Arrival time difference between fast and slow waves(alternate) - overall - swapped 
TDIF_ORG_OVERALL   .s                                      : Arrival time difference between fast and slow waves(original) - overall - swapped 
TENS               .lbf                                    : Cable Tension 
TIMANI             .%                                      : Time-Based Anisotropy 
TNPH               .ft3/ft3                                : Thermal Neutron Porosity (Ratio Method) in Selected Lithology <_techsia_lb_>F11 
TW_B_L6            .us                                     : Time window begin - packed 
TW_E_L6            .us                                     : Time window end - packed 
VPVS_FAST          .unitless                               : VpVs Ratio 
XENEDIF            .unitless                               : Energy-Based Anisotropy 
~Ascii
# ...
5210.0000  8.5000     1.4615     0.0011     47.6123    47.7489    47.4756    87.4721    89.0396    85.9045    87.7803    89.4880    86.0725    30.7947    16.4234    14.3713    47.2181    -999.2500  15.2888    335.2415   8.5988     0.1399     0.0830     60.3452    2.9388     0.2895     1.4615     56.2179    0.3517     0.0008     -0.0004    0.0000     3014.9048  1.2204     0.0996     1623.4772  4623.4771  1.8372     5.6907    
5210.5000  8.5000     1.4562     -0.0121    47.5666    48.3009    46.8324    87.7805    87.1945    88.3666    88.0043    87.3320    88.6767    31.4719    15.7423    15.7297    47.2142    -999.2500  14.6329    335.3408   8.6240     0.1316     0.0735     60.4913    2.9980     0.2922     1.4562     56.5360    0.2546     0.0005     -0.0004    0.0000     2994.0476  1.1852     0.1009     1617.0784  4617.0781  1.8454     5.8102    
5211.0000  8.5000     1.4514     -0.0438    47.6729    48.1178    47.2279    87.9612    85.8580    90.0644    88.1787    86.0160    90.3414    31.6712    14.7143    16.9569    46.3855    -999.2500  14.4021    335.4261   8.6455     0.1207     0.0628     60.6613    3.0318     0.2920     1.4514     56.8955    0.2470     0.0012     -0.0004    0.0000     2985.6667  1.1126     0.0978     1618.1288  4618.1289  1.8451     5.7886    
5211.5000  8.5000     1.4467     -0.0631    48.1698    47.3877    48.9519    87.8921    85.3380    90.4461    88.2121    85.6312    90.7929    33.2058    14.5150    18.6908    47.7207    -999.2500  13.4375    335.4881   8.6276     0.1111     0.0552     60.8015    3.0532     0.2853     1.4467     57.3011    0.3634     0.0047     -0.0004    0.0000     2992.7617  1.0429     0.1012     1621.8638  4621.8638  1.8246     5.5941    
5212.0000  8.5000     1.4422     -0.0654    48.7598    46.3109    51.2087    88.9340    86.4984    91.3697    89.5810    87.1025    92.0595    34.8224    14.2440    20.5784    49.0663    -999.2500  15.7247    335.5486   8.6563     0.1104     0.0512     60.9259    3.0622     0.2851     1.4422     57.6288    0.7248     0.0089     -0.0004    0.0000     2995.1907  1.0599     0.1035     1625.2054  4625.2056  1.8239     5.9221    
5212.5000  8.5000     1.4380     -0.0498    50.1460    47.6448    52.6473    90.5999    89.0645    92.1353    91.3304    89.8453    92.8156    34.7229    12.8663    21.8565    47.5892    -999.2500  16.5618    335.5920   8.6563     0.1154     0.0482     61.0303    3.0586     0.2792     1.4380     57.8983    0.8031     0.0187     -0.0004    0.0000     2969.4287  1.1382     0.1115     1626.6771  4626.6772  1.8067     6.7127    
5213.0000  8.5000     1.4350     -0.0403    51.3675    49.7245    53.0105    91.1902    90.4479    91.9325    91.7590    91.0472    92.4708    34.0696    11.8893    22.1803    45.9589    -999.2500  16.0624    335.6377   8.6491     0.1175     0.0443     61.1353    3.0627     0.2676     1.4350     58.1766    0.6218     0.0273     -0.0004    0.0000     2968.5000  1.1635     0.1167     1625.6729  4625.6729  1.7753     7.3210    
5213.5000  8.5000     1.4321     -0.0355    52.0641    51.2737    52.8545    89.5478    89.9890    89.1066    90.1247    90.5929    89.6565    33.5277    11.4770    22.0508    45.0047    -999.2500  13.7765    335.6840   8.7426     0.1125     0.0409     61.4349    3.0912     0.2447     1.4321     58.4408    0.6421     0.0323     -0.0004    0.0000     2979.8572  1.1355     0.1176     1622.2002  4622.2002  1.7200     7.1657    
5214.0000  8.5000     1.4305     -0.0383    52.1529    50.8531    53.4527    87.4281    88.9888    85.8673    88.0362    89.7438    86.3285    32.8373    11.5749    21.2624    44.4122    -999.2500  12.7618    335.7398   8.7390     0.1040     0.0380     61.8346    3.1589     0.2238     1.4305     58.7518    0.6932     0.0329     -0.0004    0.0000     2970.9524  1.1564     0.1155     1617.5643  4617.5645  1.6764     6.6039    
5214.5000  8.5000     1.4286     -0.0377    52.2698    49.9380    54.6016    89.0565    90.6003    87.5126    89.4834    91.1695    87.7973    33.3395    11.4995    21.8399    44.8390    -999.2500  12.2138    335.8067   8.7282     0.1013     0.0363     61.9837    3.2025     0.2372     1.4286     58.9729    0.4782     0.0337     -0.0004    0.0000     2993.8574  1.2779     0.1167     1614.2751  4614.2754  1.7038     6.4995    
5215.0000  8.5000     1.4279     -0.0500    53.3515    50.9098    55.7932    93.7641    95.5402    91.9879    94.2116    96.1500    92.2733    33.1377    10.7250    22.4127    43.8627    -999.2500  11.8833    335.8830   8.7067     0.1063     0.0362     61.9328    3.2333     0.2606     1.4279     59.0924    0.4762     0.0414     -0.0004    0.0000     2985.9092  1.3625     0.1233     1614.5626  4614.5625  1.7575     7.0049    
5215.5000  8.5000     1.4275     -0.0764    53.9098    52.1923    55.6274    95.9411    98.1396    93.7427    96.4923    98.7401    94.2446    31.4235    9.6373     21.7862    41.0609    -999.2500  11.7005    335.9546   8.6995     0.1157     0.0380     61.6092    3.2552     0.2693     1.4275     59.3000    0.5729     0.0453     -0.0004    0.0000     2993.7620  1.3729     0.1248     1618.0245  4618.0244  1.7797     7.7721    
5216.0000  8.5000     1.4273     -0.0991    53.2607    53.1834    53.3380    94.2036    96.4897    91.9176    94.5836    96.6951    92.4722    30.2767    9.0096     21.2671    39.2863    -999.2500  12.5927    336.0389   8.6851     0.1237     0.0400     61.3841    3.2776     0.2651     1.4273     59.5501    0.4026     0.0407     -0.0004    0.0000     3005.9048  1.3439     0.1158     1622.7386  4622.7383  1.7687     8.3715    
5216.5000  8.5000     1.4271     -0.1060    50.5388    51.6660    49.4118    89.4229    91.8414    87.0045    89.6966    91.9404    87.4528    30.5818    8.5923     21.9895    39.1742    -999.2500  12.4030    336.1123   8.7139     0.1286     0.0405     61.1635    3.2787     0.2653     1.4271     59.7796    0.3055     0.0215     -0.0004    0.0000     2971.0002  1.3286     0.1034     1626.9155  4626.9155  1.7694     8.8141    
5217.0000  8.5000     1.4267     -0.0963    47.0082    48.3652    45.6511    86.0647    88.1926    83.9368    86.3287    88.3756    84.2819    30.1977    8.0261     22.1716    38.2237    -999.2500  11.9495    336.1759   8.7282     0.1297     0.0392     60.8922    3.2429     0.2874     1.4267     60.0797    0.3063     0.0000     -0.0004    0.0000     2989.0000  1.3094     0.1033     1629.6249  4629.6250  1.8308     9.0530    
5217.5000  8.5000     1.4260     -0.0919    46.1182    47.1564    45.0801    85.7883    87.1279    84.4486    86.0587    87.3842    84.7331    29.4354    7.8440     21.5914    37.2793    -999.2500  10.9282    336.2616   8.7606     0.1259     0.0382     60.7992    3.1914     0.2968     1.4260     60.3452    0.3147     0.0000     -0.0004    0.0000     2994.0952  1.2294     0.1060     1631.7048  4631.7046  1.8602     8.7658    
5218.0000  8.5000     1.4247     -0.0863    46.9364    46.8417    47.0311    86.6303    86.6496    86.6110    87.0415    87.0289    87.0540    28.6646    8.7527     19.9119    37.4173    -999.2500  11.2335    336.3353   8.8181     0.1197     0.0392     60.7756    3.1279     0.2922     1.4247     60.4913    0.4735     0.0000     -0.0004    0.0000     2983.7144  1.1083     0.1111     1634.1725  4634.1724  1.8457     8.0465    
5218.5000  8.5000     1.4230     -0.0737    47.5973    46.0650    49.1296    88.7384    87.3156    90.1612    89.3151    87.7423    90.8880    28.1209    9.2131     18.9078    37.3340    -999.2500  10.7345    336.4043   8.8253     0.1170     0.0418     60.5540    3.0980     0.2980     1.4230     60.6613    0.6479     0.0007     -0.0004    0.0000     2958.0955  1.0323     0.1074     1637.7350  4637.7349  1.8644     7.5155    
5219.0000  8.5000     1.4203     -0.0445    47.4637    45.8036    49.1238    90.1476    88.1803    92.1148    90.6954    88.5757    92.8151    27.8429    9.4942     18.3487    37.3371    -999.2500  11.8518    336.5099   8.7858     0.1174     0.0436     60.4403    3.1214     0.3082     1.4203     60.8015    0.6059     0.0000     -0.0004    0.0000     2996.3333  0.9841     0.1030     1642.3816  4642.3818  1.8993     7.3747    
