~Version
 VERS              .         2.0                           : CWLS LOG ASCII STANDARD - VERSION 2.0
 WRAP              .         NO                            : ONE LINE PER DEPTH STEP
 DLM               .         SPACE                         : DELIMITING CHARACTER(SPACE TAB OR COMMA)
~Well Information
#_______________________________________________________________________________
#
#PARAMETER_NAME    .UNIT     VALUE                         : DESCRIPTION
#_______________________________________________________________________________
STRT               .ft       1050.0000                     : First reference value
STOP               .ft       5850.0000                     : Last reference value
STEP               .ft       0.5000                        : Step increment
NULL               .         -999.25                       : Missing value
COMP               .         PRAIRIE STATE GENERATING CO, LLC: Company
WELL               .         LIVELY GROVE #1               : Well name
FLD                .         N/A                           : Field
LOC                .                                       : Location
CNTY               .         WASHINGTON                    : County
STAT               .         ILLINOIS                      : State
CTRY               .                                       : Country
SRVC               .         Schlumberger                  : Service Company
DATE               .         12-Aug-2021                   : Date
UWI                .                                       : Unique Well ID
APD                .ft       16                            : Elevation of Depth Reference (LMF) Above Permanent Datum
API                .         12-189-24947-00               : 
BHS                .         OPEN                          : Borehole Status (Open or Cased Hole)
BHT                .degF     115                           : Bottom Hole Temperature
BLI                .ft       5885.95                       : Bottom Log Interval
BS                 .in       8.5                           : Bit Size
CBDR               .ft       1049                          : Casing Bottom of Driller
CBLO               .ft       1049                          : Logger Casing Shoe Depth
CSIZ               .in       9.625                         : Current Casing Size
CWEI               .lbm/ft   36                            : Casing Weight
DCS                .         11-Aug-2021                   : Date Circulation Stopped
DFD                .lbm/gal  9.35                          : Drilling Fluid Density
DFT                .         FRESH WBM                     : Drilling Fluid Type
DLAB               .         12-Aug-2021                   : Date Logger At Bottom
EDF                .ft       477                           : Elevation of Drill Floor
EGL                .ft       461                           : Elevation of Ground Level
EKB                .ft       477                           : Elevation of Kelly Bushing
EPD                .ft       461                           : Elevation of Permanent Datum (PDAT) above Mean Sea Level
LMF                .         KB                            : Logging Measured From (Name of Logging Elevation Reference)
LUL                .         BRADFORD, PA                  : Logging Unit Location
LUN                .         OSLC 2266                     : Logging Unit Number
LATI               .dega     0.00000000                    : Latitude
LONG               .         -89.644768 degrees            : Longitude
MCST               .degF     81.9                          : Mudcake Sample Temperature
MFST               .degF     81.9                          : Mud Filtrate Sample Temperature
MRT                .degF     115                           : Maximum Recorded Temperature
MST                .degF     81.9                          : Mud Sample Temperature
ORIGINALWELLNAME   .         LIVELY GROVE #1               : 
PDAT               .         GL                            : Permanent Datum
PRODUCER-CODE      .         440                           : 
PRODUCER-NAME      .         Schlumberger                  : 
RMB                .ohm.m    0.9233273                     : Resistivity of Mud at Bottom Hole Temperature
RMCS               .ohm.m    1.44                          : Resistivity of Mud Cake Sample
RMFS               .ohm.m    1.033                         : Resistivity of Mud Filtrate Sample
RMS                .ohm.m    1.268                         : Resistivity of Mud Sample
RUN                .         RUN 1B                        : Run Number
TCS                .         17_00_00                      : Time Circulation Stopped
TDD                .ft       5888                          : Driller Total Depth
TDL                .ft       5888.35                       : Logger Total Depth
TLAB               .         07_19_00                      : Time Logger At Bottom
TLI                .ft       1049                          : Top Log Interval
~Parameter Information Block
#_______________________________________________________________________________
#
#PARAMETER_NAME    .UNIT     VALUE                         : DESCRIPTION
#_______________________________________________________________________________
SET                .         0_CP_MP_Delivered             : 
TLFamily_BS        .         Bit Size                      : 
TLFamily_C44       .         Elastic Modulus               : 
TLFamily_C55       .         Elastic Modulus               : 
TLFamily_C66       .         Elastic Modulus               : 
TLFamily_DEVIM     .         Hole Deviation                : 
TLFamily_DPHZ      .         Density Porosity              : 
TLFamily_DTCO_MF_DDBHC .     Compressional Slowness        : 
TLFamily_DTSH_FAST_DDBHC .   Fast Shear Slowness           : 
TLFamily_DTSH_SLOW_DDBHC .   Slow Shear Slowness           : 
TLFamily_DTSH_STRVP .        Stoneley Shear Slowness       : 
TLFamily_GAMMA     .         Regularization Factor         : 
TLFamily_GR_EDTC   .         Gamma Ray                     : 
TLFamily_HCAL      .         Caliper                       : 
TLFamily_ISHE      .         Shear Strength                : 
TLFamily_MAXXENE_OVERALL .   Acoustic Energy               : 
TLFamily_MD        .         Measured Depth                : 
TLFamily_MINXENE_OVERALL .   Acoustic Energy               : 
TLFamily_PPGI      .         Pore Pressure Gradient        : 
TLFamily_PR_HH     .         Poisson Ratio (Dynamic)       : 
TLFamily_PR_VH     .         Poisson Ratio (Dynamic)       : 
TLFamily_RHOZ      .         Bulk Density                  : 
TLFamily_RHOZ_EDT  .         Bulk Density                  : 
TLFamily_SDEVM     .         Sonde Deviation               : 
TLFamily_SLOANI    .         Acoustic Anisotropy           : 
TLFamily_SPHI      .         Total Porosity                : 
TLFamily_TNPH      .         Thermal Neutron Porosity      : 
TLFamily_TSTR      .         Tensile Strength              : 
TLFamily_TXSG_ANISO .        Minimum Horizontal Stress Gradient: 
TLFamily_TXSG_ISO  .         Minimum Horizontal Stress Gradient: 
TLFamily_TXSP_ANISO .         Minimum Horizontal Stress     : 
TLFamily_TZSG      .         Vertical Stress Gradient      : 
TLFamily_UCS       .         Compressive Strength          : 
TLFamily_YME_H_STA .         Young's Modulus (Dynamic)     : 
TLFamily_YME_V_STA .         Young's Modulus (Dynamic)     : 
~Curve Information
#_______________________________________________________________________________
#
#LOGNAME           .UNIT     LOG_ID                        : DESCRIPTION
#_______________________________________________________________________________
MD                 .ft                                     : Measured Depth 
BS                 .in                                     : Bit Size 
C44                .Mpsi                                   : C44 Modulus 
C55                .Mpsi                                   : C55 Modulus 
C66                .Mpsi                                   : C66 Modulus 
DEVIM              .deg                                    : Memorized Deviation 
DPHZ               .ft3/ft3                                : Standard Resolution Density Porosity (F11 
DTCO_MF_DDBHC      .us/ft                                  : Compressional slowness 
DTSH_FAST_DDBHC    .us/ft                                  : Fast Shear slowness 
DTSH_SLOW_DDBHC    .us/ft                                  : Slow Shear slowness 
DTSH_STRVP         .us/ft                                  : Horizontal Shear
GAMMA              .unitless                               : Thomsens Anisotropy Parameter Gamma 
GR_EDTC            .gAPI                                   : Gamma Ray 
HCAL               .IN                                     : HRCC Caliper Calibrated (F11 
ISHE               .psi                                    : Cohesive Strength 
MAXXENE_OVERALL    .unitless                               : Maximum cross energy - overall 
MINXENE_OVERALL    .unitless                               : Minimum cross energy - overall 
PPGI               .psi/ft                                 : Pore Pressure Gradient 
PR_HH              .unitless                               : Poissons Ratio - Loading Horizontal - Displacement Horizontal 
PR_VH              .unitless                               : Poissons Ratio - Loading Vertical - Displacement Horizontal 
RHOZ               .g/cm3                                  : Standard Resolution Formation Density 
RHOZ_EDT           .g/cm3                                  : Standard Resolution Formation Density 
SDEVM              .deg                                    : Memorized Sonde Deviation 
SLOANI             .%                                      : Slowness-Based Anisotropy 
SPHI               .ft3/ft3                                : Total porosity from Sonic 
TNPH               .ft3/ft3                                : Thermal Neutron Porosity (Ratio Method) in Selected Lithology (F11 
TSTR               .psi                                    : Tensile Strength 
TXSG_ANISO         .psi/ft                                 : Anisotropic Minimum Horizontal Stress Gradient 
TXSG_ISO           .psi/ft                                 : Isotropic Minimum Horizontal Stress Gradient 
TXSP_ANISO         .psi                                    : Anisotropic Minimum Horizontal Stress 
TZSG               .psi/ft                                 : Overburden Stress Gradient 
UCS                .psi                                    : Unconfined Compressive Strength 
YME_H_STA          .Mpsi                                   : Static Horizontal Youngs Modulus 
YME_V_STA          .Mpsi                                   : Static Vertical Youngs Modulus 
~Ascii
# ...
1688.0000  8.5000     3.3417     3.3417     3.3633     1.0004     0.0127     54.6228    102.6297   103.2978   102.6297   0.0000     16.3154    10.4823    4637.8848  0.1334     0.0151     0.4800     0.3036     0.3036     2.6291     2.6291     1.0004     0.6489     0.0503     0.1026     2098.1672  0.9783     0.9783     1651.1938  1.1000     25178.0059 5.3807     5.3807    
1688.5000  8.5000     3.3381     3.3381     3.3517     0.9967     0.0144     55.5058    102.7513   103.1712   102.7513   0.0000     19.0472    10.4400    4362.7651  0.1453     0.0153     0.4800     0.2948     0.2948     2.6262     2.6262     0.9967     0.4078     0.0566     0.1035     1973.7039  0.9577     0.9577     1616.9376  1.1000     23684.4453 5.3234     5.3234    
1689.0000  8.5000     3.1015     3.1015     3.1166     0.9939     0.0211     57.7109    106.3339   106.8517   106.3339   0.0000     23.8185    10.3765    3724.0593  0.1602     0.0160     0.4800     0.2922     0.2922     2.6152     2.6152     0.9939     0.4858     0.0722     0.1347     1676.7882  0.9283     0.9283     1567.7382  1.1000     20121.4590 4.8499     4.8499    
1689.5000  8.5000     2.7443     2.7443     2.7635     0.9919     0.0566     61.4488    111.6497   112.4339   111.6497   0.0000     28.9761    10.3130    2904.4949  0.1785     0.0159     0.4800     0.2842     0.2842     2.5566     2.5566     0.9919     0.6999     0.0986     0.1934     1250.3086  0.8773     0.8773     1482.0940  1.1000     15003.7041 4.1401     4.1401    
1690.0000  8.5000     2.3295     2.3295     2.3407     0.9905     0.0949     65.7296    119.8060   120.3863   119.8060   0.0000     31.7435    10.2706    2213.4700  0.1946     0.0157     0.4800     0.2857     0.2857     2.4934     2.5433     0.9905     0.4832     0.1288     0.2556     908.0200   0.8416     0.8416     1422.1311  1.1000     10896.2402 3.3819     3.3819    
1690.5000  8.5000     2.0205     2.0205     2.0254     0.9897     0.1210     69.2922    127.6762   127.9855   127.6762   0.0000     31.4006    10.2706    1793.1697  0.2060     0.0163     0.4800     0.2917     0.2917     2.4503     2.5433     0.9897     0.2420     0.1540     0.2973     708.4111   0.8248     0.8248     1394.1644  1.1000     8500.9326  2.8495     2.8495    
1691.0000  8.5000     1.9196     1.9196     1.9267     0.9893     0.1171     70.9156    131.0801   131.5617   131.0801   0.0000     30.2919    10.2495    1668.8794  0.2134     0.0169     0.4800     0.2938     0.2938     2.4568     2.5433     0.9893     0.3667     0.1655     0.3068     648.5315   0.8196     0.8196     1385.9224  1.1000     7782.3784  2.6811     2.6811    
1691.5000  8.5000     2.0070     2.0070     2.0120     0.9895     0.0882     69.8125    129.5067   129.8336   129.5067   0.0000     29.4270    10.2495    1824.3269  0.2220     0.0173     0.4800     0.2957     0.2957     2.5044     2.5433     0.9895     0.2520     0.1577     0.2606     716.8907   0.8308     0.8308     1405.1943  1.1000     8602.6885  2.8367     2.8367    
1692.0000  8.5000     2.2256     2.2256     2.2435     0.9902     0.0515     66.6644    124.3237   124.9135   124.1195   0.0000     27.4559    10.2495    2223.2759  0.2323     0.0176     0.4800     0.2988     0.2988     2.5650     2.5650     0.9902     0.4732     0.1354     0.1838     902.8879   0.8571     0.8571     1450.1316  1.1000     10834.6543 3.2409     3.2409    
1692.5000  8.5000     2.5053     2.5053     2.5403     0.9916     0.0208     62.9645    118.1901   119.0332   117.7887   0.0000     23.4228    10.2495    2782.4580  0.2384     0.0186     0.4800     0.3025     0.3025     2.6156     2.6156     0.9916     0.7108     0.1093     0.1397     1177.0637  0.8916     0.8916     1508.9346  1.1000     14124.7637 3.7748     3.7748    
1693.0000  8.5000     2.7557     2.7557     2.8485     0.9933     0.0164     60.1689    111.4007   115.1888   111.3876   0.0168     20.1490    10.2706    3410.7100  0.2389     0.0205     0.4800     0.2964     0.2994     2.6229     2.6229     0.9933     3.3436     0.0895     0.1213     1455.7712  0.9231     0.9166     1562.6438  1.1000     17469.2559 4.3740     4.2508    
1693.5000  8.5000     2.8419     2.8419     2.9910     0.9956     0.0329     58.4918    108.1367   113.9643   108.1367   0.0262     17.8831    10.3130    3757.7683  0.2391     0.0220     0.4800     0.2967     0.3014     2.5957     2.5957     0.9956     5.2477     0.0777     0.1212     1614.2067  0.9444     0.9340     1599.1671  1.1000     19370.4805 4.6477     4.4483    
1694.0000  8.5000     2.8848     2.8848     3.0122     0.9991     0.0504     57.2247    107.1560   111.9970   107.1560   0.0221     16.8473    10.3553    3908.0381  0.2410     0.0224     0.4800     0.3029     0.3070     2.5669     2.5669     0.9991     4.4179     0.0687     0.1127     1705.8738  0.9573     0.9484     1621.6071  1.1000     20470.4844 4.7164     4.5459    
1694.5000  8.5000     2.9301     2.9301     3.0094     1.0030     0.0466     56.7216    107.3340   110.2786   107.3340   0.0135     14.5841    10.3341    3957.1104  0.2440     0.0218     0.4800     0.3076     0.3101     2.5730     2.5730     1.0030     2.7063     0.0652     0.1117     1751.0156  0.9611     0.9556     1628.5164  1.1000     21012.1875 4.7318     4.6255    
1695.0000  8.5000     2.9388     2.9388     3.0164     1.0076     0.0334     57.7145    107.6651   110.5450   107.6651   0.0132     14.2677    10.3130    3784.2803  0.2454     0.0214     0.4800     0.3001     0.3025     2.5949     2.5949     1.0076     2.6396     0.0722     0.1143     1671.2076  0.9449     0.9395     1601.4590  1.1000     20054.4922 4.7118     4.6074    
1695.5000  8.5000     2.9056     2.9056     2.9837     1.0130     0.0313     59.4155    108.3236   111.2745   108.3236   0.0134     16.6001    10.3130    3475.6326  0.2475     0.0211     0.4800     0.2873     0.2896     2.5983     2.5983     1.0130     2.6875     0.0842     0.1309     1503.6234  0.9142     0.9090     1549.9960  1.1000     18043.4805 4.5924     4.4870    
1696.0000  8.5000     2.7570     2.7570     2.7969     1.0189     0.0428     60.6155    111.4748   113.1008   111.4748   0.0000     19.7452    10.2283    3082.1409  0.2479     0.0207     0.4800     0.2929     0.2929     2.5794     2.5794     1.0189     1.4481     0.0927     0.1406     1339.8151  0.8960     0.8960     1519.5630  1.1000     16077.7803 4.2118     4.2118    
1696.5000  8.5000     2.6910     2.6910     2.7315     1.0254     0.0540     60.6506    112.3948   114.0990   112.3948   0.0000     22.5123    10.2283    3025.3945  0.2472     0.0204     0.4800     0.2974     0.2974     2.5609     2.5609     1.0254     1.5048     0.0929     0.1446     1314.6022  0.8989     0.8989     1524.8636  1.1000     15775.2266 4.1061     4.1061    
1697.0000  8.5000     2.7071     2.7071     2.7654     1.0318     0.0566     59.8861    111.6091   114.0403   111.6091   0.0000     23.3672    10.3130    3135.2515  0.2435     0.0200     0.4800     0.3018     0.3018     2.5565     2.5565     1.0318     2.1548     0.0875     0.1473     1374.7684  0.9100     0.9100     1544.2185  1.1000     16497.2207 4.1649     4.1649    
1697.5000  8.5000     2.6871     2.6871     2.7637     1.0375     0.0587     60.0110    111.5695   114.7968   111.5695   0.0143     23.7882    10.3341    3233.2542  0.2372     0.0194     0.4800     0.2984     0.3009     2.5531     2.5531     1.0375     2.8514     0.0884     0.1504     1387.4944  0.9166     0.9113     1555.8265  1.1000     16649.9316 4.2213     4.1203    
1698.0000  8.5000     2.6655     2.6655     2.7519     1.0432     0.0622     61.3333    111.6813   115.3617   111.6813   0.0162     23.2791    10.3765    3030.6814  0.2319     0.0181     0.4800     0.2871     0.2898     2.5473     2.5473     1.0432     3.2421     0.0978     0.1523     1277.5911  0.8931     0.8872     1516.4150  1.1000     15331.0918 4.1539     4.0396    
1698.5000  8.5000     2.6752     2.6752     2.7578     1.0481     0.0579     62.8046    111.7173   115.2231   111.7173   0.0154     21.3272    10.3977    2825.1917  0.2256     0.0167     0.4800     0.2729     0.2752     2.5544     2.5544     1.0481     3.0896     0.1082     0.1477     1172.7235  0.8644     0.8589     1468.1149  1.1000     14072.6826 4.1081     3.9979    
