~Version
 VERS              .         2.0                           : CWLS LOG ASCII STANDARD - VERSION 2.0
 WRAP              .         NO                            : ONE LINE PER DEPTH STEP
 DLM               .         SPACE                         : DELIMITING CHARACTER(SPACE TAB OR COMMA)
~Well Information
#_______________________________________________________________________________
#
#PARAMETER_NAME    .UNIT     VALUE                         : DESCRIPTION
#_______________________________________________________________________________
STRT               .ft       1050.0000                     : First reference value
STOP               .ft       5850.0000                     : Last reference value
STEP               .ft       0.5000                        : Step increment
NULL               .         -999.25                       : Missing value
COMP               .         PRAIRIE STATE GENERATING CO, LLC: Company
WELL               .         LIVELY GROVE #1               : Well name
FLD                .         N/A                           : Field
LOC                .                                       : Location
CNTY               .         WASHINGTON                    : County
STAT               .         ILLINOIS                      : State
CTRY               .                                       : Country
SRVC               .         Schlumberger                  : Service Company
DATE               .         12-Aug-2021                   : Date
UWI                .                                       : Unique Well ID
APD                .ft       16                            : Elevation of Depth Reference (LMF) Above Permanent Datum
API                .         12-189-24947-00               : 
BHS                .         OPEN                          : Borehole Status (Open or Cased Hole)
BHT                .degF     115                           : Bottom Hole Temperature
BLI                .ft       5885.95                       : Bottom Log Interval
BS                 .in       8.5                           : Bit Size
CBDR               .ft       1049                          : Casing Bottom of Driller
CBLO               .ft       1049                          : Logger Casing Shoe Depth
CSIZ               .in       9.625                         : Current Casing Size
CWEI               .lbm/ft   36                            : Casing Weight
DCS                .         11-Aug-2021                   : Date Circulation Stopped
DFD                .lbm/gal  9.35                          : Drilling Fluid Density
DFT                .         FRESH WBM                     : Drilling Fluid Type
DLAB               .         12-Aug-2021                   : Date Logger At Bottom
EDF                .ft       477                           : Elevation of Drill Floor
EGL                .ft       461                           : Elevation of Ground Level
EKB                .ft       477                           : Elevation of Kelly Bushing
EPD                .ft       461                           : Elevation of Permanent Datum (PDAT) above Mean Sea Level
LMF                .         KB                            : Logging Measured From (Name of Logging Elevation Reference)
LUL                .         BRADFORD, PA                  : Logging Unit Location
LUN                .         OSLC 2266                     : Logging Unit Number
LATI               .dega     0.00000000                    : Latitude
LONG               .         -89.644768 degrees            : Longitude
MCST               .degF     81.9                          : Mudcake Sample Temperature
MFST               .degF     81.9                          : Mud Filtrate Sample Temperature
MRT                .degF     115                           : Maximum Recorded Temperature
MST                .degF     81.9                          : Mud Sample Temperature
ORIGINALWELLNAME   .         LIVELY GROVE #1               : 
PDAT               .         GL                            : Permanent Datum
PRODUCER-CODE      .         440                           : 
PRODUCER-NAME      .         Schlumberger                  : 
RMB                .ohm.m    0.9233273                     : Resistivity of Mud at Bottom Hole Temperature
RMCS               .ohm.m    1.44                          : Resistivity of Mud Cake Sample
RMFS               .ohm.m    1.033                         : Resistivity of Mud Filtrate Sample
RMS                .ohm.m    1.268                         : Resistivity of Mud Sample
RUN                .         RUN 1B                        : Run Number
TCS                .         17_00_00                      : Time Circulation Stopped
TDD                .ft       5888                          : Driller Total Depth
TDL                .ft       5888.35                       : Logger Total Depth
TLAB               .         07_19_00                      : Time Logger At Bottom
TLI                .ft       1049                          : Top Log Interval
~Parameter Information Block
#_______________________________________________________________________________
#
#PARAMETER_NAME    .UNIT     VALUE                         : DESCRIPTION
#_______________________________________________________________________________
SET                .         0_CP_MP_Delivered             : 
TLFamily_BS        .         Bit Size                      : 
TLFamily_C44       .         Elastic Modulus               : 
TLFamily_C55       .         Elastic Modulus               : 
TLFamily_C66       .         Elastic Modulus               : 
TLFamily_DEVIM     .         Hole Deviation                : 
TLFamily_DPHZ      .         Density Porosity              : 
TLFamily_DTCO_MF_DDBHC .     Compressional Slowness        : 
TLFamily_DTSH_FAST_DDBHC .   Fast Shear Slowness           : 
TLFamily_DTSH_SLOW_DDBHC .   Slow Shear Slowness           : 
TLFamily_DTSH_STRVP .        Stoneley Shear Slowness       : 
TLFamily_GAMMA     .         Regularization Factor         : 
TLFamily_GR_EDTC   .         Gamma Ray                     : 
TLFamily_HCAL      .         Caliper                       : 
TLFamily_ISHE      .         Shear Strength                : 
TLFamily_MAXXENE_OVERALL .   Acoustic Energy               : 
TLFamily_MD        .         Measured Depth                : 
TLFamily_MINXENE_OVERALL .   Acoustic Energy               : 
TLFamily_PPGI      .         Pore Pressure Gradient        : 
TLFamily_PR_HH     .         Poisson Ratio (Dynamic)       : 
TLFamily_PR_VH     .         Poisson Ratio (Dynamic)       : 
TLFamily_RHOZ      .         Bulk Density                  : 
TLFamily_RHOZ_EDT  .         Bulk Density                  : 
TLFamily_SDEVM     .         Sonde Deviation               : 
TLFamily_SLOANI    .         Acoustic Anisotropy           : 
TLFamily_SPHI      .         Total Porosity                : 
TLFamily_TNPH      .         Thermal Neutron Porosity      : 
TLFamily_TSTR      .         Tensile Strength              : 
TLFamily_TXSG_ANISO .        Minimum Horizontal Stress Gradient: 
TLFamily_TXSG_ISO  .         Minimum Horizontal Stress Gradient: 
TLFamily_TXSP_ANISO .         Minimum Horizontal Stress     : 
TLFamily_TZSG      .         Vertical Stress Gradient      : 
TLFamily_UCS       .         Compressive Strength          : 
TLFamily_YME_H_STA .         Young's Modulus (Dynamic)     : 
TLFamily_YME_V_STA .         Young's Modulus (Dynamic)     : 
~Curve Information
#_______________________________________________________________________________
#
#LOGNAME           .UNIT     LOG_ID                        : DESCRIPTION
#_______________________________________________________________________________
MD                 .ft                                     : Measured Depth 
BS                 .in                                     : Bit Size 
C44                .Mpsi                                   : C44 Modulus 
C55                .Mpsi                                   : C55 Modulus 
C66                .Mpsi                                   : C66 Modulus 
DEVIM              .deg                                    : Memorized Deviation 
DPHZ               .ft3/ft3                                : Standard Resolution Density Porosity (F11 
DTCO_MF_DDBHC      .us/ft                                  : Compressional slowness 
DTSH_FAST_DDBHC    .us/ft                                  : Fast Shear slowness 
DTSH_SLOW_DDBHC    .us/ft                                  : Slow Shear slowness 
DTSH_STRVP         .us/ft                                  : Horizontal Shear
GAMMA              .unitless                               : Thomsens Anisotropy Parameter Gamma 
GR_EDTC            .gAPI                                   : Gamma Ray 
HCAL               .IN                                     : HRCC Caliper Calibrated (F11 
ISHE               .psi                                    : Cohesive Strength 
MAXXENE_OVERALL    .unitless                               : Maximum cross energy - overall 
MINXENE_OVERALL    .unitless                               : Minimum cross energy - overall 
PPGI               .psi/ft                                 : Pore Pressure Gradient 
PR_HH              .unitless                               : Poissons Ratio - Loading Horizontal - Displacement Horizontal 
PR_VH              .unitless                               : Poissons Ratio - Loading Vertical - Displacement Horizontal 
RHOZ               .g/cm3                                  : Standard Resolution Formation Density 
RHOZ_EDT           .g/cm3                                  : Standard Resolution Formation Density 
SDEVM              .deg                                    : Memorized Sonde Deviation 
SLOANI             .%                                      : Slowness-Based Anisotropy 
SPHI               .ft3/ft3                                : Total porosity from Sonic 
TNPH               .ft3/ft3                                : Thermal Neutron Porosity (Ratio Method) in Selected Lithology (F11 
TSTR               .psi                                    : Tensile Strength 
TXSG_ANISO         .psi/ft                                 : Anisotropic Minimum Horizontal Stress Gradient 
TXSG_ISO           .psi/ft                                 : Isotropic Minimum Horizontal Stress Gradient 
TXSP_ANISO         .psi                                    : Anisotropic Minimum Horizontal Stress 
TZSG               .psi/ft                                 : Overburden Stress Gradient 
UCS                .psi                                    : Unconfined Compressive Strength 
YME_H_STA          .Mpsi                                   : Static Horizontal Youngs Modulus 
YME_V_STA          .Mpsi                                   : Static Vertical Youngs Modulus 
~Ascii
# ...
3921.0000  8.5000     4.0595     4.0595     4.4392     0.3895     -0.0525    52.9314    94.4389    96.2020    91.1419    0.0468     23.5229    8.9580     6652.7251  0.0960     0.0093     0.4800     0.2595     0.2659     2.7367     2.7367     0.3895     1.8497     0.0384     0.1368     2795.7664  0.8144     0.8012     3192.7180  1.1000     33549.1953 7.3084     6.7449    
3921.5000  8.5000     4.0917     4.0917     4.5583     0.3892     -0.0556    53.3229    94.1653    95.8981    90.0246    0.0570     27.0512    8.9898     6684.7310  0.0921     0.0092     0.4800     0.2494     0.2567     2.7417     2.7417     0.3892     1.8233     0.0412     0.1351     2766.8074  0.8065     0.7905     3162.1033  1.1000     33201.6875 7.4775     6.7797    
3922.0000  8.5000     4.1061     4.1061     4.6320     0.3890     -0.0615    53.0813    94.1120    95.9601    89.4660    0.0640     31.8208    9.0003     6994.4668  0.0888     0.0091     0.4800     0.2499     0.2582     2.7515     2.7515     0.3890     1.9446     0.0394     0.1331     2865.6494  0.8145     0.7964     3193.9875  1.1000     34387.7930 7.6313     6.8440    
3922.5000  8.5000     4.0831     4.0831     4.6062     0.3889     -0.0580    52.4832    94.2324    96.1738    89.6203    0.0641     33.5986    8.9792     7278.3091  0.0844     0.0091     0.4800     0.2579     0.2667     2.7456     2.7456     0.3889     2.0392     0.0352     0.1401     2981.8464  0.8287     0.8104     3249.9360  1.1000     35782.1563 7.6384     6.8591    
3923.0000  8.5000     4.1026     4.1026     4.5941     0.3890     -0.0547    51.9379    93.7718    96.0055    89.6508    0.0599     32.7861    8.9898     7460.5688  0.0796     0.0092     0.4800     0.2635     0.2720     2.7403     2.7403     0.3890     2.3541     0.0314     0.1405     3075.0024  0.8365     0.8192     3281.1138  1.1000     36900.0273 7.6554     6.9245    
3923.5000  8.5000     4.0972     4.0972     4.5373     0.3893     -0.0451    51.5624    93.3155    96.0543    89.9479    0.0537     28.6164    8.9792     7448.5776  0.0755     0.0093     0.4800     0.2685     0.2765     2.7244     2.7244     0.3893     2.8925     0.0287     0.1412     3098.0645  0.8401     0.8245     3295.6348  1.1000     37176.7734 7.5758     6.9234    
3924.0000  8.5000     4.0443     4.0443     4.4340     0.3901     -0.0388    51.3670    93.4392    96.8327    90.8160    0.0482     26.4096    8.9792     7369.2349  0.0736     0.0094     0.4800     0.2753     0.2828     2.7140     2.7140     0.3901     3.5670     0.0273     0.1427     3090.3086  0.8452     0.8313     3316.2434  1.1000     37083.7031 7.4114     6.8376    
3924.5000  8.5000     4.0045     4.0045     4.3440     0.3918     -0.0333    51.4491    93.6637    97.2421    91.5990    0.0424     23.3947    8.9792     7146.7285  0.0743     0.0097     0.4800     0.2783     0.2850     2.7049     2.7049     0.3918     3.7489     0.0279     0.1373     3023.1787  0.8435     0.8313     3309.7524  1.1000     36278.1445 7.2471     6.7493    
3925.0000  8.5000     4.0408     4.0408     4.3485     0.3933     -0.0313    51.1892    93.4536    96.4487    91.4952    0.0381     21.6006    8.9792     7182.4722  0.0764     0.0098     0.4800     0.2799     0.2860     2.7016     2.7016     0.3933     3.1544     0.0261     0.1328     3058.2234  0.8439     0.8329     3311.8760  1.1000     36698.6836 7.2676     6.8158    
3925.5000  8.5000     4.1163     4.1163     4.4219     0.3945     -0.0278    50.6012    92.8369    95.0838    90.6350    0.0371     19.2798    8.9686     7465.9448  0.0794     0.0097     0.4800     0.2809     0.2869     2.6958     2.6958     0.3945     2.3914     0.0219     0.1248     3183.5430  0.8486     0.8376     3330.6372  1.1000     38202.5156 7.4272     6.9767    
3926.0000  8.5000     4.1633     4.1633     4.4832     0.3960     -0.0311    49.6738    92.5712    94.4609    90.1037    0.0384     18.0761    8.9792     8065.6304  0.0847     0.0094     0.4800     0.2880     0.2945     2.7013     2.7013     0.3960     2.0207     0.0154     0.1218     3432.4790  0.8662     0.8546     3400.1428  1.1000     41189.7500 7.6062     7.1351    
3926.5000  8.5000     4.1338     4.1338     4.4120     0.3972     -0.0341    49.3889    93.0312    94.8421    90.9136    0.0337     18.3462    8.9580     8133.1289  0.0913     0.0093     0.4800     0.2952     0.3012     2.7063     2.7063     0.3972     1.9278     0.0133     0.1235     3486.5898  0.8741     0.8639     3431.6094  1.1000     41839.0781 7.5086     7.1012    
3927.0000  8.5000     4.1209     4.1209     4.3649     0.3980     -0.0357    50.0039    92.9225    95.3571    91.4470    0.0296     18.1275    8.9474     7692.7881  0.0982     0.0093     0.4800     0.2913     0.2964     2.7090     2.7090     0.3980     2.5861     0.0177     0.1308     3318.5061  0.8613     0.8525     3382.0344  1.1000     39822.0742 7.3824     7.0246    
3927.5000  8.5000     4.1000     4.1000     4.2827     0.3986     -0.0206    51.2532    92.4725    95.4381    91.8954    0.0223     15.9994    8.9368     6743.0786  0.1060     0.0094     0.4800     0.2791     0.2826     2.6841     2.6841     0.3986     3.1564     0.0265     0.1370     2942.4614  0.8290     0.8225     3255.5308  1.1000     35309.5391 7.1261     6.8572    
3928.0000  8.5000     4.0469     4.0469     4.1726     0.3990     -0.0077    51.9206    92.9053    95.4636    92.7282    0.0155     13.7190    8.9580     6182.8657  0.1151     0.0095     0.4800     0.2754     0.2778     2.6627     2.6627     0.3990     2.7163     0.0312     0.1372     2727.0735  0.8129     0.8085     3192.7788  1.1000     32724.8828 6.8755     6.6907    
3928.5000  8.5000     3.9545     3.9545     4.0647     0.3994     0.0012     52.6388    93.6915    96.3404    93.6915    0.0139     12.8277    8.9580     5762.5454  0.1248     0.0094     0.4800     0.2729     0.2750     2.6480     2.6480     0.3994     2.7879     0.0363     0.1373     2548.2454  0.8027     0.7988     3153.0437  1.1000     30578.9434 6.6400     6.4788    
3929.0000  8.5000     3.8984     3.8984     4.0792     0.3999     -0.0151    52.6601    94.2483    98.1791    93.9986    0.0232     12.6587    8.9368     6030.7349  0.1345     0.0092     0.4800     0.2766     0.2802     2.6749     2.6749     0.3999     4.0854     0.0365     0.1360     2627.8359  0.8160     0.8095     3205.5608  1.1000     31534.0313 6.6933     6.4300    
3929.5000  8.5000     3.8214     3.8214     4.0571     0.4006     -0.0241    52.1098    94.8714    100.1159   94.5170    0.0308     12.6699    8.8733     6470.8394  0.1443     0.0091     0.4800     0.2870     0.2922     2.6898     2.6898     0.4006     5.3794     0.0326     0.1352     2786.0967  0.8397     0.8311     3299.0681  1.1000     33433.1602 6.7157     6.3756    
3930.0000  8.5000     3.7742     3.7742     4.0350     0.4017     -0.0381    51.6434    95.8215    101.2296   95.1803    0.0346     12.0954    8.8733     6848.4678  0.1537     0.0090     0.4800     0.2959     0.3021     2.7129     2.7129     0.4017     5.4891     0.0293     0.1288     2931.8101  0.8586     0.8488     3373.6455  1.1000     35181.7227 6.7273     6.3537    
3930.5000  8.5000     3.7509     3.7509     4.0032     0.4034     -0.0369    51.3323    96.0627    101.5334   95.5242    0.0336     11.9928    8.8839     6958.3545  0.1626     0.0091     0.4800     0.3007     0.3069     2.7110     2.7110     0.4034     5.5373     0.0271     0.1329     2983.0925  0.8659     0.8564     3403.1050  1.1000     35797.1094 6.6922     6.3323    
3931.0000  8.5000     3.7728     3.7728     4.0030     0.4060     -0.0330    51.7682    95.6132    101.1850   95.4130    0.0305     10.9562    8.8733     6669.7397  0.1715     0.0093     0.4800     0.2955     0.3010     2.7045     2.7045     0.4060     5.6624     0.0302     0.1398     2873.1919  0.8535     0.8449     3354.5933  1.1000     34478.3008 6.6590     6.3293    
3931.5000  8.5000     3.7623     3.7623     3.9576     0.4093     -0.0270    52.5142    95.8624    100.7975   95.7825    0.0260     12.2621    8.8733     6201.1216  0.1801     0.0095     0.4800     0.2894     0.2939     2.6946     2.6946     0.4093     5.0189     0.0354     0.1500     2690.3550  0.8365     0.8293     3288.1035  1.1000     32284.2598 6.5276     6.2472    
