~Version
 VERS              .         2.0                           : CWLS LOG ASCII STANDARD - VERSION 2.0
 WRAP              .         NO                            : ONE LINE PER DEPTH STEP
 DLM               .         SPACE                         : DELIMITING CHARACTER(SPACE TAB OR COMMA)
~Well Information
#_______________________________________________________________________________
#
#PARAMETER_NAME    .UNIT     VALUE                         : DESCRIPTION
#_______________________________________________________________________________
STRT               .ft       1050.0000                     : First reference value
STOP               .ft       5850.0000                     : Last reference value
STEP               .ft       0.5000                        : Step increment
NULL               .         -999.25                       : Missing value
COMP               .         PRAIRIE STATE GENERATING CO, LLC: Company
WELL               .         LIVELY GROVE #1               : Well name
FLD                .         N/A                           : Field
LOC                .                                       : Location
CNTY               .         WASHINGTON                    : County
STAT               .         ILLINOIS                      : State
CTRY               .                                       : Country
SRVC               .         Schlumberger                  : Service Company
DATE               .         12-Aug-2021                   : Date
UWI                .                                       : Unique Well ID
APD                .ft       16                            : Elevation of Depth Reference (LMF) Above Permanent Datum
API                .         12-189-24947-00               : 
BHS                .         OPEN                          : Borehole Status (Open or Cased Hole)
BHT                .degF     115                           : Bottom Hole Temperature
BLI                .ft       5885.95                       : Bottom Log Interval
BS                 .in       8.5                           : Bit Size
CBDR               .ft       1049                          : Casing Bottom of Driller
CBLO               .ft       1049                          : Logger Casing Shoe Depth
CSIZ               .in       9.625                         : Current Casing Size
CWEI               .lbm/ft   36                            : Casing Weight
DCS                .         11-Aug-2021                   : Date Circulation Stopped
DFD                .lbm/gal  9.35                          : Drilling Fluid Density
DFT                .         FRESH WBM                     : Drilling Fluid Type
DLAB               .         12-Aug-2021                   : Date Logger At Bottom
EDF                .ft       477                           : Elevation of Drill Floor
EGL                .ft       461                           : Elevation of Ground Level
EKB                .ft       477                           : Elevation of Kelly Bushing
EPD                .ft       461                           : Elevation of Permanent Datum (PDAT) above Mean Sea Level
LMF                .         KB                            : Logging Measured From (Name of Logging Elevation Reference)
LUL                .         BRADFORD, PA                  : Logging Unit Location
LUN                .         OSLC 2266                     : Logging Unit Number
LATI               .dega     0.00000000                    : Latitude
LONG               .         -89.644768 degrees            : Longitude
MCST               .degF     81.9                          : Mudcake Sample Temperature
MFST               .degF     81.9                          : Mud Filtrate Sample Temperature
MRT                .degF     115                           : Maximum Recorded Temperature
MST                .degF     81.9                          : Mud Sample Temperature
ORIGINALWELLNAME   .         LIVELY GROVE #1               : 
PDAT               .         GL                            : Permanent Datum
PRODUCER-CODE      .         440                           : 
PRODUCER-NAME      .         Schlumberger                  : 
RMB                .ohm.m    0.9233273                     : Resistivity of Mud at Bottom Hole Temperature
RMCS               .ohm.m    1.44                          : Resistivity of Mud Cake Sample
RMFS               .ohm.m    1.033                         : Resistivity of Mud Filtrate Sample
RMS                .ohm.m    1.268                         : Resistivity of Mud Sample
RUN                .         RUN 1B                        : Run Number
TCS                .         17_00_00                      : Time Circulation Stopped
TDD                .ft       5888                          : Driller Total Depth
TDL                .ft       5888.35                       : Logger Total Depth
TLAB               .         07_19_00                      : Time Logger At Bottom
TLI                .ft       1049                          : Top Log Interval
~Parameter Information Block
#_______________________________________________________________________________
#
#PARAMETER_NAME    .UNIT     VALUE                         : DESCRIPTION
#_______________________________________________________________________________
SET                .         0_CP_MP_Delivered             : 
TLFamily_BS        .         Bit Size                      : 
TLFamily_C44       .         Elastic Modulus               : 
TLFamily_C55       .         Elastic Modulus               : 
TLFamily_C66       .         Elastic Modulus               : 
TLFamily_DEVIM     .         Hole Deviation                : 
TLFamily_DPHZ      .         Density Porosity              : 
TLFamily_DTCO_MF_DDBHC .     Compressional Slowness        : 
TLFamily_DTSH_FAST_DDBHC .   Fast Shear Slowness           : 
TLFamily_DTSH_SLOW_DDBHC .   Slow Shear Slowness           : 
TLFamily_DTSH_STRVP .        Stoneley Shear Slowness       : 
TLFamily_GAMMA     .         Regularization Factor         : 
TLFamily_GR_EDTC   .         Gamma Ray                     : 
TLFamily_HCAL      .         Caliper                       : 
TLFamily_ISHE      .         Shear Strength                : 
TLFamily_MAXXENE_OVERALL .   Acoustic Energy               : 
TLFamily_MD        .         Measured Depth                : 
TLFamily_MINXENE_OVERALL .   Acoustic Energy               : 
TLFamily_PPGI      .         Pore Pressure Gradient        : 
TLFamily_PR_HH     .         Poisson Ratio (Dynamic)       : 
TLFamily_PR_VH     .         Poisson Ratio (Dynamic)       : 
TLFamily_RHOZ      .         Bulk Density                  : 
TLFamily_RHOZ_EDT  .         Bulk Density                  : 
TLFamily_SDEVM     .         Sonde Deviation               : 
TLFamily_SLOANI    .         Acoustic Anisotropy           : 
TLFamily_SPHI      .         Total Porosity                : 
TLFamily_TNPH      .         Thermal Neutron Porosity      : 
TLFamily_TSTR      .         Tensile Strength              : 
TLFamily_TXSG_ANISO .        Minimum Horizontal Stress Gradient: 
TLFamily_TXSG_ISO  .         Minimum Horizontal Stress Gradient: 
TLFamily_TXSP_ANISO .         Minimum Horizontal Stress     : 
TLFamily_TZSG      .         Vertical Stress Gradient      : 
TLFamily_UCS       .         Compressive Strength          : 
TLFamily_YME_H_STA .         Young's Modulus (Dynamic)     : 
TLFamily_YME_V_STA .         Young's Modulus (Dynamic)     : 
~Curve Information
#_______________________________________________________________________________
#
#LOGNAME           .UNIT     LOG_ID                        : DESCRIPTION
#_______________________________________________________________________________
MD                 .ft                                     : Measured Depth 
BS                 .in                                     : Bit Size 
C44                .Mpsi                                   : C44 Modulus 
C55                .Mpsi                                   : C55 Modulus 
C66                .Mpsi                                   : C66 Modulus 
DEVIM              .deg                                    : Memorized Deviation 
DPHZ               .ft3/ft3                                : Standard Resolution Density Porosity (F11 
DTCO_MF_DDBHC      .us/ft                                  : Compressional slowness 
DTSH_FAST_DDBHC    .us/ft                                  : Fast Shear slowness 
DTSH_SLOW_DDBHC    .us/ft                                  : Slow Shear slowness 
DTSH_STRVP         .us/ft                                  : Horizontal Shear
GAMMA              .unitless                               : Thomsens Anisotropy Parameter Gamma 
GR_EDTC            .gAPI                                   : Gamma Ray 
HCAL               .IN                                     : HRCC Caliper Calibrated (F11 
ISHE               .psi                                    : Cohesive Strength 
MAXXENE_OVERALL    .unitless                               : Maximum cross energy - overall 
MINXENE_OVERALL    .unitless                               : Minimum cross energy - overall 
PPGI               .psi/ft                                 : Pore Pressure Gradient 
PR_HH              .unitless                               : Poissons Ratio - Loading Horizontal - Displacement Horizontal 
PR_VH              .unitless                               : Poissons Ratio - Loading Vertical - Displacement Horizontal 
RHOZ               .g/cm3                                  : Standard Resolution Formation Density 
RHOZ_EDT           .g/cm3                                  : Standard Resolution Formation Density 
SDEVM              .deg                                    : Memorized Sonde Deviation 
SLOANI             .%                                      : Slowness-Based Anisotropy 
SPHI               .ft3/ft3                                : Total porosity from Sonic 
TNPH               .ft3/ft3                                : Thermal Neutron Porosity (Ratio Method) in Selected Lithology (F11 
TSTR               .psi                                    : Tensile Strength 
TXSG_ANISO         .psi/ft                                 : Anisotropic Minimum Horizontal Stress Gradient 
TXSG_ISO           .psi/ft                                 : Isotropic Minimum Horizontal Stress Gradient 
TXSP_ANISO         .psi                                    : Anisotropic Minimum Horizontal Stress 
TZSG               .psi/ft                                 : Overburden Stress Gradient 
UCS                .psi                                    : Unconfined Compressive Strength 
YME_H_STA          .Mpsi                                   : Static Horizontal Youngs Modulus 
YME_V_STA          .Mpsi                                   : Static Vertical Youngs Modulus 
~Ascii
# ...
4878.0000  8.5000     4.8104     4.8104     5.3168     0.6257     -0.1268    47.8544    89.2524    89.7377    85.1251    0.0526     14.0075    11.3186    10966.8887 0.5217     0.0048     0.4800     0.2792     0.2877     2.8593     2.8593     0.6257     0.5422     0.0025     0.1019     4568.5874  0.8571     0.8418     4180.4653  1.1000     54823.0469 9.3146     8.5388    
4878.5000  8.5000     4.7537     4.7537     5.2780     0.6235     -0.1311    48.9528    89.9400    90.3349    85.5429    0.0551     16.1936    10.9058    10184.3281 0.5244     0.0045     0.4800     0.2697     0.2780     2.8663     2.8663     0.6235     0.4381     0.0103     0.1148     4226.9526  0.8385     0.8229     4090.2222  1.1000     50723.4297 9.1460     8.3412    
4879.0000  8.5000     4.6590     4.6590     5.1466     0.6216     -0.1136    49.1815    89.9106    91.2799    86.1900    0.0523     15.6907    10.9199    9714.4893  0.5287     0.0042     0.4800     0.2709     0.2788     2.8374     2.8374     0.6216     1.5115     0.0119     0.1167     4048.7756  0.8343     0.8196     4069.8396  1.1000     48585.3086 8.8752     8.1310    
4879.5000  8.5000     4.6982     4.6982     4.9957     0.6198     -0.1004    47.7591    89.0245    90.7272    87.1468    0.0317     13.2617    10.9340    10050.4990 0.5338     0.0039     0.4800     0.2904     0.2958     2.8157     2.8157     0.6198     1.8945     0.0018     0.1087     4321.8281  0.8529     0.8438     4161.3657  1.1000     51861.9375 8.7166     8.2664    
4880.0000  8.5000     4.8077     4.8077     5.0760     0.6179     -0.0963    47.3004    87.9439    89.5330    86.3512    0.0279     10.8220    10.9834    10289.2168 0.5368     0.0037     0.4800     0.2902     0.2950     2.8090     2.8090     0.6179     1.7908     0.0000     0.0944     4450.4155  0.8530     0.8448     4162.2427  1.1000     53404.9883 8.8886     8.4805    
4880.5000  8.5000     4.9122     4.9122     5.1408     0.6162     -0.0861    47.0286    86.8658    88.1779    85.5466    0.0233     10.3417    10.9905    10283.3369 0.5378     0.0035     0.4800     0.2876     0.2915     2.7920     2.7920     0.6162     1.4992     0.0000     0.0871     4480.2959  0.8472     0.8403     4134.4976  1.1000     53763.5508 9.0068     8.6569    
4881.0000  8.5000     5.0161     5.0161     5.1726     0.6146     -0.0714    46.4956    85.8587    86.6010    84.9133    0.0000     9.9395     11.0328    9854.7881  0.5393     0.0036     0.4800     0.2920     0.2920     2.7679     2.7679     0.6146     0.8608     0.0000     0.0827     4458.2808  0.8370     0.8370     4084.7979  1.1000     53499.3711 8.8875     8.8875    
4881.5000  8.5000     5.0681     5.0681     5.1749     0.6131     -0.0636    46.8697    85.4348    85.7304    84.6945    0.0000     10.7845    11.0963    9482.4336  0.5419     0.0036     0.4800     0.2836     0.2836     2.7549     2.7549     0.6131     0.3454     0.0000     0.0820     4289.8286  0.8227     0.8227     4015.7710  1.1000     51477.9414 8.8927     8.8927    
4882.0000  8.5000     5.1212     5.1212     5.4032     0.6118     -0.0765    46.8156    85.3024    85.6349    83.2074    0.0275     12.6680    11.2092    10540.6641 0.5447     0.0036     0.4800     0.2749     0.2791     2.7763     2.7763     0.6118     0.3890     0.0000     0.0838     4561.7417  0.8355     0.8272     4078.1912  1.1000     54740.8984 9.4624     9.0236    
4882.5000  8.5000     5.1307     5.1307     5.5286     0.6105     -0.0942    46.5105    85.6705    86.0015    82.6888    0.0388     13.6956    11.2304    11402.1406 0.5472     0.0035     0.4800     0.2770     0.2831     2.8054     2.8054     0.6105     0.3857     0.0000     0.0940     4849.7632  0.8515     0.8397     4156.7139  1.1000     58197.1563 9.7549     9.1357    
4883.0000  8.5000     5.1115     5.1115     5.5303     0.6095     -0.1101    46.1795    86.1866    86.6103    83.0625    0.0410     12.3461    11.0222    11982.1445 0.5497     0.0034     0.4800     0.2838     0.2905     2.8317     2.8317     0.6095     0.4904     0.0000     0.0988     5079.6094  0.8664     0.8539     4230.2896  1.1000     60955.3164 9.8226     9.1737    
4883.5000  8.5000     5.0334     5.0334     5.4027     0.6085     -0.1058    46.4029    86.7360    87.1766    83.9313    0.0367     9.5455     10.9975    11538.7236 0.5521     0.0033     0.4800     0.2862     0.2924     2.8245     2.8245     0.6085     0.5067     0.0000     0.0985     4923.6113  0.8636     0.8525     4217.0620  1.1000     59083.3359 9.5658     8.9965    
4884.0000  8.5000     4.9766     4.9766     5.3704     0.6077     -0.1058    46.5917    87.2358    87.6693    84.1840    0.0396     8.5000     10.9693    11445.5254 0.5539     0.0032     0.4800     0.2860     0.2926     2.8246     2.8246     0.6077     0.4957     0.0000     0.0897     4862.3638  0.8639     0.8520     4218.7607  1.1000     58348.3633 9.4932     8.8875    
4884.5000  8.5000     4.8995     4.8995     5.3241     0.6072     -0.1045    46.1239    87.8633    88.3438    84.5163    0.0433     8.7961     10.9481    11947.3252 0.5546     0.0032     0.4800     0.2937     0.3014     2.8224     2.8224     0.6072     0.5454     0.0000     0.0813     5046.6909  0.8802     0.8672     4298.9702  1.1000     60560.2891 9.4613     8.8132    
4885.0000  8.5000     4.8084     4.8084     5.1852     0.6070     -0.1069    45.7402    88.7336    89.2612    85.7014    0.0392     9.8126     10.9375    12124.3584 0.5540     0.0032     0.4800     0.3043     0.3117     2.8264     2.8264     0.6070     0.5927     0.0000     0.0729     5153.7725  0.8937     0.8819     4365.4063  1.1000     61845.2695 9.2499     8.6807    
4885.5000  8.5000     4.7369     4.7369     5.0072     0.6067     -0.0993    47.1910    89.1943    89.7412    87.0182    0.0285     11.5681    10.9199    10399.2471 0.5520     0.0034     0.4800     0.2956     0.3006     2.8139     2.8139     0.6067     0.6113     0.0000     0.0741     4493.5859  0.8613     0.8529     4207.2666  1.1000     53923.0313 8.7852     8.3766    
4886.0000  8.5000     4.7227     4.7227     4.9591     0.6065     -0.0827    48.8127    88.9405    89.3883    87.0122    0.0250     11.4024    11.0116    8914.3975  0.5496     0.0035     0.4800     0.2761     0.2800     2.7865     2.7865     0.6065     0.5021     0.0093     0.0771     3873.1211  0.8197     0.8127     4004.8140  1.1000     46477.4531 8.5200     8.1595    
4886.5000  8.5000     4.7684     4.7684     5.0843     0.6067     -0.0765    49.7322    88.3561    88.7909    85.7776    0.0331     11.1381    10.8705    8440.7695  0.5474     0.0036     0.4800     0.2573     0.2618     2.7763     2.7763     0.6067     0.4909     0.0158     0.0844     3621.4805  0.7947     0.7856     3882.9163  1.1000     43457.7656 8.6269     8.1400    
4887.0000  8.5000     4.8515     4.8515     5.2135     0.6071     -0.0819    48.9306    87.7071    88.1950    84.8420    0.0373     10.0328    10.8846    9175.2227  0.5450     0.0036     0.4800     0.2617     0.2669     2.7851     2.7851     0.6071     0.5548     0.0101     0.0826     3911.3655  0.8097     0.7992     3956.7476  1.1000     46936.3867 8.9375     8.3779    
4887.5000  8.5000     4.9305     4.9305     5.1688     0.6077     -0.0927    47.0644    87.3222    87.7253    85.4820    0.0242     9.7423     10.8846    10363.3096 0.5427     0.0036     0.4800     0.2869     0.2909     2.8030     2.8030     0.6077     0.4605     0.0000     0.0851     4508.7930  0.8473     0.8401     4140.6611  1.1000     54105.5195 9.0612     8.6961    
4888.0000  8.5000     4.9578     4.9578     5.1714     0.6088     -0.0969    46.4329    87.1992    87.5792    85.5645    0.0000     9.8272     10.8423    10172.7637 0.5409     0.0036     0.4800     0.2994     0.2994     2.8099     2.8099     0.6088     0.4348     0.0000     0.0825     4602.1323  0.8492     0.8492     4150.2031  1.1000     55225.5859 8.8644     8.8644    
4888.5000  8.5000     4.9892     4.9892     5.2019     0.6104     -0.0948    46.5446    86.8498    87.2733    85.2623    0.0000     9.4008     10.8634    10070.4531 0.5394     0.0036     0.4800     0.2959     0.2959     2.8065     2.8065     0.6104     0.4864     0.0000     0.0816     4555.8472  0.8438     0.8438     4124.2358  1.1000     54670.1641 8.9028     8.9028    
