~Version
 VERS              .         2.0                           : CWLS LOG ASCII STANDARD - VERSION 2.0
 WRAP              .         NO                            : ONE LINE PER DEPTH STEP
 DLM               .         SPACE                         : DELIMITING CHARACTER(SPACE TAB OR COMMA)
~Well Information
#_______________________________________________________________________________
#
#PARAMETER_NAME    .UNIT     VALUE                         : DESCRIPTION
#_______________________________________________________________________________
STRT               .ft       1049.0000                     : First reference value
STOP               .ft       5858.0000                     : Last reference value
STEP               .ft       0.5000                        : Step increment
NULL               .         -999.25                       : Missing value
COMP               .         PRAIRIE STATE GENERATING CO, LLC: Company
WELL               .         LIVELY GROVE #1               : Well name
FLD                .         N/A                           : Field
LOC                .                                       : Location
CNTY               .         WASHINGTON                    : County
STAT               .         ILLINOIS                      : State
CTRY               .         USA                           : Country
SRVC               .         Schlumberger                  : Service Company
DATE               .         13-Aug-2021                   : Date
UWI                .                                       : Unique Well ID
APD                .ft       16                            : Elevation of Depth Reference (LMF) Above Permanent Datum
API                .         12-189-24947-00               : 
BHS                .         OPEN                          : Borehole Status (Open or Cased Hole)
BHT                .degF     115                           : Bottom Hole Temperature
BLI                .ft       5888                          : Bottom Log Interval
BS                 .in       8.5                           : Bit Size
CBDR               .ft       1049                          : Casing Bottom of Driller
CBLO               .ft       1049                          : Logger Casing Shoe Depth
CSIZ               .in       9.625                         : Current Casing Size
CWEI               .lbm/ft   36                            : Casing Weight
DCS                .         11-Aug-2021                   : Date Circulation Stopped
DFD                .lbm/gal  9.35                          : Drilling Fluid Density
DFT                .         FRESH WBM                     : Drilling Fluid Type
DLAB               .         12-Aug-2021                   : Date Logger At Bottom
EDF                .ft       477                           : Elevation of Drill Floor
EGL                .ft       461                           : Elevation of Ground Level
EKB                .ft       477                           : Elevation of Kelly Bushing
EPD                .ft       461                           : Elevation of Permanent Datum (PDAT) above Mean Sea Level
LMF                .         KB                            : Logging Measured From (Name of Logging Elevation Reference)
LUL                .         BRADFORD, PA                  : Logging Unit Location
LUN                .         OSLC 2266                     : Logging Unit Number
LATI               .         38.352151 degrees             : Latitude
LONG               .         -89.644768 degrees            : Longitude
MCST               .degF     81.9                          : Mudcake Sample Temperature
MFST               .degF     81.9                          : Mud Filtrate Sample Temperature
MRT                .degF     115                           : Maximum Recorded Temperature
MST                .degF     81.9                          : Mud Sample Temperature
ORIGINALWELLNAME   .         LIVELY GROVE #1               : 
PDAT               .         GL                            : Permanent Datum
PRODUCER-CODE      .         440                           : 
PRODUCER-NAME      .         Schlumberger                  : 
RMB                .ohm.m    0.9233273                     : Resistivity of Mud at Bottom Hole Temperature
RMCS               .ohm.m    1.44                          : Resistivity of Mud Cake Sample
RMFS               .ohm.m    1.033                         : Resistivity of Mud Filtrate Sample
RMS                .ohm.m    1.268                         : Resistivity of Mud Sample
RUN                .         RUN 1D                        : Run Number
TCS                .         13_00_00                      : Time Circulation Stopped
TDD                .ft       5888.35                       : Driller Total Depth
TDL                .ft       5888.35                       : Logger Total Depth
TLAB               .         17_08_00                      : Time Logger At Bottom
TLI                .ft       1049                          : Top Log Interval
~Parameter Information Block
#_______________________________________________________________________________
#
#PARAMETER_NAME    .UNIT     VALUE                         : DESCRIPTION
#_______________________________________________________________________________
SET                .         0_PnS_Aniso                   : 
TLFamily_BS        .         Bit Size                      : 
TLFamily_DEVIM     .         Hole Deviation                : 
TLFamily_DPHZ      .         Density Porosity              : 
TLFamily_DTCO_MF_DDBHC .         Compressional Slowness        : 
TLFamily_DTCO_MF_R .         Compressional Slowness        : 
TLFamily_DTCO_MF_T .         Compressional Slowness        : 
TLFamily_DTSH_FAST_DDBHC .         Fast Shear Slowness           : 
TLFamily_DTSH_FAST_R .         Fast Shear Slowness           : 
TLFamily_DTSH_FAST_T .         Fast Shear Slowness           : 
TLFamily_DTSH_SLOW_DDBHC .         Slow Shear Slowness           : 
TLFamily_DTSH_SLOW_R .         Slow Shear Slowness           : 
TLFamily_DTSH_SLOW_T .         Slow Shear Slowness           : 
TLFamily_FSA_NAZ   .         Fast Shear Azimuth            : 
TLFamily_FSA_NAZ_ERR .         Fast Shear Azimuth            : 
TLFamily_FSA_NAZ_ERRMINUS .         Fast Shear Azimuth            : 
TLFamily_FSA_NAZ_ERRPLUS .         Fast Shear Azimuth            : 
TLFamily_FSA_NAZ_IN .         Fast Shear Azimuth            : 
TLFamily_GR_EDTC   .         Gamma Ray                     : 
TLFamily_HAZIM     .         Hole Azimuth                  : 
TLFamily_HDAR      .         Borehole Diameter             : 
TLFamily_MAXXENE_OVERALL .         Acoustic Energy               : 
TLFamily_MD        .         Measured Depth                : 
TLFamily_MINXENE_OVERALL .         Acoustic Energy               : 
TLFamily_P1NO_MAST .         Pad A North                   : 
TLFamily_PEFZ      .         Photoelectric Factor          : 
TLFamily_PR_FAST   .         Poisson Ratio (Dynamic)       : 
TLFamily_SDEVM     .         Sonde Deviation               : 
TLFamily_SENSOR_AZIM_QCI .         Sensor Azimuth                : 
TLFamily_SLOANI    .         Acoustic Anisotropy           : 
TLFamily_SPHI      .         Total Porosity                : 
TLFamily_TDIF_ALT_OVERALL .         Time Interval                 : 
TLFamily_TDIF_ORG_OVERALL .         Time Interval                 : 
TLFamily_TENS      .         Tension                       : 
TLFamily_TIMANI    .         Acoustic Anisotropy           : 
TLFamily_TNPH      .         Thermal Neutron Porosity      : 
TLFamily_TW_B_L6   .         Travel Time                   : 
TLFamily_TW_E_L6   .         Travel Time                   : 
TLFamily_VPVS_FAST .         VpVs (Compressional To Shear) Ratio: 
TLFamily_XENEDIF   .         Acoustic Energy               : 
~Curve Information
#_______________________________________________________________________________
#
#LOGNAME           .UNIT     LOG_ID                        : DESCRIPTION
#_______________________________________________________________________________
MD                 .ft                                     : Measured Depth
BS                 .in                                     : Bit Size 
DEVIM              .deg                                    : Memorized Deviation 
DPHZ               .ft3/ft3                                : Standard Resolution Density Porosity <_techsia_lb_>F11 
DTCO_MF_DDBHC      .us/ft                                  : Compressional slowness 
DTCO_MF_R          .us/ft                                  : Compressional slowness 
DTCO_MF_T          .us/ft                                  : Compressional slowness 
DTSH_FAST_DDBHC    .us/ft                                  : Shear slowness 
DTSH_FAST_R        .us/ft                                  : Shear slowness 
DTSH_FAST_T        .us/ft                                  : Shear slowness 
DTSH_SLOW_DDBHC    .us/ft                                  : Shear slowness 
DTSH_SLOW_R        .us/ft                                  : Shear slowness 
DTSH_SLOW_T        .us/ft                                  : Shear slowness 
FSA_NAZ            .deg                                    : Fast shear azimuth(NAZ REF90) - overall - swapped 
FSA_NAZ_ERR        .deg                                    : Fast shear azimuth error, reference frame NAZ 
FSA_NAZ_ERRMINUS   .deg                                    : Fast shear azimuth error minus(NAZ REF90) - swapped 
FSA_NAZ_ERRPLUS    .deg                                    : Fast shear azimuth error plus(NAZ REF90) - swapped 
FSA_NAZ_IN         .deg                                    : Fast Shear Azimuth Indicator 
GR_EDTC            .gAPI                                   : Gamma Ray 
HAZIM              .deg                                    : Memorized Hole Azimuth 
HDAR               .in                                     : Hole Diameter from Area 
MAXXENE_OVERALL    .unitless                               : Maximum cross energy - overall 
MINXENE_OVERALL    .unitless                               : Minimum cross energy - overall 
P1NO_MAST          .deg                                    : Pad 1 Azimuth in Plane Orthogonal to Tool Axis (0 = True North), memorized to MAST 
PEFZ               .                                       : Standard Resolution Formation Photoelectric Factor <_techsia_lb_>F11 
PR_FAST            .unitless                               : Possion's Ratio 
SDEVM              .deg                                    : Memorized Sonde Deviation 
SENSOR_AZIM_QCI    .deg                                    : Tool azimuth for input QC 
SLOANI             .%                                      : Slowness-Based Anisotropy 
SPHI               .ft3/ft3                                : Total porosity from Sonic 
TDIF_ALT_OVERALL   .s                                      : Arrival time difference between fast and slow waves(alternate) - overall - swapped 
TDIF_ORG_OVERALL   .s                                      : Arrival time difference between fast and slow waves(original) - overall - swapped 
TENS               .lbf                                    : Cable Tension 
TIMANI             .%                                      : Time-Based Anisotropy 
TNPH               .ft3/ft3                                : Thermal Neutron Porosity (Ratio Method) in Selected Lithology <_techsia_lb_>F11 
TW_B_L6            .us                                     : Time window begin - packed 
TW_E_L6            .us                                     : Time window end - packed 
VPVS_FAST          .unitless                               : VpVs Ratio 
XENEDIF            .unitless                               : Energy-Based Anisotropy 
~Ascii
# ...
3604.5000  8.5000     0.8764     0.0998     65.6418    67.3451    63.9386    107.9612   108.2934   107.6290   114.3632   114.9124   113.8140   90.0351    2.5520     87.4831    92.5871    90.0351    8.4674     273.3651   9.1204     0.1549     0.0109     66.4499    1.7058     0.2068     0.8764     66.9825    5.7592     0.1282     -0.0004    0.0000     2484.3679  2.2946     0.0964     1983.0314  4983.0312  1.6447     14.3944   
3605.0000  8.5000     0.8766     0.0998     65.3392    66.4217    64.2566    108.0348   107.6492   108.4203   113.7343   114.2682   113.2004   89.8049    2.7321     87.0728    92.5370    89.8049    7.8434     273.4470   9.0370     0.1519     0.0110     66.0792    1.7110     0.2116     0.8766     66.7362    5.1401     0.1261     -0.0004    0.0000     2477.0181  2.2655     0.0986     1977.2295  4977.2295  1.6534     14.0896   
3605.5000  8.5000     0.8774     0.0999     65.2547    65.9054    64.6040    107.6755   106.8048   108.5463   112.2904   112.6292   111.9517   89.6769    2.7781     86.8989    92.4550    89.6769    7.6193     273.5302   8.9803     0.1497     0.0110     65.6608    1.7284     0.2098     0.8774     66.4701    4.1960     0.1255     -0.0004    0.0000     2509.9500  2.2500     0.1020     1971.8022  4971.8022  1.6501     13.8740   
3606.0000  8.5000     0.8786     0.1037     65.3997    65.5620    65.2374    107.3915   106.2103   108.5727   111.4245   110.6456   112.2033   89.3751    2.7213     86.6538    92.0964    89.3751    8.2055     273.5759   8.9444     0.1496     0.0110     65.1787    1.7341     0.2053     0.8786     66.2701    3.6861     0.1265     -0.0004    0.0000     2507.0750  2.2530     0.0988     1966.9547  4966.9546  1.6421     13.8586   
3606.5000  8.5000     0.8803     0.1091     65.7835    65.5721    65.9949    107.9440   106.9022   108.9859   112.0520   109.9516   114.1524   89.4095    2.7316     86.6779    92.1411    89.4095    8.8077     273.6065   8.9000     0.1495     0.0110     64.6338    1.7162     0.2046     0.8803     66.2996    3.7346     0.1292     -0.0004    0.0000     2486.6001  2.2483     0.1014     1963.5209  4963.5210  1.6409     13.8539   
3607.0000  8.5000     0.8829     0.1188     65.8405    65.7267    65.9544    107.8258   107.0872   108.5644   113.1016   111.4911   114.7121   89.2756    2.7297     86.5458    92.0053    89.2756    8.5794     273.6137   8.8835     0.1495     0.0106     64.2798    1.7001     0.2027     0.8829     66.3500    4.7760     0.1296     -0.0004    0.0000     2502.8501  2.2450     0.1004     1960.9631  4960.9629  1.6377     13.8909   
3607.5000  8.5000     0.8855     0.1258     66.3180    66.1724    66.4636    107.5406   106.4852   108.5961   112.4657   110.4169   114.5145   89.0436    2.6237     86.4199    91.6673    89.0436    8.2910     273.6025   8.8822     0.1504     0.0102     63.9116    1.7072     0.1932     0.8855     66.4788    4.4772     0.1330     -0.0004    0.0000     2523.1499  2.2570     0.1077     1959.1656  4959.1660  1.6216     14.0166   
3608.0000  8.5000     0.8881     0.1297     66.9198    66.8559    66.9837    107.7417   106.1839   109.2996   111.7215   109.4328   114.0102   88.7784    2.4221     86.3562    91.2005    88.7784    7.7164     273.5862   8.9004     0.1513     0.0098     63.3976    1.7184     0.1860     0.8881     66.8671    3.6268     0.1372     -0.0004    0.0000     2503.5251  2.2715     0.1058     1958.3909  4958.3911  1.6100     14.1439   
3608.5000  8.5000     0.8915     0.1280     67.0339    66.9604    67.1074    108.7204   106.1606   111.2803   112.6004   110.2044   114.9964   88.7797    2.3544     86.4254    91.1341    88.7797    8.0243     273.5569   8.9258     0.1513     0.0094     63.0293    1.7315     0.1933     0.8915     67.0412    3.5062     0.1380     -0.0004    0.0000     2482.0000  2.2733     0.1078     1958.3640  4958.3643  1.6219     14.1932   
3609.0000  8.5000     0.8942     0.1248     67.0836    66.8634    67.3037    109.4726   106.1606   112.7847   113.7422   111.2108   116.2736   88.6940    2.2657     86.4284    90.9597    88.6940    8.2757     273.5293   8.9353     0.1517     0.0089     62.4985    1.7280     0.1993     0.8942     67.0588    3.8256     0.1384     -0.0004    0.0000     2507.2251  2.2752     0.1069     1958.2388  4958.2388  1.6319     14.2833   
3609.5000  8.5000     0.8966     0.1180     67.0638    66.7427    67.3848    109.8267   106.9552   112.6982   114.5939   112.5266   116.6613   88.3708    2.0194     86.3514    90.3902    88.3708    8.8351     273.4965   8.9114     0.1528     0.0085     61.9322    1.7312     0.2027     0.8966     66.8292    4.2485     0.1383     -0.0004    0.0000     2496.1250  2.2811     0.1035     1956.6091  4956.6089  1.6376     14.4350   
3610.0000  8.5000     0.8988     0.1030     67.1825    66.6652    67.6998    111.6164   109.9335   113.2994   116.4950   114.9051   118.0849   88.6133    1.8797     86.7336    90.4929    88.6133    9.4258     273.4563   8.8978     0.1552     0.0081     61.3212    1.7424     0.2159     0.8988     66.7958    4.2774     0.1391     -0.0004    0.0000     2479.7002  2.3101     0.1017     1953.7943  4953.7944  1.6614     14.7046   
3610.5000  8.5000     0.9012     0.0949     67.3493    66.8431    67.8555    113.6760   111.3550   115.9971   118.7745   116.5266   121.0224   88.8423    1.7662     87.0760    90.6085    88.8423    8.9847     273.3968   8.8881     0.1583     0.0080     60.5668    1.7538     0.2296     0.9012     66.6844    4.3867     0.1403     -0.0004    0.0000     2505.5249  2.3595     0.1029     1951.0022  4951.0024  1.6879     15.0312   
3611.0000  8.5000     0.9030     0.0993     67.7459    67.0957    68.3960    115.2957   112.2562   118.3352   120.8421   117.5141   124.1701   88.9876    1.7592     87.2284    90.7468    88.9876    8.6532     273.3306   8.8983     0.1606     0.0079     60.1488    1.7573     0.2363     0.9030     66.6959    4.6976     0.1431     -0.0004    0.0000     2496.7500  2.4049     0.1109     1949.5663  4949.5664  1.7019     15.2706   
3611.5000  8.5000     0.9047     0.1180     68.4374    67.5501    69.3246    116.6278   114.2438   119.0118   121.1671   119.6651   122.6690   89.1169    1.7486     87.3682    90.8655    89.1169    8.5356     273.2563   8.9179     0.1625     0.0077     59.3094    1.7502     0.2374     0.9047     66.6865    3.8178     0.1480     -0.0004    0.0000     2499.2817  2.4458     0.1177     1949.7114  4949.7114  1.7042     15.4752   
3612.0000  8.5000     0.9064     0.1306     69.0903    68.2938    69.8869    117.0071   117.8785   116.1357   122.3396   123.2992   121.3800   89.1998    1.7278     87.4720    90.9276    89.1998    8.7927     273.1583   8.8548     0.1635     0.0075     58.5820    1.7320     0.2323     0.9064     66.4499    4.4559     0.1526     -0.0004    0.0000     2536.7744  2.4763     0.1242     1950.7180  4950.7183  1.6935     15.6007   
3612.5000  8.5000     0.9077     0.1320     69.3049    68.8699    69.7399    116.9188   122.0792   111.7584   123.8852   126.7520   121.0185   89.4120    1.7046     87.7074    91.1166    89.4120    8.3059     273.0895   8.7862     0.1639     0.0074     57.9174    1.7087     0.2292     0.9077     66.0792    5.7860     0.1541     -0.0004    0.0001     2546.5928  2.4954     0.1221     1951.9948  4951.9946  1.6870     15.6533   
3613.0000  8.5000     0.9089     0.1302     69.1411    69.4131    68.8692    117.3302   123.9939   110.6664   124.5778   128.0769   121.0787   89.4670    1.7192     87.7478    91.1862    89.4670    8.4067     273.0242   8.7798     0.1659     0.0073     57.1190    1.6888     0.2340     0.9089     65.6608    5.9921     0.1529     -0.0004    0.0001     2521.1748  2.5217     0.1230     1953.0262  4953.0259  1.6970     15.8588   
3613.5000  8.5000     0.9100     0.1273     68.8408    69.5555    68.1261    118.1900   123.4166   112.9633   123.9308   126.9186   120.9430   89.6065    1.7988     87.8077    91.4053    89.6065    8.4869     272.9740   8.7858     0.1686     0.0074     56.2815    1.6925     0.2433     0.9100     65.1787    4.7421     0.1508     -0.0004    0.0001     2503.4250  2.5537     0.1216     1954.1069  4954.1069  1.7169     16.1156   
