~Version
 VERS              .         2.0                           : CWLS LOG ASCII STANDARD - VERSION 2.0
 WRAP              .         NO                            : ONE LINE PER DEPTH STEP
 DLM               .         SPACE                         : DELIMITING CHARACTER(SPACE TAB OR COMMA)
~Well Information
#_______________________________________________________________________________
#
#PARAMETER_NAME    .UNIT     VALUE                         : DESCRIPTION
#_______________________________________________________________________________
STRT               .ft       1049.0000                     : First reference value
STOP               .ft       5858.0000                     : Last reference value
STEP               .ft       0.5000                        : Step increment
NULL               .         -999.25                       : Missing value
COMP               .         PRAIRIE STATE GENERATING CO, LLC: Company
WELL               .         LIVELY GROVE #1               : Well name
FLD                .         N/A                           : Field
LOC                .                                       : Location
CNTY               .         WASHINGTON                    : County
STAT               .         ILLINOIS                      : State
CTRY               .         USA                           : Country
SRVC               .         Schlumberger                  : Service Company
DATE               .         13-Aug-2021                   : Date
UWI                .                                       : Unique Well ID
APD                .ft       16                            : Elevation of Depth Reference (LMF) Above Permanent Datum
API                .         12-189-24947-00               : 
BHS                .         OPEN                          : Borehole Status (Open or Cased Hole)
BHT                .degF     115                           : Bottom Hole Temperature
BLI                .ft       5888                          : Bottom Log Interval
BS                 .in       8.5                           : Bit Size
CBDR               .ft       1049                          : Casing Bottom of Driller
CBLO               .ft       1049                          : Logger Casing Shoe Depth
CSIZ               .in       9.625                         : Current Casing Size
CWEI               .lbm/ft   36                            : Casing Weight
DCS                .         11-Aug-2021                   : Date Circulation Stopped
DFD                .lbm/gal  9.35                          : Drilling Fluid Density
DFT                .         FRESH WBM                     : Drilling Fluid Type
DLAB               .         12-Aug-2021                   : Date Logger At Bottom
EDF                .ft       477                           : Elevation of Drill Floor
EGL                .ft       461                           : Elevation of Ground Level
EKB                .ft       477                           : Elevation of Kelly Bushing
EPD                .ft       461                           : Elevation of Permanent Datum (PDAT) above Mean Sea Level
LMF                .         KB                            : Logging Measured From (Name of Logging Elevation Reference)
LUL                .         BRADFORD, PA                  : Logging Unit Location
LUN                .         OSLC 2266                     : Logging Unit Number
LATI               .         38.352151 degrees             : Latitude
LONG               .         -89.644768 degrees            : Longitude
MCST               .degF     81.9                          : Mudcake Sample Temperature
MFST               .degF     81.9                          : Mud Filtrate Sample Temperature
MRT                .degF     115                           : Maximum Recorded Temperature
MST                .degF     81.9                          : Mud Sample Temperature
ORIGINALWELLNAME   .         LIVELY GROVE #1               : 
PDAT               .         GL                            : Permanent Datum
PRODUCER-CODE      .         440                           : 
PRODUCER-NAME      .         Schlumberger                  : 
RMB                .ohm.m    0.9233273                     : Resistivity of Mud at Bottom Hole Temperature
RMCS               .ohm.m    1.44                          : Resistivity of Mud Cake Sample
RMFS               .ohm.m    1.033                         : Resistivity of Mud Filtrate Sample
RMS                .ohm.m    1.268                         : Resistivity of Mud Sample
RUN                .         RUN 1D                        : Run Number
TCS                .         13_00_00                      : Time Circulation Stopped
TDD                .ft       5888.35                       : Driller Total Depth
TDL                .ft       5888.35                       : Logger Total Depth
TLAB               .         17_08_00                      : Time Logger At Bottom
TLI                .ft       1049                          : Top Log Interval
~Parameter Information Block
#_______________________________________________________________________________
#
#PARAMETER_NAME    .UNIT     VALUE                         : DESCRIPTION
#_______________________________________________________________________________
SET                .         0_PnS_Aniso                   : 
TLFamily_BS        .         Bit Size                      : 
TLFamily_DEVIM     .         Hole Deviation                : 
TLFamily_DPHZ      .         Density Porosity              : 
TLFamily_DTCO_MF_DDBHC .         Compressional Slowness        : 
TLFamily_DTCO_MF_R .         Compressional Slowness        : 
TLFamily_DTCO_MF_T .         Compressional Slowness        : 
TLFamily_DTSH_FAST_DDBHC .         Fast Shear Slowness           : 
TLFamily_DTSH_FAST_R .         Fast Shear Slowness           : 
TLFamily_DTSH_FAST_T .         Fast Shear Slowness           : 
TLFamily_DTSH_SLOW_DDBHC .         Slow Shear Slowness           : 
TLFamily_DTSH_SLOW_R .         Slow Shear Slowness           : 
TLFamily_DTSH_SLOW_T .         Slow Shear Slowness           : 
TLFamily_FSA_NAZ   .         Fast Shear Azimuth            : 
TLFamily_FSA_NAZ_ERR .         Fast Shear Azimuth            : 
TLFamily_FSA_NAZ_ERRMINUS .         Fast Shear Azimuth            : 
TLFamily_FSA_NAZ_ERRPLUS .         Fast Shear Azimuth            : 
TLFamily_FSA_NAZ_IN .         Fast Shear Azimuth            : 
TLFamily_GR_EDTC   .         Gamma Ray                     : 
TLFamily_HAZIM     .         Hole Azimuth                  : 
TLFamily_HDAR      .         Borehole Diameter             : 
TLFamily_MAXXENE_OVERALL .         Acoustic Energy               : 
TLFamily_MD        .         Measured Depth                : 
TLFamily_MINXENE_OVERALL .         Acoustic Energy               : 
TLFamily_P1NO_MAST .         Pad A North                   : 
TLFamily_PEFZ      .         Photoelectric Factor          : 
TLFamily_PR_FAST   .         Poisson Ratio (Dynamic)       : 
TLFamily_SDEVM     .         Sonde Deviation               : 
TLFamily_SENSOR_AZIM_QCI .         Sensor Azimuth                : 
TLFamily_SLOANI    .         Acoustic Anisotropy           : 
TLFamily_SPHI      .         Total Porosity                : 
TLFamily_TDIF_ALT_OVERALL .         Time Interval                 : 
TLFamily_TDIF_ORG_OVERALL .         Time Interval                 : 
TLFamily_TENS      .         Tension                       : 
TLFamily_TIMANI    .         Acoustic Anisotropy           : 
TLFamily_TNPH      .         Thermal Neutron Porosity      : 
TLFamily_TW_B_L6   .         Travel Time                   : 
TLFamily_TW_E_L6   .         Travel Time                   : 
TLFamily_VPVS_FAST .         VpVs (Compressional To Shear) Ratio: 
TLFamily_XENEDIF   .         Acoustic Energy               : 
~Curve Information
#_______________________________________________________________________________
#
#LOGNAME           .UNIT     LOG_ID                        : DESCRIPTION
#_______________________________________________________________________________
MD                 .ft                                     : Measured Depth
BS                 .in                                     : Bit Size 
DEVIM              .deg                                    : Memorized Deviation 
DPHZ               .ft3/ft3                                : Standard Resolution Density Porosity <_techsia_lb_>F11 
DTCO_MF_DDBHC      .us/ft                                  : Compressional slowness 
DTCO_MF_R          .us/ft                                  : Compressional slowness 
DTCO_MF_T          .us/ft                                  : Compressional slowness 
DTSH_FAST_DDBHC    .us/ft                                  : Shear slowness 
DTSH_FAST_R        .us/ft                                  : Shear slowness 
DTSH_FAST_T        .us/ft                                  : Shear slowness 
DTSH_SLOW_DDBHC    .us/ft                                  : Shear slowness 
DTSH_SLOW_R        .us/ft                                  : Shear slowness 
DTSH_SLOW_T        .us/ft                                  : Shear slowness 
FSA_NAZ            .deg                                    : Fast shear azimuth(NAZ REF90) - overall - swapped 
FSA_NAZ_ERR        .deg                                    : Fast shear azimuth error, reference frame NAZ 
FSA_NAZ_ERRMINUS   .deg                                    : Fast shear azimuth error minus(NAZ REF90) - swapped 
FSA_NAZ_ERRPLUS    .deg                                    : Fast shear azimuth error plus(NAZ REF90) - swapped 
FSA_NAZ_IN         .deg                                    : Fast Shear Azimuth Indicator 
GR_EDTC            .gAPI                                   : Gamma Ray 
HAZIM              .deg                                    : Memorized Hole Azimuth 
HDAR               .in                                     : Hole Diameter from Area 
MAXXENE_OVERALL    .unitless                               : Maximum cross energy - overall 
MINXENE_OVERALL    .unitless                               : Minimum cross energy - overall 
P1NO_MAST          .deg                                    : Pad 1 Azimuth in Plane Orthogonal to Tool Axis (0 = True North), memorized to MAST 
PEFZ               .                                       : Standard Resolution Formation Photoelectric Factor <_techsia_lb_>F11 
PR_FAST            .unitless                               : Possion's Ratio 
SDEVM              .deg                                    : Memorized Sonde Deviation 
SENSOR_AZIM_QCI    .deg                                    : Tool azimuth for input QC 
SLOANI             .%                                      : Slowness-Based Anisotropy 
SPHI               .ft3/ft3                                : Total porosity from Sonic 
TDIF_ALT_OVERALL   .s                                      : Arrival time difference between fast and slow waves(alternate) - overall - swapped 
TDIF_ORG_OVERALL   .s                                      : Arrival time difference between fast and slow waves(original) - overall - swapped 
TENS               .lbf                                    : Cable Tension 
TIMANI             .%                                      : Time-Based Anisotropy 
TNPH               .ft3/ft3                                : Thermal Neutron Porosity (Ratio Method) in Selected Lithology <_techsia_lb_>F11 
TW_B_L6            .us                                     : Time window begin - packed 
TW_E_L6            .us                                     : Time window end - packed 
VPVS_FAST          .unitless                               : VpVs Ratio 
XENEDIF            .unitless                               : Energy-Based Anisotropy 
~Ascii
# ...
4250.5000  8.5000     0.1503     -0.0661    48.2329    48.2982    48.1675    90.6893    91.4157    89.9628    91.1034    91.8031    90.4037    92.0723    14.9778    77.0945    107.0501   -999.2500  49.1420    330.2493   8.7427     0.0208     0.0139     58.0831    3.1292     0.3028     0.1503     62.1505    0.4557     0.0052     -0.0004    0.0000     2624.5500  0.7549     0.1148     1617.1630  4617.1626  1.8802     0.6890    
4251.0000  8.5000     0.1490     -0.0480    48.9481    48.8926    49.0037    90.0688    90.5423    89.5953    90.9995    91.9012    90.0979    91.7203    15.4242    76.2961    107.1445   -999.2500  57.4708    330.1806   8.7408     0.0205     0.0143     57.9160    3.2781     0.2904     0.1490     61.8485    1.0280     0.0102     -0.0004    0.0000     2613.1750  0.7585     0.1278     1617.2609  4617.2607  1.8401     0.6199    
4251.5000  8.5000     0.1478     -0.0352    49.9065    49.4421    50.3709    88.4177    88.5001    88.3352    89.8629    90.8851    88.8406    90.0941    15.9573    74.1369    106.0513   -999.2500  62.8128    330.0316   8.8034     0.0202     0.0146     57.7001    3.4222     0.2662     0.1478     61.5398    1.6213     0.0170     -0.0004    0.0000     2614.0684  0.7589     0.1354     1616.6581  4616.6582  1.7717     0.5603    
4252.0000  8.5000     0.1465     -0.0584    50.3013    49.3727    51.2299    87.0798    86.3904    87.7691    88.6809    89.2122    88.1495    87.3716    16.0851    71.2864    103.4567   -999.2500  70.8407    329.7695   8.7521     0.0206     0.0149     57.2289    3.5235     0.2496     0.1465     61.1550    1.8219     0.0198     -0.0004    0.0000     2610.5500  0.7728     0.1426     1616.0764  4616.0762  1.7312     0.5652    
4252.5000  8.5000     0.1447     -0.0898    50.0581    48.6370    51.4792    87.1529    86.0726    88.2332    88.6353    88.7749    88.4956    86.0343    15.0549    70.9795    101.0892   -999.2500  71.8626    329.2421   8.7132     0.0215     0.0149     56.6138    3.5562     0.2538     0.1447     60.7784    1.6866     0.0181     -0.0004    0.0000     2602.3501  0.8034     0.1324     1616.6865  4616.6865  1.7410     0.6613    
4253.0000  8.5000     0.1423     -0.1026    49.6605    48.8751    50.4460    89.8362    90.4538    89.2186    90.6384    91.7430    89.5337    85.4519    14.6715    70.7804    100.1233   -999.2500  56.2063    328.2624   8.7390     0.0219     0.0147     55.7891    3.5079     0.2800     0.1423     60.1607    0.8890     0.0153     -0.0004    0.0000     2597.8667  0.8170     0.1281     1618.1760  4618.1763  1.8090     0.7166    
4253.5000  8.5000     0.1393     -0.0869    49.6044    49.9001    49.3087    91.7880    94.2185    89.3575    92.0016    94.2510    89.7522    85.2568    13.9188    71.3381    99.1756    -999.2500  38.9525    327.0110   8.7130     0.0219     0.0143     54.8705    3.4040     0.2937     0.1393     59.5315    0.2325     0.0149     -0.0004    0.0000     2599.8252  0.8319     0.1232     1617.9431  4617.9429  1.8504     0.7673    
4254.0000  8.5000     0.1368     -0.0693    49.0222    49.8480    48.1965    89.7382    91.8687    87.6077    90.4516    92.8415    88.0617    84.6501    13.5479    71.1022    98.1979    -999.2500  36.0735    325.8314   8.7225     0.0221     0.0140     53.9104    3.3734     0.2873     0.1368     59.1017    0.7919     0.0108     -0.0004    0.0000     2582.5667  0.8410     0.1210     1619.3146  4619.3145  1.8306     0.8035    
4254.5000  8.5000     0.1340     -0.0759    48.8054    49.5589    48.0520    88.4551    88.7473    88.1628    88.6878    88.7474    88.6281    84.5119    13.2226    71.2892    97.7345    -999.2500  38.5335    324.5435   8.7765     0.0222     0.0142     52.7730    3.3187     0.2812     0.1340     58.8827    0.2627     0.0092     -0.0004    0.0000     2582.8000  0.8483     0.1166     1620.6401  4620.6401  1.8124     0.7975    
4255.0000  8.5000     0.1309     -0.0876    48.1862    48.7909    47.5814    89.5057    89.3637    89.6477    90.2545    90.5204    89.9885    83.8765    13.1379    70.7386    97.0144    -999.2500  32.1330    323.0744   8.7663     0.0226     0.0143     52.1627    3.2877     0.2959     0.1309     58.6418    0.8331     0.0048     -0.0004    0.0000     2588.4875  0.8502     0.1056     1621.1449  4621.1445  1.8575     0.8305    
4255.5000  8.5000     0.1278     -0.0993    48.1043    48.6960    47.5125    89.3107    88.5699    90.0514    89.8817    89.4531    90.3103    83.3043    13.3824    69.9219    96.6867    -999.2500  25.1889    321.5030   8.7705     0.0224     0.0143     51.6780    3.2114     0.2957     0.1278     58.4024    0.6374     0.0043     -0.0004    0.0000     2588.1499  0.8285     0.1037     1620.9652  4620.9653  1.8566     0.8123    
4256.0000  8.5000     0.1245     -0.0931    49.3218    49.7795    48.8641    89.7926    88.4451    91.1401    90.4202    89.5436    91.2968    82.4049    13.3441    69.0608    95.7490    -999.2500  29.9201    319.5075   8.7573     0.0218     0.0141     51.1313    3.1530     0.2840     0.1245     58.0223    0.6965     0.0129     -0.0004    0.0000     2611.2168  0.7976     0.1024     1620.1180  4620.1177  1.8205     0.7710    
4256.5000  8.5000     0.1210     -0.0882    50.6114    50.9265    50.2963    92.3425    91.6447    93.0404    93.0979    92.7163    93.4795    80.5363    13.2588    67.2776    93.7951    -999.2500  38.4954    317.4308   8.7405     0.0221     0.0139     50.5789    3.1098     0.2853     0.1210     57.4572    0.8147     0.0220     -0.0004    0.0000     2604.9126  0.7737     0.1090     1620.0419  4620.0415  1.8245     0.8253    
4257.0000  8.5000     0.1180     -0.0848    51.7243    51.8941    51.5544    92.1065    92.6756    91.5375    92.8990    93.6646    92.1335    78.6061    13.9662    64.6398    92.5723    -999.2500  55.9156    315.6784   8.7141     0.0217     0.0140     49.9614    3.0950     0.2697     0.1180     56.7390    0.8568     0.0299     -0.0004    0.0000     2598.4500  0.6961     0.1120     1623.2980  4623.2979  1.7807     0.7785    
4257.5000  8.5000     0.1149     -0.0711    52.4227    52.9089    51.9364    90.7523    91.8579    89.6467    91.4245    92.2476    90.6015    76.9617    13.5692    63.3925    90.5309    -999.2500  70.6259    313.9504   8.7234     0.0215     0.0137     49.0896    3.1328     0.2496     0.1149     55.9795    0.7380     0.0348     -0.0004    0.0000     2618.1499  0.6203     0.1186     1627.9691  4627.9697  1.7312     0.7810    
4258.0000  8.5000     0.1125     -0.0647    52.0068    53.1455    50.8680    90.2595    90.6826    89.8363    90.5096    91.1234    89.8958    75.6474    13.3635    62.2839    89.0108    -999.2500  65.7358    312.4136   8.7210     0.0214     0.0134     48.7014    3.1151     0.2515     0.1125     55.3025    0.2768     0.0318     -0.0004    0.0000     2636.5500  0.5787     0.1165     1628.7448  4628.7446  1.7355     0.7915    
4258.5000  8.5000     0.1108     -0.0613    51.0917    51.9661    50.2173    90.3164    90.0281    90.6047    90.4285    90.1824    90.6746    74.5663    13.5965    60.9698    88.1628    -999.2500  56.5479    311.2060   8.7210     0.0210     0.0132     48.2780    3.1016     0.2647     0.1108     54.8552    0.1241     0.0254     -0.0004    0.0000     2638.2590  0.5393     0.1089     1629.1750  4629.1753  1.7677     0.7738    
4259.0000  8.5000     0.1101     -0.0724    49.9747    50.6209    49.3285    90.3792    89.7062    91.0523    90.7584    90.0411    91.4757    74.3510    13.7448    60.6062    88.0957    -999.2500  45.1320    310.6773   8.7203     0.0204     0.0131     48.0869    3.0544     0.2798     0.1101     54.6694    0.4187     0.0175     -0.0004    0.0000     2634.7000  0.4980     0.1020     1629.6879  4629.6880  1.8085     0.7313    
4259.5000  8.5000     0.1083     -0.0702    49.4073    49.5643    49.2503    90.5098    89.7914    91.2283    91.3155    90.6969    91.9340    74.2109    14.0403    60.1706    88.2512    -999.2500  38.6426    309.3539   8.7099     0.0198     0.0131     47.6022    3.0612     0.2878     0.1083     54.1678    0.8862     0.0135     -0.0004    0.0000     2626.9456  0.4655     0.0918     1630.3824  4630.3823  1.8319     0.6744    
