~Version
 VERS              .         2.0                           : CWLS LOG ASCII STANDARD - VERSION 2.0
 WRAP              .         NO                            : ONE LINE PER DEPTH STEP
 DLM               .         SPACE                         : DELIMITING CHARACTER(SPACE TAB OR COMMA)
~Well Information
#_______________________________________________________________________________
#
#PARAMETER_NAME    .UNIT     VALUE                         : DESCRIPTION
#_______________________________________________________________________________
STRT               .ft       4040.0000                     : First reference value
STOP               .ft       7050.0000                     : Last reference value
STEP               .ft       0.5000                        : Step increment
NULL               .         -999.25                       : Missing value
COMP               .         One Earth Energy              : Company
WELL               .         OEE #1                        : Well name
FLD                .         OEE                           : Field
LOC                .                                       : Location
PROV               .         Illinois                      : Province
SRVC               .         Schlumberger                  : Service Company
DATE               .         26-Dec-2021                   : Date
UWI                .         12-113-25373-00               : Unique Well ID
APD                .ft       15                            : Elevation of Depth Reference (LMF) Above Permanent Datum
API                .         12-113-25373-00               : API NUMBER
BHS                .         OPEN                          : Borehole Status (Open or Cased Hole)
BHT                .degF     93.71                         : Bottom Hole Temperature
BLI                .ft       4052                          : Bottom Log Interval
BS                 .in       12.25                         : Bit Size
CBDR               .ft       374                           : Casing Bottom of Driller
CBLO               .ft       374                           : Logger Casing Shoe Depth
CNTY               .         McLean                        : COUNTY
CSIZ               .in       13.375                        : Current Casing Size
CWEI               .lbm/ft   54.5                          : Casing Weight
CTRY               .         United States of America - US : Nation
DCS                .         23-Dec-2021                   : Date Circulation Stopped
DFD                .lbm/gal  9.25                          : Drilling Fluid Density
DFT                .         WATER                         : Drilling Fluid Type
DLAB               .         26-Dec-2021                   : Date Logger At Bottom
EDF                .ft       840.0001                      : Elevation of Drill Floor
EGL                .ft       826                           : Elevation of Ground Level
EKB                .ft       841                           : Elevation of Kelly Bushing
EPD                .ft       826                           : Elevation of Permanent Datum (PDAT) above Mean Sea Level
GDAT               .                                       : GeoDetic Datum
LMF                .         KB                            : Logging Measured From (Name of Logging Elevation Reference)
LUL                .         Bradford                      : Logging Unit Location
LUN                .         2266                          : Logging Unit Number
LATI               .         40.485663 degrees             : Latitude
LONG               .         -88.468241 degrees            : Longitude
MCST               .degF     67.9                          : Mudcake Sample Temperature
MFST               .degF     66.3                          : Mud Filtrate Sample Temperature
MRT                .degF     93.71                         : Maximum Recorded Temperature
MST                .degF     65.4                          : Mud Sample Temperature
ORIGINALWELLNAME   .         OEE #1                        : 
PDAT               .         GL                            : Permanent Datum
PRODUCER-CODE      .         440                           : 
PRODUCER-NAME      .         Schlumberger                  : 
RMB                .ohm.m    3.533802                      : Resistivity of Mud at Bottom Hole Temperature
RMCS               .ohm.m    6.12                          : Resistivity of Mud Cake Sample
RMFS               .ohm.m    3.85                          : Resistivity of Mud Filtrate Sample
RMS                .ohm.m    4.92                          : Resistivity of Mud Sample
RUN                .         1C                            : Run Number
STAT               .         Illinois                      : State or Province
TCS                .         23_45_00                      : Time Circulation Stopped
TDD                .ft       4052                          : Driller Total Depth
TDL                .ft       4052                          : Logger Total Depth
TLAB               .         02_57_00                      : Time Logger At Bottom
TLI                .ft       379                           : Top Log Interval
~Parameter Information Block
#_______________________________________________________________________________
#
#PARAMETER_NAME    .UNIT     VALUE                         : DESCRIPTION
#_______________________________________________________________________________
SET                .         LQC_MP_043_Deliverables       : 
TLFamily_AT10      .         Resistivity - Induction Array 10: 
TLFamily_AT20      .         Resistivity - Induction Array 20: 
TLFamily_AT30      .         Resistivity - Induction Array 30: 
TLFamily_AT60      .         Resistivity - Induction Array 60: 
TLFamily_AT90      .         Resistivity - Induction Array 90: 
TLFamily_BS        .         Bit Size                      : 
TLFamily_C44       .         Elastic Modulus               : 
TLFamily_C55       .         Elastic Modulus               : 
TLFamily_C66       .         Elastic Modulus               : 
TLFamily_DTCO_MF_DDBHC .         Compressional Slowness        : 
TLFamily_DTSH_FAST .         Fast Shear Slowness           : 
TLFamily_DTSH_SLOW .         Slow Shear Slowness           : 
TLFamily_DTSH_STRVP .         Stoneley Shear Slowness       : 
TLFamily_GAMMA     .         Regularization Factor         : 
TLFamily_GR_EDTC   .         Gamma Ray                     : 
TLFamily_HCAL      .         Caliper                       : 
TLFamily_ISHE      .         Shear Strength                : 
TLFamily_MD        .         Measured Depth                : 
TLFamily_PPGI_MP_TD .         Pore Pressure Gradient        : 
TLFamily_PPGI_PorePressure .         Pore Pressure Gradient        : 
TLFamily_PR_HH     .         Poisson Ratio (Dynamic)       : 
TLFamily_PR_VH     .         Poisson Ratio (Dynamic)       : 
TLFamily_RHOZ      .         Bulk Density                  : 
TLFamily_SDEVM     .         Sonde Deviation               : 
TLFamily_SLOANI    .         Acoustic Anisotropy           : 
TLFamily_SPHI      .         Total Porosity                : 
TLFamily_TENS      .         Tension                       : 
TLFamily_TNPH      .         Thermal Neutron Porosity      : 
TLFamily_TSTR      .         Tensile Strength              : 
TLFamily_TXSG_ANISO .         Minimum Horizontal Stress Gradient: 
TLFamily_TXSG_ISO  .         Minimum Horizontal Stress Gradient: 
TLFamily_TXSP_ANISO .         Minimum Horizontal Stress     : 
TLFamily_TZSG      .         Vertical Stress Gradient      : 
TLFamily_UCS       .         Compressive Strength          : 
TLFamily_YME_H_STA .         Young's Modulus (Dynamic)     : 
TLFamily_YME_V_STA .         Young's Modulus (Dynamic)     : 
~Curve Information
#_______________________________________________________________________________
#
#LOGNAME           .UNIT     LOG_ID                        : DESCRIPTION
#_______________________________________________________________________________
MD                 .ft                                     : Measured DEPTH 
AT10               .ohm.m                                  : Array Induction Two Foot Resistivity A10 
AT20               .ohm.m                                  : Array Induction Two Foot Resistivity A20 
AT30               .ohm.m                                  : Array Induction Two Foot Resistivity A30 
AT60               .ohm.m                                  : Array Induction Two Foot Resistivity A60 
AT90               .ohm.m                                  : Array Induction Two Foot Resistivity A90 
BS                 .in                                     : Bit Size 
C44                .Mpsi                                   : C44 Modulus 
C55                .Mpsi                                   : C55 Modulus 
C66                .Mpsi                                   : C66 Modulus 
DTCO_MF_DDBHC      .us/ft                                  : Compressional slowness 
DTSH_FAST          .us/ft                                  : Shear slowness 
DTSH_SLOW          .us/ft                                  : Shear slowness 
DTSH_STRVP         .us/ft                                  : Stoneley Shear Slowness 
GAMMA              .unitless                               : Thomsens Anisotropy Parameter Gamma 
GR_EDTC            .gAPI                                   : Gamma Ray 
HCAL               .in                                     : HRCC Caliper Calibrated 
ISHE               .psi                                    : Cohesive Strength 
PPGI_MP_TD         .psi/ft                                 : Pore Pressure Gradient 
PPGI_PorePressure  .psi/ft                                 : Pore Pressure Gradient from XRP
PR_HH              .unitless                               : Poissons Ratio - Loading Horizontal - Displacement Horizontal 
PR_VH              .unitless                               : Poissons Ratio - Loading Vertical - Displacement Horizontal 
RHOZ               .g/cm3                                  : Standard Resolution Formation Density 
SDEVM              .deg                                    : Memorized Sonde Deviation 
SLOANI             .%                                      : Slowness-based Anisotropy 
SPHI               .ft3/ft3                                : Total porosity from Sonic 
TENS               .lbf                                    : Cable Tension 
TNPH               .ft3/ft3                                : Thermal Neutron Porosity (Ratio Method) in Selected Lithology 
TSTR               .psi                                    : Tensile Strength 
TXSG_ANISO         .psi/ft                                 : Anisotropic Minimum Horizontal Stress Gradient 
TXSG_ISO           .psi/ft                                 : Isotropic Minimum Horizontal Stress Gradient 
TXSP_ANISO         .psi                                    : Anisotropic Minimum Horizontal Stress 
TZSG               .psi/ft                                 : Overburden Stress Gradient 
UCS                .psi                                    : Unconfined Compressive Strength 
YME_H_STA          .Mpsi                                   :  Static Horizontal Youngs Modulus 
YME_V_STA          .Mpsi                                   : Static Vertical Youngs Modulus 
~Ascii
# ...
6444.5000  3.8097     2.5770     1.9636     1.5766     1.4206     8.5000     1.5775     1.5775     1.5851     78.5535    138.2645   142.3086   139.9091   0.0024     111.9735   8.4435     1073.8220  0.4300     -999.2500  0.2713     0.2711     2.3027     0.5723     2.8828     0.2195     2625.7334  0.2163     382.0059   0.6373     0.6361     4106.9229  1.0500     4584.0703  2.2659     2.2537    
6445.0000  3.4704     2.3669     1.8659     1.5240     1.3346     8.5000     1.5838     1.6432     1.6227     78.4393    137.5685   140.1279   138.4352   0.0000     112.4583   8.4435     1069.7233  0.4300     -999.2500  0.2686     0.2664     2.3079     0.5725     1.8433     0.2187     2607.4668  0.2129     384.5814   0.6353     0.6285     4094.2124  1.0500     4614.9766  2.3775     2.3444    
6445.5000  3.6874     2.4343     1.9064     1.5537     1.3372     8.5000     1.6197     1.6640     1.6904     78.7455    136.6127   138.4694   135.5440   0.0000     106.8140   8.4326     1041.3733  0.4300     -999.2500  0.2583     0.2557     2.3048     0.5726     1.3499     0.2208     2613.8125  0.2184     376.9347   0.6287     0.6131     4052.0784  1.0500     4523.2168  2.5102     2.4137    
6446.0000  4.3602     2.7295     2.1405     1.6973     1.4221     8.5000     1.6683     1.7085     1.7342     78.8804    134.5360   136.1452   133.5340   0.0000     107.1694   8.4218     1018.4050  0.4300     -999.2500  0.2452     0.2429     2.2950     0.5730     1.1890     0.2218     2610.6667  0.2209     369.5984   0.6112     0.5965     3939.5718  1.0500     4435.1812  2.5699     2.4778    
6446.5000  4.8542     2.6970     2.1762     1.7454     1.4607     8.5000     1.7433     1.7862     1.7650     78.2875    131.4050   133.0097   132.1896   0.0000     101.3022   8.4326     1035.7715  0.4300     -999.2500  0.2325     0.2313     2.2889     0.5742     1.2138     0.2176     2616.8000  0.2126     377.2908   0.5893     0.5860     3798.8442  1.0500     4527.4902  2.6183     2.6041    
6447.0000  5.3723     2.7619     2.2814     1.8395     1.5314     8.5000     1.8179     1.8512     1.8120     76.7556    129.5221   130.7053   130.9163   0.0000     93.7016    8.4254     1132.5150  0.4300     -999.2500  0.2212     0.2312     2.3048     0.5755     0.9093     0.2068     2610.7332  0.1928     414.9988   0.5786     0.5940     3730.1189  1.0500     4979.9854  2.6724     2.7931    
6447.5000  5.9905     2.8615     2.4496     1.9813     1.7114     8.5000     1.8560     1.8762     1.8670     75.4256    129.4727   130.1745   129.7933   0.0000     88.0930    8.4471     1244.0614  0.4300     -999.2500  0.2464     0.2457     2.3341     0.5769     0.5405     0.1974     2602.5332  0.1777     458.3428   0.6106     0.6089     3936.6316  1.0500     5500.1138  2.8970     2.8882    
6448.0000  6.5887     3.0303     2.6482     2.0935     1.8862     8.5000     1.8631     1.8854     1.9070     74.5906    129.4263   130.1985   128.6908   0.0000     95.8809    8.4326     1300.7585  0.4300     -999.2500  0.2551     0.2534     2.3438     0.5785     0.5948     0.1915     2603.4668  0.1695     484.0709   0.6284     0.6187     4051.4844  1.0500     5808.8511  3.0658     2.9935    
6448.5000  6.6483     3.2328     2.8583     2.2987     2.1758     8.5000     1.9046     1.9278     1.9431     73.4670    128.3561   129.1339   127.8502   0.0000     116.1125   8.4435     1375.8119  0.4300     -999.2500  0.2601     0.2585     2.3571     0.5801     0.6041     0.1835     2599.8667  0.1654     520.8180   0.6371     0.6288     4108.1108  1.0500     6249.8159  3.2825     3.2177    
6449.0000  7.3864     3.2857     2.9939     2.4922     2.3393     8.5000     1.9732     1.9918     2.0189     72.5043    127.1073   127.7041   126.2513   0.0000     137.7564   8.4761     1468.8101  0.4300     -999.2500  0.2619     0.2602     2.3882     0.5821     0.4684     0.1767     2594.7334  0.1581     563.7531   0.6440     0.6338     4152.8516  1.0500     6765.0376  3.5358     3.4489    
6449.5000  7.0606     3.4275     2.9860     2.4032     2.3016     8.5000     2.0551     2.0704     2.0912     71.8911    125.7765   126.2426   125.1506   0.0000     141.1598   8.4870     1570.1162  0.4300     -999.2500  0.2600     0.2586     2.4308     0.5842     0.3699     0.1724     2601.8000  0.1658     604.0715   0.6420     0.6340     4139.9858  1.0500     7248.8584  3.6779     3.6081    
6450.0000  7.1477     3.5000     3.0674     2.4184     2.3094     8.5000     2.0828     2.1005     2.1254     71.8731    124.7034   125.2317   123.9715   0.0000     130.5123   8.4652     1583.2262  0.4300     -999.2500  0.2545     0.2529     2.4242     0.5865     0.4227     0.1722     2597.0667  0.1817     600.6224   0.6339     0.6245     4088.3032  1.0500     7207.4683  3.5944     3.5143    
6450.5000  6.9762     3.6796     3.1978     2.6214     2.4545     8.5000     2.0730     2.0968     2.1185     72.3524    123.8266   124.5361   123.1891   0.0000     105.7675   8.4544     1515.3180  0.4300     -999.2500  0.2452     0.2434     2.3860     0.5887     0.5713     0.1756     2600.5999  0.1934     564.7822   0.6188     0.6089     3991.3093  1.0500     6777.3857  3.3935     3.3151    
6451.0000  8.7770     4.1022     3.1706     2.6200     2.4004     8.5000     2.1201     2.1498     2.1286     72.4100    121.5559   122.4042   122.1585   0.0000     85.2943    8.4326     1468.4250  0.4300     -999.2500  0.2189     0.2264     2.3574     0.5903     0.6954     0.1760     2603.4668  0.1784     546.3724   0.5820     0.5929     3754.3123  1.0500     6556.4688  3.2634     3.3755    
6451.5000  8.7294     4.7551     3.2277     2.5700     2.2944     8.5000     2.3150     2.3458     2.1575     71.1134    116.7534   117.5264   121.7403   -0.0340    64.7452    8.4218     1558.4402  0.4300     -999.2500  0.1998     0.2062     2.3731     0.5918     0.6599     0.1669     2600.3999  0.1569     586.0181   0.5627     0.5687     3629.8003  1.0500     7032.2173  3.6119     3.7276    
6452.0000  9.6622     5.6836     3.6917     2.6598     2.4251     8.5000     2.5851     2.6062     2.1902     68.5994    111.4401   111.8943   121.5633   -0.0764    54.5483    8.4109     1807.2687  0.4300     -999.2500  0.1918     0.1956     2.4020     0.5926     0.4068     0.1491     2596.5999  0.1309     687.5433   0.5587     0.5623     3604.2754  1.0500     8250.5195  4.1494     4.2304    
6452.5000  11.2622    5.8143     3.7228     2.7681     2.3584     8.5000     2.7406     2.7554     2.2113     66.5509    108.9368   109.2310   121.6041   -0.0966    50.6455    8.4218     2110.2805  0.4300     -999.2500  0.2001     0.2027     2.4268     0.5941     0.2697     0.1346     2594.9333  0.1178     797.1830   0.5706     0.5732     3681.6042  1.0500     9566.1963  4.3623     4.4190    
6453.0000  10.0894    5.3490     3.6864     2.7560     2.2742     8.5000     2.6387     2.6663     2.1997     67.3820    110.6664   111.2437   121.8388   -0.0832    60.6154    8.4544     1998.8099  0.4300     -999.2500  0.2012     0.2063     2.4234     0.5952     0.5203     0.1405     2594.6667  0.1237     758.3729   0.5711     0.5760     3684.9680  1.0500     9100.4756  4.2304     4.3372    
6453.5000  8.2148     4.5370     3.4661     2.6817     2.2198     8.5000     2.3779     2.4113     2.1810     69.5486    116.0625   116.8749   122.0358   -0.0414    79.7625    8.4544     1749.6835  0.4300     -999.2500  0.2139     0.2212     2.4106     0.5966     0.6975     0.1558     2631.2666  0.1461     667.9579   0.5833     0.5902     3763.8445  1.0500     8015.4956  3.8992     4.0330    
6454.0000  6.6093     4.0142     3.3009     2.6062     2.1429     8.5000     2.1743     2.2088     2.1810     71.6047    121.5565   122.5162   122.3278   0.0000     108.9253   8.4652     1561.9065  0.4300     -999.2500  0.2271     0.2360     2.4221     0.5972     0.7864     0.1704     2659.2668  0.1619     605.9985   0.5985     0.6114     3862.2317  1.0500     7271.9824  3.7411     3.8877    
6454.5000  6.2204     3.8519     3.4018     2.6457     2.2170     8.5000     2.1347     2.1717     2.2026     71.9805    123.5023   124.5682   122.6314   0.0000     141.4784   8.5124     1550.2429  0.4300     -999.2500  0.2495     0.2467     2.4583     0.5980     0.8594     0.1730     2621.8667  0.1696     612.5050   0.6346     0.6198     4095.6499  1.0500     7350.0601  4.0830     3.9469    
