~Version
 VERS              .         2.0                           : CWLS LOG ASCII STANDARD - VERSION 2.0
 WRAP              .         NO                            : ONE LINE PER DEPTH STEP
 DLM               .         SPACE                         : DELIMITING CHARACTER(SPACE TAB OR COMMA)
~Well Information
#_______________________________________________________________________________
#
#PARAMETER_NAME    .UNIT     VALUE                         : DESCRIPTION
#_______________________________________________________________________________
STRT               .ft       4040.0000                     : First reference value
STOP               .ft       7075.0000                     : Last reference value
STEP               .ft       0.5000                        : Step increment
NULL               .         -999.25                       : Missing value
COMP               .         One Earth Energy              : Company
WELL               .         OEE #1                        : Well name
FLD                .         OEE                           : Field
LOC                .                                       : Location
PROV               .         Illinois                      : Province
SRVC               .         Schlumberger                  : Service Company
DATE               .         26-Dec-2021                   : Date
UWI                .         12-113-25373-00               : Unique Well ID
APD                .ft       15                            : Elevation of Depth Reference (LMF) Above Permanent Datum
API                .         12-113-25373-00               : API NUMBER
BHS                .         OPEN                          : Borehole Status (Open or Cased Hole)
BHT                .degF     93.71                         : Bottom Hole Temperature
BLI                .ft       4052                          : Bottom Log Interval
BS                 .in       12.25                         : Bit Size
CBDR               .ft       374                           : Casing Bottom of Driller
CBLO               .ft       374                           : Logger Casing Shoe Depth
CNTY               .         McLean                        : COUNTY
CSIZ               .in       13.375                        : Current Casing Size
CWEI               .lbm/ft   54.5                          : Casing Weight
CTRY               .         United States of America - US : Nation
DCS                .         23-Dec-2021                   : Date Circulation Stopped
DFD                .lbm/gal  9.25                          : Drilling Fluid Density
DFT                .         WATER                         : Drilling Fluid Type
DLAB               .         26-Dec-2021                   : Date Logger At Bottom
EDF                .ft       840.0001                      : Elevation of Drill Floor
EGL                .ft       826                           : Elevation of Ground Level
EKB                .ft       841                           : Elevation of Kelly Bushing
EPD                .ft       826                           : Elevation of Permanent Datum (PDAT) above Mean Sea Level
GDAT               .                                       : GeoDetic Datum
LMF                .         KB                            : Logging Measured From (Name of Logging Elevation Reference)
LUL                .         Bradford                      : Logging Unit Location
LUN                .         2266                          : Logging Unit Number
LATI               .         40.485663 degrees             : Latitude
LONG               .         -88.468241 degrees            : Longitude
MCST               .degF     67.9                          : Mudcake Sample Temperature
MFST               .degF     66.3                          : Mud Filtrate Sample Temperature
MRT                .degF     93.71                         : Maximum Recorded Temperature
MST                .degF     65.4                          : Mud Sample Temperature
ORIGINALWELLNAME   .         OEE #1                        : 
PDAT               .         GL                            : Permanent Datum
PRODUCER-CODE      .         440                           : 
PRODUCER-NAME      .         Schlumberger                  : 
RMB                .ohm.m    3.533802                      : Resistivity of Mud at Bottom Hole Temperature
RMCS               .ohm.m    6.12                          : Resistivity of Mud Cake Sample
RMFS               .ohm.m    3.85                          : Resistivity of Mud Filtrate Sample
RMS                .ohm.m    4.92                          : Resistivity of Mud Sample
RUN                .         1C                            : Run Number
STAT               .         Illinois                      : State or Province
TCS                .         23_45_00                      : Time Circulation Stopped
TDD                .ft       4052                          : Driller Total Depth
TDL                .ft       4052                          : Logger Total Depth
TLAB               .         02_57_00                      : Time Logger At Bottom
TLI                .ft       379                           : Top Log Interval
~Parameter Information Block
#_______________________________________________________________________________
#
#PARAMETER_NAME    .UNIT     VALUE                         : DESCRIPTION
#_______________________________________________________________________________
SET                .         LQC                           : 
TLFamily_AT10      .         Resistivity - Induction Array 10: 
TLFamily_AT20      .         Resistivity - Induction Array 20: 
TLFamily_AT30      .         Resistivity - Induction Array 30: 
TLFamily_AT60      .         Resistivity - Induction Array 60: 
TLFamily_AT90      .         Resistivity - Induction Array 90: 
TLFamily_BS        .         Bit Size                      : 
TLFamily_Calcite_QE .        Calcite Volume Fraction       : 
TLFamily_HCAL      .         Caliper                       : 
TLFamily_HCGR      .         Gamma Ray Minus Uranium       : 
TLFamily_HSGR      .         Gamma Ray                     : 
TLFamily_HTHO      .         Thorium Concentration         : 
TLFamily_Illite_QE .         Illite Volume Fraction        : 
TLFamily_KINT_GEO_QE .       Permeability                  : 
TLFamily_KSDR_CMR  .         NMR Permeability              : 
TLFamily_MD        .         Measured Depth                : 
TLFamily_MRP_CMR   .         NMR Porosity                  : 
TLFamily_MRP_CMR_Edited .    NMR Porosity                  : 
TLFamily_MRP_CMR_Edited_REC_QE .NMR Porosity               : 
TLFamily_PHIT_QE   .         Total Porosity                : 
TLFamily_PIGN_QE   .         Effective Porosity            : 
TLFamily_Pyrite_QE .         Pyrite Volume Fraction        : 
TLFamily_Quartz_QE .         Quartz Volume Fraction        : 
TLFamily_RHGA_GEO_QE .       Grain Density                 : 
TLFamily_RHOZ      .         Bulk Density                  : 
TLFamily_TNPH_LIM  .         Thermal Neutron Porosity Limestone: 
TLFamily_UWater_QE .         Undisturbed Zone Water Volume Fraction: 
TLFamily_VCL_GEO_QE .        Clay Volume Fraction          : 
TLFamily_WANH_WALK2 .        Anhydrite Weight Fraction     : 
TLFamily_WCAR_WALK2 .        Carbonate Weight Fraction     : 
TLFamily_WCLA_WALK2 .        Clay Weight Fraction          : 
TLFamily_WCOA_WALK2 .        Coal Weight Fraction          : 
TLFamily_WPYR_WALK2 .        Pyrite Weight Fraction        : 
TLFamily_WQFM_WALK2 .        Quartz-Feldspar-Mica Weight Fraction: 
~Curve Information
#_______________________________________________________________________________
#
#LOGNAME           .UNIT     LOG_ID                        : DESCRIPTION
#_______________________________________________________________________________
MD                 .ft                                     : Measured DEPTH 
AT10               .ohm.m                                  : Array Induction Two Foot Resistivity A10 
AT20               .ohm.m                                  : Array Induction Two Foot Resistivity A20 
AT30               .ohm.m                                  : Array Induction Two Foot Resistivity A30 
AT60               .ohm.m                                  : Array Induction Two Foot Resistivity A60 
AT90               .ohm.m                                  : Array Induction Two Foot Resistivity A90 
BS                 .in                                     : Bit Size 
Calcite_QE         .v/v                                    : Calcite Volume Fraction 
HCAL               .in                                     : HRCC Caliper Calibrated 
HCGR               .gAPI                                   : HNGS Computed Gamma Ray 
HSGR               .gAPI                                   : HNGS Standard Gamma-Ray 
HTHO               .ppm                                    : HNGS Formation Thorium Concentration 
Illite_QE          .v/v                                    : Illite Volume Fraction 
KINT_GEO_QE        .mD                                     : Permeability (Juhasz 1979) 
KSDR_CMR           .mD                                     : SDR Permeability 
MRP_CMR            .ft3/ft3                                : Magnetic Resonance Porosity 
MRP_CMR_Edited     .ft3/ft3                                : Magnetic Resonance Porosity 
MRP_CMR_Edited_REC_QE .ft3/ft3                             : Quanti.Elan Reconstructed curve 
PHIT_QE            .v/v                                    : Total Porosity 
PIGN_QE            .v/v                                    : Effective porosity (with irreducible water) 
Pyrite_QE          .v/v                                    : Pyrite Volume Fraction 
Quartz_QE          .v/v                                    : Quartz Volume Fraction 
RHGA_GEO_QE        .g/cm3                                  : Apparent grain density 
RHOZ               .g/cm3                                  : Standard Resolution Formation Density 
TNPH_LIM           .ft3/ft3                                : Thermal Neutron Porosity (matrix Limestone) 
UWater_QE          .v/v                                    : Undisturbed Zone Water Volume Fraction 
VCL_GEO_QE         .v/v                                    : Clay fraction 
WANH_WALK2         .lbm/lbm                                : Dry Weight Fraction Anhydrite/Gypsum 
WCAR_WALK2         .lbm/lbm                                : Dry Weight Fraction Carbonate 
WCLA_WALK2         .lbm/lbm                                : Dry Weight Fraction Clay 
WCOA_WALK2         .lbm/lbm                                : Dry Weight Fraction Coal 
WPYR_WALK2         .lbm/lbm                                : Dry Weight Fraction Pyrite from WALK2 Model 
WQFM_WALK2         .lbm/lbm                                : Dry Weight Fraction Quartz+Feldspar+Mica (QFM) 
~Ascii
# ...
7064.5000  115.2184   382.2342   621.2648   998.2520   1052.1572  8.5000     0.0000     8.4399     224.5952   295.7491   50.7175    0.1501     0.0147     0.0003     0.0415     0.0415     0.0397     0.0362     0.0172     0.0000     0.5864     2.6529     2.5836     0.0163     0.0000     0.1692     0.0000     0.0000     0.2064     0.0000     0.0000     0.7936    
7065.0000  114.4816   550.9619   1053.0640  1333.6583  1454.7389  8.5000     0.0000     8.4616     224.5952   295.7491   50.7175    0.1491     0.0195     0.0003     0.0392     0.0392     0.0370     0.0380     0.0191     0.0029     0.5822     2.6598     2.5938     0.0172     0.0000     0.1681     0.0000     0.0000     0.2050     0.0000     0.0066     0.7884    
7065.5000  115.1171   422.6286   434.3752   523.0665   553.1239   8.5000     0.0000     8.4834     224.5952   295.7491   50.7175    0.1358     0.0410     0.0002     0.0350     0.0350     0.0337     0.0397     0.0225     0.0038     0.5882     2.6598     2.6011     0.0160     0.0021     0.1531     0.0000     0.0000     0.1887     0.0000     0.0074     0.8039    
7066.0000  118.5868   285.0018   307.7910   416.4614   403.3753   8.5000     0.0000     8.4834     224.5952   295.7491   50.7175    0.1354     0.0270     0.0002     0.0311     0.0311     0.0314     0.0370     0.0197     0.0036     0.5910     2.6592     2.6106     0.0135     0.0046     0.1526     0.0000     0.0000     0.1878     0.0000     0.0064     0.8058    
7066.5000  124.5472   287.2762   282.3170   384.0901   366.2899   8.5000     0.0000     8.5051     224.5952   295.7491   50.7175    0.1344     0.0168     0.0001     0.0287     0.0287     0.0296     0.0337     0.0166     0.0006     0.5979     2.6517     2.6033     0.0131     0.0059     0.1515     0.0000     0.0000     0.1860     0.0000     0.0000     0.8140    
7067.0000  117.0519   277.8023   284.9488   423.5923   371.1112   8.5000     0.0000     8.5269     224.5952   295.7491   50.7175    0.1582     0.0033     0.0001     0.0296     0.0296     0.0315     0.0314     0.0113     0.0000     0.5850     2.6543     2.5990     0.0160     0.0048     0.1783     0.0000     0.0000     0.2154     0.0000     0.0000     0.7846    
7067.5000  117.9237   273.3453   294.1453   441.6470   356.7074   8.5000     0.0000     8.4254     224.5952   295.7491   50.7175    0.1681     0.0010     0.0001     0.0325     0.0325     0.0368     0.0296     0.0082     0.0000     0.5801     2.6559     2.6001     0.0231     0.0048     0.1894     0.0000     0.0000     0.2274     0.0000     0.0000     0.7726    
7068.0000  107.8906   300.7509   288.2471   417.2120   319.4805   8.5000     0.0000     8.5051     224.5952   295.7491   50.7175    0.1830     0.0008     0.0002     0.0383     0.0383     0.0446     0.0315     0.0082     0.0000     0.5685     2.6585     2.5921     0.0275     0.0047     0.2063     0.0000     0.0000     0.2466     0.0000     0.0000     0.7534    
7068.5000  104.7831   254.1118   271.2525   375.7448   319.4193   8.5000     0.0013     8.5051     224.5952   295.7491   50.7175    0.1952     0.0022     0.0005     0.0460     0.0460     0.0510     0.0368     0.0120     0.0000     0.5539     2.6608     2.5679     0.0300     0.0034     0.2200     0.0000     0.0000     0.2624     0.0000     0.0044     0.7332    
7069.0000  85.1899    159.0639   186.7972   267.5423   213.4583   8.5000     0.0002     8.5087     224.5952   295.7491   50.7175    0.1954     0.0111     0.0009     0.0531     0.0531     0.0546     0.0446     0.0198     0.0000     0.5475     2.6609     2.5391     0.0252     0.0062     0.2203     0.0000     0.0000     0.2669     0.0000     0.0000     0.7331    
7069.5000  75.8114    122.3816   147.4798   198.1779   168.1204   8.5000     0.0001     8.4254     224.5952   295.7491   50.7175    0.1819     0.0426     0.0011     0.0538     0.0538     0.0537     0.0510     0.0279     0.0000     0.5512     2.6587     2.5332     0.0230     0.0086     0.2051     0.0000     0.0000     0.2516     0.0000     0.0000     0.7484    
7070.0000  65.4135    105.7013   129.1022   171.6232   155.2113   8.5000     0.0000     8.4254     224.5952   295.7491   50.7175    0.1583     0.1299     0.0009     0.0493     0.0493     0.0499     0.0546     0.0345     0.0000     0.5641     2.6546     2.5470     0.0210     0.0106     0.1784     0.0000     0.0000     0.2218     0.0000     0.0000     0.7782    
7070.5000  63.1850    103.9591   126.9984   166.6395   166.5072   8.5000     0.0000     8.4326     224.5952   295.7491   50.7175    0.1348     0.2375     0.0005     0.0431     0.0431     0.0455     0.0537     0.0365     0.0001     0.5804     2.6506     2.5568     0.0213     0.0111     0.1519     0.0000     0.0000     0.1906     0.0000     0.0000     0.8094    
7071.0000  62.5197    103.6376   123.3035   172.6755   186.6467   8.5000     0.0000     8.4544     224.5952   295.7491   50.7175    0.1259     0.2153     0.0002     0.0371     0.0371     0.0408     0.0499     0.0339     0.0000     0.5894     2.6488     2.5565     0.0217     0.0109     0.1419     0.0000     0.0000     0.1781     0.0000     0.0000     0.8219    
7071.5000  59.4206    102.6960   121.2668   174.9508   201.2321   8.5000     0.0000     8.4326     224.5952   295.7491   50.7175    0.1308     0.1152     0.0001     0.0321     0.0321     0.0359     0.0455     0.0289     0.0000     0.5898     2.6496     2.5519     0.0240     0.0105     0.1475     0.0000     0.0000     0.1840     0.0000     0.0000     0.8160    
7072.0000  55.4103    90.6255    114.5182   173.6430   211.9629   8.5000     0.0001     8.4689     224.5952   295.7491   50.7175    0.1315     0.0614     0.0000     0.0279     0.0279     0.0309     0.0408     0.0240     0.0000     0.5933     2.6496     2.5525     0.0244     0.0107     0.1482     0.0000     0.0000     0.1840     0.0000     0.0000     0.8160    
7072.5000  56.0976    82.7308    106.3434   162.9702   203.0581   8.5000     0.0001     8.4689     224.5952   295.7491   50.7175    0.1288     0.0319     0.0000     0.0264     0.0264     0.0290     0.0359     0.0195     0.0000     0.5991     2.6491     2.5604     0.0261     0.0121     0.1452     0.0000     0.0000     0.1796     0.0000     0.0000     0.8204    
7073.0000  59.1656    89.7802    116.7629   186.4809   240.8785   8.5000     0.0001     8.4399     224.5952   295.7491   50.7175    0.1399     0.0073     0.0001     0.0254     0.0254     0.0279     0.0309     0.0131     0.0000     0.5965     2.6510     2.5777     0.0263     0.0104     0.1577     0.0000     0.0000     0.1926     0.0000     0.0000     0.8074    
7073.5000  61.0687    101.1988   135.9352   225.7751   300.0035   8.5000     0.0001     8.4689     224.5952   295.7491   50.7175    0.1567     0.0017     0.0001     0.0240     0.0240     0.0270     0.0290     0.0091     0.0000     0.5873     2.6539     2.5871     0.0261     0.0073     0.1766     0.0000     0.0000     0.2135     0.0000     0.0000     0.7865    
7074.0000  65.0129    103.5011   143.5208   243.9657   354.1393   8.5000     0.0077     8.5341     224.5952   295.7491   50.7175    0.1724     0.0003     0.0001     0.0225     0.0225     0.0259     0.0279     0.0060     0.0000     0.5706     2.6571     2.5933     0.0238     0.0058     0.1943     0.0000     0.0101     0.2327     0.0000     0.0000     0.7572    
7074.5000  67.9907    109.2117   159.9113   280.0346   433.8490   8.5000     0.0001     8.4979     224.5952   295.7491   50.7175    0.1790     0.0001     0.0001     0.0246     0.0246     0.0273     0.0270     0.0042     0.0000     0.5747     2.6577     2.5925     0.0242     0.0037     0.2018     0.0000     0.0000     0.2408     0.0000     0.0000     0.7592    
7075.0000  73.5588    116.5782   174.5857   300.7652   505.6458   8.5000     0.0001     8.5196     224.5952   295.7491   50.7175    0.1846     0.0000     0.0001     0.0255     0.0255     0.0281     0.0259     0.0025     0.0000     0.5719     2.6587     2.5929     0.0235     0.0023     0.2080     0.0000     0.0000     0.2474     0.0000     0.0000     0.7526    
