~Version
 VERS              .         2.0                           : CWLS LOG ASCII STANDARD - VERSION 2.0
 WRAP              .         NO                            : ONE LINE PER DEPTH STEP
 DLM               .         SPACE                         : DELIMITING CHARACTER(SPACE TAB OR COMMA)
~Well Information
#_______________________________________________________________________________
#
#PARAMETER_NAME    .UNIT     VALUE                         : DESCRIPTION
#_______________________________________________________________________________
STRT               .ft       4040.0000                     : First reference value
STOP               .ft       7050.0000                     : Last reference value
STEP               .ft       0.5000                        : Step increment
NULL               .         -999.25                       : Missing value
COMP               .         One Earth Energy              : Company
WELL               .         OEE #1                        : Well name
FLD                .         OEE                           : Field
LOC                .                                       : Location
PROV               .         Illinois                      : Province
SRVC               .         Schlumberger                  : Service Company
DATE               .         26-Dec-2021                   : Date
UWI                .         12-113-25373-00               : Unique Well ID
APD                .ft       15                            : Elevation of Depth Reference (LMF) Above Permanent Datum
API                .         12-113-25373-00               : API NUMBER
BHS                .         OPEN                          : Borehole Status (Open or Cased Hole)
BHT                .degF     93.71                         : Bottom Hole Temperature
BLI                .ft       4052                          : Bottom Log Interval
BS                 .in       12.25                         : Bit Size
CBDR               .ft       374                           : Casing Bottom of Driller
CBLO               .ft       374                           : Logger Casing Shoe Depth
CNTY               .         McLean                        : COUNTY
CSIZ               .in       13.375                        : Current Casing Size
CWEI               .lbm/ft   54.5                          : Casing Weight
CTRY               .         United States of America - US : Nation
DCS                .         23-Dec-2021                   : Date Circulation Stopped
DFD                .lbm/gal  9.25                          : Drilling Fluid Density
DFT                .         WATER                         : Drilling Fluid Type
DLAB               .         26-Dec-2021                   : Date Logger At Bottom
EDF                .ft       840.0001                      : Elevation of Drill Floor
EGL                .ft       826                           : Elevation of Ground Level
EKB                .ft       841                           : Elevation of Kelly Bushing
EPD                .ft       826                           : Elevation of Permanent Datum (PDAT) above Mean Sea Level
GDAT               .                                       : GeoDetic Datum
LMF                .         KB                            : Logging Measured From (Name of Logging Elevation Reference)
LUL                .         Bradford                      : Logging Unit Location
LUN                .         2266                          : Logging Unit Number
LATI               .         40.485663 degrees             : Latitude
LONG               .         -88.468241 degrees            : Longitude
MCST               .degF     67.9                          : Mudcake Sample Temperature
MFST               .degF     66.3                          : Mud Filtrate Sample Temperature
MRT                .degF     93.71                         : Maximum Recorded Temperature
MST                .degF     65.4                          : Mud Sample Temperature
ORIGINALWELLNAME   .         OEE #1                        : 
PDAT               .         GL                            : Permanent Datum
PRODUCER-CODE      .         440                           : 
PRODUCER-NAME      .         Schlumberger                  : 
RMB                .ohm.m    3.533802                      : Resistivity of Mud at Bottom Hole Temperature
RMCS               .ohm.m    6.12                          : Resistivity of Mud Cake Sample
RMFS               .ohm.m    3.85                          : Resistivity of Mud Filtrate Sample
RMS                .ohm.m    4.92                          : Resistivity of Mud Sample
RUN                .         1C                            : Run Number
STAT               .         Illinois                      : State or Province
TCS                .         23_45_00                      : Time Circulation Stopped
TDD                .ft       4052                          : Driller Total Depth
TDL                .ft       4052                          : Logger Total Depth
TLAB               .         02_57_00                      : Time Logger At Bottom
TLI                .ft       379                           : Top Log Interval
~Parameter Information Block
#_______________________________________________________________________________
#
#PARAMETER_NAME    .UNIT     VALUE                         : DESCRIPTION
#_______________________________________________________________________________
SET                .         LQC_MP_043_Deliverables       : 
TLFamily_AT10      .         Resistivity - Induction Array 10: 
TLFamily_AT20      .         Resistivity - Induction Array 20: 
TLFamily_AT30      .         Resistivity - Induction Array 30: 
TLFamily_AT60      .         Resistivity - Induction Array 60: 
TLFamily_AT90      .         Resistivity - Induction Array 90: 
TLFamily_BS        .         Bit Size                      : 
TLFamily_C44       .         Elastic Modulus               : 
TLFamily_C55       .         Elastic Modulus               : 
TLFamily_C66       .         Elastic Modulus               : 
TLFamily_DTCO_MF_DDBHC .         Compressional Slowness        : 
TLFamily_DTSH_FAST .         Fast Shear Slowness           : 
TLFamily_DTSH_SLOW .         Slow Shear Slowness           : 
TLFamily_DTSH_STRVP .         Stoneley Shear Slowness       : 
TLFamily_GAMMA     .         Regularization Factor         : 
TLFamily_GR_EDTC   .         Gamma Ray                     : 
TLFamily_HCAL      .         Caliper                       : 
TLFamily_ISHE      .         Shear Strength                : 
TLFamily_MD        .         Measured Depth                : 
TLFamily_PPGI_MP_TD .         Pore Pressure Gradient        : 
TLFamily_PPGI_PorePressure .         Pore Pressure Gradient        : 
TLFamily_PR_HH     .         Poisson Ratio (Dynamic)       : 
TLFamily_PR_VH     .         Poisson Ratio (Dynamic)       : 
TLFamily_RHOZ      .         Bulk Density                  : 
TLFamily_SDEVM     .         Sonde Deviation               : 
TLFamily_SLOANI    .         Acoustic Anisotropy           : 
TLFamily_SPHI      .         Total Porosity                : 
TLFamily_TENS      .         Tension                       : 
TLFamily_TNPH      .         Thermal Neutron Porosity      : 
TLFamily_TSTR      .         Tensile Strength              : 
TLFamily_TXSG_ANISO .         Minimum Horizontal Stress Gradient: 
TLFamily_TXSG_ISO  .         Minimum Horizontal Stress Gradient: 
TLFamily_TXSP_ANISO .         Minimum Horizontal Stress     : 
TLFamily_TZSG      .         Vertical Stress Gradient      : 
TLFamily_UCS       .         Compressive Strength          : 
TLFamily_YME_H_STA .         Young's Modulus (Dynamic)     : 
TLFamily_YME_V_STA .         Young's Modulus (Dynamic)     : 
~Curve Information
#_______________________________________________________________________________
#
#LOGNAME           .UNIT     LOG_ID                        : DESCRIPTION
#_______________________________________________________________________________
MD                 .ft                                     : Measured DEPTH 
AT10               .ohm.m                                  : Array Induction Two Foot Resistivity A10 
AT20               .ohm.m                                  : Array Induction Two Foot Resistivity A20 
AT30               .ohm.m                                  : Array Induction Two Foot Resistivity A30 
AT60               .ohm.m                                  : Array Induction Two Foot Resistivity A60 
AT90               .ohm.m                                  : Array Induction Two Foot Resistivity A90 
BS                 .in                                     : Bit Size 
C44                .Mpsi                                   : C44 Modulus 
C55                .Mpsi                                   : C55 Modulus 
C66                .Mpsi                                   : C66 Modulus 
DTCO_MF_DDBHC      .us/ft                                  : Compressional slowness 
DTSH_FAST          .us/ft                                  : Shear slowness 
DTSH_SLOW          .us/ft                                  : Shear slowness 
DTSH_STRVP         .us/ft                                  : Stoneley Shear Slowness 
GAMMA              .unitless                               : Thomsens Anisotropy Parameter Gamma 
GR_EDTC            .gAPI                                   : Gamma Ray 
HCAL               .in                                     : HRCC Caliper Calibrated 
ISHE               .psi                                    : Cohesive Strength 
PPGI_MP_TD         .psi/ft                                 : Pore Pressure Gradient 
PPGI_PorePressure  .psi/ft                                 : Pore Pressure Gradient from XRP
PR_HH              .unitless                               : Poissons Ratio - Loading Horizontal - Displacement Horizontal 
PR_VH              .unitless                               : Poissons Ratio - Loading Vertical - Displacement Horizontal 
RHOZ               .g/cm3                                  : Standard Resolution Formation Density 
SDEVM              .deg                                    : Memorized Sonde Deviation 
SLOANI             .%                                      : Slowness-based Anisotropy 
SPHI               .ft3/ft3                                : Total porosity from Sonic 
TENS               .lbf                                    : Cable Tension 
TNPH               .ft3/ft3                                : Thermal Neutron Porosity (Ratio Method) in Selected Lithology 
TSTR               .psi                                    : Tensile Strength 
TXSG_ANISO         .psi/ft                                 : Anisotropic Minimum Horizontal Stress Gradient 
TXSG_ISO           .psi/ft                                 : Isotropic Minimum Horizontal Stress Gradient 
TXSP_ANISO         .psi                                    : Anisotropic Minimum Horizontal Stress 
TZSG               .psi/ft                                 : Overburden Stress Gradient 
UCS                .psi                                    : Unconfined Compressive Strength 
YME_H_STA          .Mpsi                                   :  Static Horizontal Youngs Modulus 
YME_V_STA          .Mpsi                                   : Static Vertical Youngs Modulus 
~Ascii
# ...
6045.5000  40.6856    23.0430    15.6584    9.9653     8.8247     8.5000     3.8115     3.8115     4.1730     60.0373    94.0289    94.4843    90.0813    0.0474     30.6085    8.7262     3491.0457  0.4300     -999.2500  0.1924     0.1802     2.5131     1.1044     0.4832     0.0886     2529.8752  0.0742     1326.7084  0.6195     0.5533     3744.6243  1.0500     15920.5000 7.6763     6.5653    
6046.0000  41.3906    22.9403    15.4799    9.6364     8.5017     8.5000     3.7500     3.7500     4.0530     59.9811    94.4682    95.0006    91.1238    0.0404     24.3078    8.7298     3431.8479  0.4300     -999.2500  0.1932     0.1828     2.4976     1.0994     0.5620     0.0882     2516.6001  0.0755     1312.2109  0.6152     0.5599     3719.0300  1.0500     15746.5313 7.4266     6.5028    
6046.5000  40.5109    22.4801    15.0387    9.3461     8.0662     8.5000     3.7016     3.7016     3.8714     59.9676    94.6967    95.4105    92.9436    0.0229     21.8302    8.7226     3253.8987  0.4300     -999.2500  0.1853     0.1796     2.4820     1.0954     0.7510     0.0881     2502.2002  0.0777     1269.4052  0.5946     0.5636     3594.6375  1.0500     15232.8613 7.0366     6.5209    
6047.0000  38.1440    21.7829    14.5963    9.1508     7.6845     8.5000     3.6139     3.6920     3.7344     60.2253    94.9510    95.9716    94.4107    0.0000     21.6578    8.6936     2966.8911  0.4300     -999.2500  0.1824     0.1780     2.4703     1.0918     1.0692     0.0899     2529.5332  0.0756     1188.0767  0.5836     0.5578     3528.9551  1.0500     14256.9189 6.7404     6.4362    
6047.5000  35.9657    21.0752    14.2405    8.9406     7.3668     8.5000     3.5365     3.6488     3.6991     60.5354    95.5671    97.0725    94.9154    0.0000     22.9978    8.7008     2931.9768  0.4300     -999.2500  0.1906     0.1845     2.4732     1.0875     1.5629     0.0921     2545.8667  0.0793     1170.3057  0.5943     0.5597     3593.4128  1.0500     14043.6689 6.6777     6.2780    
6048.0000  33.6844    20.3791    13.9472    8.7738     7.1136     8.5000     3.5413     3.5413     3.6878     60.6468    96.1458    97.9898    95.1075    0.0207     22.1784    8.6791     3137.7766  0.4300     -999.2500  0.1926     0.1875     2.4756     1.0845     1.8997     0.0929     2539.3333  0.0802     1216.2990  0.5980     0.5716     3616.2026  1.0500     14595.5879 6.6113     6.1819    
6048.5000  31.6858    19.5706    13.6467    8.6465     6.9362     8.5000     3.5326     3.5326     3.7052     60.7540    96.1771    98.3242    94.9408    0.0244     21.2836    8.6573     3159.6311  0.4300     -999.2500  0.1948     0.1888     2.4786     1.0810     2.2078     0.0937     2524.3125  0.0817     1217.6166  0.6023     0.5713     3642.8328  1.0500     14611.3984 6.6342     6.1306    
6049.0000  30.2825    18.8775    13.4481    8.5956     6.8549     8.5000     3.5525     3.5525     3.7223     60.8233    95.7002    98.1944    94.6868    0.0239     19.7486    8.6646     3112.2959  0.4300     -999.2500  0.1904     0.1846     2.4767     1.0785     2.5727     0.0942     2510.5332  0.0809     1203.5594  0.5971     0.5665     3611.2449  1.0500     14442.7129 6.6824     6.1838    
6049.5000  30.3913    18.6841    13.4581    8.6288     6.8635     8.5000     3.5855     3.5855     3.7246     60.9465    95.1798    97.9174    94.7004    0.0194     19.2854    8.6501     3019.6333  0.4300     -999.2500  0.1815     0.1769     2.4790     1.0758     2.8355     0.0950     2505.6667  0.0811     1179.3351  0.5847     0.5596     3536.9680  1.0500     14152.0215 6.7022     6.2895    
6050.0000  31.2194    18.8956    13.8297    8.8107     7.0429     8.5000     3.6097     3.6097     3.7217     60.9640    94.7771    97.7528    94.7715    0.0155     17.8225    8.6392     2964.4448  0.4300     -999.2500  0.1757     0.1721     2.4807     1.0735     3.0912     0.0952     2519.8000  0.0794     1168.0123  0.5766     0.5563     3487.9482  1.0500     14016.1484 6.7220     6.3864    
6050.5000  32.5340    19.3511    14.3237    9.0636     7.3122     8.5000     3.6245     3.6245     3.7135     60.6711    94.4316    97.7765    94.9025    0.0123     17.2245    8.6392     3004.5073  0.4300     -999.2500  0.1768     0.1739     2.4821     1.0703     3.4805     0.0931     2507.8667  0.0743     1190.6945  0.5771     0.5610     3491.5203  1.0500     14288.3330 6.7392     6.4703    
6051.0000  33.6094    19.7860    14.7301    9.2954     7.6413     8.5000     3.6355     3.6355     3.7134     60.1994    94.2799    97.8185    94.9881    0.0107     17.0670    8.6175     3119.5093  0.4300     -999.2500  0.1832     0.1806     2.4865     1.0679     3.6842     0.0897     2505.4668  0.0699     1240.1949  0.5851     0.5710     3540.3594  1.0500     14882.3389 6.7935     6.5558    
6051.5000  34.8649    20.1973    15.1040    9.5506     8.0155     8.5000     3.6536     3.6536     3.6960     60.0633    94.2243    97.6609    95.3454    0.0058     22.1055    8.6066     3124.8560  0.4300     -999.2500  0.1812     0.1798     2.4936     1.0651     3.5819     0.0888     2496.0667  0.0680     1250.7244  0.5807     0.5730     3513.9343  1.0500     15008.6924 6.7586     6.6287    
6052.0000  36.5651    21.0627    15.7252    9.8911     8.4558     8.5000     3.5706     3.8164     3.6836     60.6411    93.9198    97.0989    95.5980    0.0158     23.6185    8.6138     2983.8445  0.4300     -999.2500  0.1253     0.1450     2.4984     1.0627     3.3286     0.0929     2502.5000  0.0675     1178.5577  0.5105     0.5344     3089.1694  1.0500     14142.6934 5.8341     6.7539    
6052.5000  39.4641    22.0226    16.3324    10.2116    8.8975     8.5000     3.6215     3.8638     3.6430     60.5367    93.3747    96.4476    96.1630    0.0030     27.2412    8.6211     2883.4915  0.4300     -999.2500  0.1212     0.1397     2.5002     1.0598     3.2376     0.0921     2494.6001  0.0722     1157.5066  0.5068     0.5295     3066.8306  1.0500     13890.0791 5.9077     6.8086    
6053.0000  41.6905    23.0322    16.8796    10.4919    9.2713     8.5000     3.6671     3.9064     3.6081     60.2283    92.7696    95.7482    96.5279    -0.0080    23.9332    8.6138     2897.0632  0.4300     -999.2500  0.1200     0.1379     2.4950     1.0574     3.1600     0.0900     2492.3333  0.0776     1168.4557  0.5063     0.5284     3064.3806  1.0500     14021.4678 5.9956     6.8859    
6053.5000  45.0976    24.0597    17.3431    10.6671    9.5233     8.5000     3.7546     3.9395     3.5453     59.7224    92.2743    94.5199    97.2699    -0.0279    22.7557    8.6066     3002.0234  0.4300     -999.2500  0.1270     0.1413     2.4894     1.0536     2.4043     0.0864     2483.6667  0.0781     1209.2306  0.5156     0.5333     3120.9753  1.0500     14510.7676 6.2450     6.9473    
6054.0000  45.8127    24.7407    17.5283    10.6968    9.5988     8.5000     3.7941     3.9265     3.4655     59.3004    92.3331    93.9303    98.2825    -0.0433    17.8911    8.5921     3124.1555  0.4300     -999.2500  0.1393     0.1504     2.4843     1.0506     1.7150     0.0834     2512.3999  0.0702     1253.8643  0.5299     0.5434     3207.6895  1.0500     15046.3721 6.4129     6.9278    
6054.5000  45.0987    25.3490    17.6204    10.6436    9.5361     8.5000     3.7318     3.8490     3.4195     59.5168    93.3334    94.7878    99.0215    -0.0418    15.2677    8.5849     3127.3289  0.4300     -999.2500  0.1480     0.1588     2.4883     1.0462     1.5463     0.0849     2507.8667  0.0670     1252.3998  0.5388     0.5516     3261.7351  1.0500     15028.7969 6.3478     6.8098    
6055.0000  42.2349    25.5808    17.3342    10.3870    9.2227     8.5000     3.5858     3.7083     3.3188     59.5976    95.2519    96.8656    100.6872   -0.0372    15.1783    8.5704     3201.5234  0.4300     -999.2500  0.1669     0.1804     2.4970     1.0422     1.6799     0.0855     2499.6667  0.0669     1283.7153  0.5593     0.5746     3386.0361  1.0500     15404.5840 6.2003     6.7004    
6055.5000  36.5850    23.6853    15.7797    9.7282     8.5601     8.5000     3.4343     3.5574     3.1996     60.2583    97.2754    99.0032    102.5706   -0.0342    18.9285    8.5849     3084.1199  0.4300     -999.2500  0.1760     0.1911     2.4982     1.0381     1.7606     0.0902     2523.3333  0.0673     1242.0510  0.5684     0.5852     3441.6184  1.0500     14904.6123 6.0294     6.5442    
