~Version
 VERS              .         2.0                           : CWLS LOG ASCII STANDARD - VERSION 2.0
 WRAP              .         NO                            : ONE LINE PER DEPTH STEP
 DLM               .         SPACE                         : DELIMITING CHARACTER(SPACE TAB OR COMMA)
~Well Information
#_______________________________________________________________________________
#
#PARAMETER_NAME    .UNIT     VALUE                         : DESCRIPTION
#_______________________________________________________________________________
STRT               .ft       4040.0000                     : First reference value
STOP               .ft       7050.0000                     : Last reference value
STEP               .ft       0.5000                        : Step increment
NULL               .         -999.25                       : Missing value
COMP               .         One Earth Energy              : Company
WELL               .         OEE #1                        : Well name
FLD                .         OEE                           : Field
LOC                .                                       : Location
PROV               .         Illinois                      : Province
SRVC               .         Schlumberger                  : Service Company
DATE               .         26-Dec-2021                   : Date
UWI                .         12-113-25373-00               : Unique Well ID
APD                .ft       15                            : Elevation of Depth Reference (LMF) Above Permanent Datum
API                .         12-113-25373-00               : API NUMBER
BHS                .         OPEN                          : Borehole Status (Open or Cased Hole)
BHT                .degF     93.71                         : Bottom Hole Temperature
BLI                .ft       4052                          : Bottom Log Interval
BS                 .in       12.25                         : Bit Size
CBDR               .ft       374                           : Casing Bottom of Driller
CBLO               .ft       374                           : Logger Casing Shoe Depth
CNTY               .         McLean                        : COUNTY
CSIZ               .in       13.375                        : Current Casing Size
CWEI               .lbm/ft   54.5                          : Casing Weight
CTRY               .         United States of America - US : Nation
DCS                .         23-Dec-2021                   : Date Circulation Stopped
DFD                .lbm/gal  9.25                          : Drilling Fluid Density
DFT                .         WATER                         : Drilling Fluid Type
DLAB               .         26-Dec-2021                   : Date Logger At Bottom
EDF                .ft       840.0001                      : Elevation of Drill Floor
EGL                .ft       826                           : Elevation of Ground Level
EKB                .ft       841                           : Elevation of Kelly Bushing
EPD                .ft       826                           : Elevation of Permanent Datum (PDAT) above Mean Sea Level
GDAT               .                                       : GeoDetic Datum
LMF                .         KB                            : Logging Measured From (Name of Logging Elevation Reference)
LUL                .         Bradford                      : Logging Unit Location
LUN                .         2266                          : Logging Unit Number
LATI               .         40.485663 degrees             : Latitude
LONG               .         -88.468241 degrees            : Longitude
MCST               .degF     67.9                          : Mudcake Sample Temperature
MFST               .degF     66.3                          : Mud Filtrate Sample Temperature
MRT                .degF     93.71                         : Maximum Recorded Temperature
MST                .degF     65.4                          : Mud Sample Temperature
ORIGINALWELLNAME   .         OEE #1                        : 
PDAT               .         GL                            : Permanent Datum
PRODUCER-CODE      .         440                           : 
PRODUCER-NAME      .         Schlumberger                  : 
RMB                .ohm.m    3.533802                      : Resistivity of Mud at Bottom Hole Temperature
RMCS               .ohm.m    6.12                          : Resistivity of Mud Cake Sample
RMFS               .ohm.m    3.85                          : Resistivity of Mud Filtrate Sample
RMS                .ohm.m    4.92                          : Resistivity of Mud Sample
RUN                .         1C                            : Run Number
STAT               .         Illinois                      : State or Province
TCS                .         23_45_00                      : Time Circulation Stopped
TDD                .ft       4052                          : Driller Total Depth
TDL                .ft       4052                          : Logger Total Depth
TLAB               .         02_57_00                      : Time Logger At Bottom
TLI                .ft       379                           : Top Log Interval
~Parameter Information Block
#_______________________________________________________________________________
#
#PARAMETER_NAME    .UNIT     VALUE                         : DESCRIPTION
#_______________________________________________________________________________
SET                .         LQC_MP_043_Deliverables       : 
TLFamily_AT10      .         Resistivity - Induction Array 10: 
TLFamily_AT20      .         Resistivity - Induction Array 20: 
TLFamily_AT30      .         Resistivity - Induction Array 30: 
TLFamily_AT60      .         Resistivity - Induction Array 60: 
TLFamily_AT90      .         Resistivity - Induction Array 90: 
TLFamily_BS        .         Bit Size                      : 
TLFamily_C44       .         Elastic Modulus               : 
TLFamily_C55       .         Elastic Modulus               : 
TLFamily_C66       .         Elastic Modulus               : 
TLFamily_DTCO_MF_DDBHC .         Compressional Slowness        : 
TLFamily_DTSH_FAST .         Fast Shear Slowness           : 
TLFamily_DTSH_SLOW .         Slow Shear Slowness           : 
TLFamily_DTSH_STRVP .         Stoneley Shear Slowness       : 
TLFamily_GAMMA     .         Regularization Factor         : 
TLFamily_GR_EDTC   .         Gamma Ray                     : 
TLFamily_HCAL      .         Caliper                       : 
TLFamily_ISHE      .         Shear Strength                : 
TLFamily_MD        .         Measured Depth                : 
TLFamily_PPGI_MP_TD .         Pore Pressure Gradient        : 
TLFamily_PPGI_PorePressure .         Pore Pressure Gradient        : 
TLFamily_PR_HH     .         Poisson Ratio (Dynamic)       : 
TLFamily_PR_VH     .         Poisson Ratio (Dynamic)       : 
TLFamily_RHOZ      .         Bulk Density                  : 
TLFamily_SDEVM     .         Sonde Deviation               : 
TLFamily_SLOANI    .         Acoustic Anisotropy           : 
TLFamily_SPHI      .         Total Porosity                : 
TLFamily_TENS      .         Tension                       : 
TLFamily_TNPH      .         Thermal Neutron Porosity      : 
TLFamily_TSTR      .         Tensile Strength              : 
TLFamily_TXSG_ANISO .         Minimum Horizontal Stress Gradient: 
TLFamily_TXSG_ISO  .         Minimum Horizontal Stress Gradient: 
TLFamily_TXSP_ANISO .         Minimum Horizontal Stress     : 
TLFamily_TZSG      .         Vertical Stress Gradient      : 
TLFamily_UCS       .         Compressive Strength          : 
TLFamily_YME_H_STA .         Young's Modulus (Dynamic)     : 
TLFamily_YME_V_STA .         Young's Modulus (Dynamic)     : 
~Curve Information
#_______________________________________________________________________________
#
#LOGNAME           .UNIT     LOG_ID                        : DESCRIPTION
#_______________________________________________________________________________
MD                 .ft                                     : Measured DEPTH 
AT10               .ohm.m                                  : Array Induction Two Foot Resistivity A10 
AT20               .ohm.m                                  : Array Induction Two Foot Resistivity A20 
AT30               .ohm.m                                  : Array Induction Two Foot Resistivity A30 
AT60               .ohm.m                                  : Array Induction Two Foot Resistivity A60 
AT90               .ohm.m                                  : Array Induction Two Foot Resistivity A90 
BS                 .in                                     : Bit Size 
C44                .Mpsi                                   : C44 Modulus 
C55                .Mpsi                                   : C55 Modulus 
C66                .Mpsi                                   : C66 Modulus 
DTCO_MF_DDBHC      .us/ft                                  : Compressional slowness 
DTSH_FAST          .us/ft                                  : Shear slowness 
DTSH_SLOW          .us/ft                                  : Shear slowness 
DTSH_STRVP         .us/ft                                  : Stoneley Shear Slowness 
GAMMA              .unitless                               : Thomsens Anisotropy Parameter Gamma 
GR_EDTC            .gAPI                                   : Gamma Ray 
HCAL               .in                                     : HRCC Caliper Calibrated 
ISHE               .psi                                    : Cohesive Strength 
PPGI_MP_TD         .psi/ft                                 : Pore Pressure Gradient 
PPGI_PorePressure  .psi/ft                                 : Pore Pressure Gradient from XRP
PR_HH              .unitless                               : Poissons Ratio - Loading Horizontal - Displacement Horizontal 
PR_VH              .unitless                               : Poissons Ratio - Loading Vertical - Displacement Horizontal 
RHOZ               .g/cm3                                  : Standard Resolution Formation Density 
SDEVM              .deg                                    : Memorized Sonde Deviation 
SLOANI             .%                                      : Slowness-based Anisotropy 
SPHI               .ft3/ft3                                : Total porosity from Sonic 
TENS               .lbf                                    : Cable Tension 
TNPH               .ft3/ft3                                : Thermal Neutron Porosity (Ratio Method) in Selected Lithology 
TSTR               .psi                                    : Tensile Strength 
TXSG_ANISO         .psi/ft                                 : Anisotropic Minimum Horizontal Stress Gradient 
TXSG_ISO           .psi/ft                                 : Isotropic Minimum Horizontal Stress Gradient 
TXSP_ANISO         .psi                                    : Anisotropic Minimum Horizontal Stress 
TZSG               .psi/ft                                 : Overburden Stress Gradient 
UCS                .psi                                    : Unconfined Compressive Strength 
YME_H_STA          .Mpsi                                   :  Static Horizontal Youngs Modulus 
YME_V_STA          .Mpsi                                   : Static Vertical Youngs Modulus 
~Ascii
# ...
5846.0000  35.4756    22.6107    16.7432    10.1027    8.2909     8.5000     3.2460     4.0925     3.0218     58.9219    90.6012    101.7309   105.4385   -0.0345    27.8261    9.0089     3147.1670  0.4300     -999.2500  0.0878     0.1399     2.4932     1.4880     11.5734    0.0847     2487.2144  0.0669     1269.9597  0.4658     0.5322     2722.7634  1.0500     15239.5166 4.5370     7.2344    
5846.5000  35.4021    22.7130    16.8069    10.1621    8.3426     8.5000     3.2175     4.5140     3.1613     56.7815    86.1702    102.0652   102.9693   -0.0087    25.7037    8.9980     3542.8860  0.4300     -999.2500  0.0644     0.1226     2.4875     1.4863     16.8885    0.0656     2467.7332  0.0623     1430.9795  0.4398     0.5206     2571.1431  1.0500     17171.7539 4.1335     7.8732    
5847.0000  35.2364    22.6178    16.9032    10.2189    8.4295     8.5000     3.2196     4.5521     3.2595     55.2580    85.8358    102.0652   101.4386   0.0062     23.0463    8.9763     4180.6113  0.4300     -999.2500  0.0799     0.1565     2.4891     1.4852     17.2744    0.0548     2457.0000  0.0588     1679.5670  0.4579     0.5568     2676.8518  1.0500     20154.8047 4.1999     8.2206    
5847.5000  35.1224    22.5267    16.8770    10.2915    8.4758     8.5000     3.2273     4.5277     3.4038     54.7815    86.1702    102.0652   99.3832    0.0274     20.2813    8.9872     4678.5210  0.4300     -999.2500  0.0891     0.1733     2.4951     1.4838     16.8885    0.0552     2468.2856  0.0577     1836.4681  0.4691     0.5751     2742.8711  1.0500     22037.6172 4.2901     8.3466    
5848.0000  35.7104    23.0574    17.1985    10.4415    8.6068     8.5000     3.1980     4.5105     3.4833     55.1161    86.5045    102.7339   98.4364    0.0446     19.2135    8.9654     4798.5947  0.4300     -999.2500  0.0869     0.1705     2.5049     1.4831     17.1523    0.0621     2480.4668  0.0571     1847.5275  0.4663     0.5719     2726.7146  1.0500     22170.3301 4.2429     8.3194    
5848.5000  36.4090    23.5546    17.5598    10.5668    8.7527     8.5000     3.1953     4.4040     3.5064     56.8499    87.5076    102.7339   98.0707    0.0487     19.2425    8.9763     4157.4395  0.4300     -999.2500  0.0768     0.1432     2.5028     1.4822     16.0074    0.0777     2469.5000  0.0575     1591.5085  0.4539     0.5410     2654.2063  1.0500     19098.1035 4.2455     7.9173    
5849.0000  37.1621    24.0757    17.9518    10.7066    8.9194     8.5000     3.2399     4.3740     3.5040     57.6649    87.8419    102.0652   98.1432    0.0408     16.5233    8.9654     3784.6619  0.4300     -999.2500  0.0714     0.1277     2.5048     1.4815     14.9792    0.0882     2485.3572  0.0599     1461.1138  0.4482     0.5245     2621.3865  1.0500     17533.3652 4.3265     7.7424    
5849.5000  37.7199    24.8566    18.4374    10.8739    9.0936     8.5000     3.2170     4.2735     3.4673     58.1573    88.8450    102.3996   98.6348    0.0389     17.2441    8.9618     3649.2571  0.4300     -999.2500  0.0755     0.1317     2.5034     1.4805     14.1751    0.0957     2482.8000  0.0605     1414.3741  0.4526     0.5272     2647.2913  1.0500     16972.4883 4.3700     7.6182    
5850.0000  37.8653    25.4624    18.7556    11.0188    9.2619     8.5000     3.2851     4.2469     3.4054     58.4035    89.1793    101.3965   99.5902    0.0183     19.1528    8.9546     3391.0151  0.4300     -999.2500  0.0785     0.1305     2.5066     1.4791     12.8213    0.0966     2487.5715  0.0601     1350.9063  0.4571     0.5264     2673.9299  1.0500     16210.8750 4.5729     7.5998    
5850.5000  38.4972    25.7543    19.0142    11.0883    9.4068     8.5000     3.3325     4.1885     3.3269     58.4035    89.8480    100.7278   100.8136   -0.0009    23.3888    8.9437     3273.9658  0.4300     -999.2500  0.0886     0.1405     2.5094     1.4770     11.4178    0.0964     2454.9333  0.0595     1333.9082  0.4691     0.5363     2743.9485  1.0500     16006.8984 4.7614     7.5510    
5851.0000  37.1762    25.1590    18.1199    10.9496    9.2648     8.5000     3.3797     4.1606     3.2465     58.8959    90.1824    100.0591   102.0917   -0.0197    25.5190    8.9618     3159.3000  0.4300     -999.2500  0.0876     0.1336     2.5112     1.4747     10.3834    0.0951     2445.3572  0.0582     1281.2942  0.4681     0.5280     2738.5986  1.0500     15375.5303 4.8482     7.3876    
5851.5000  37.7697    24.7239    18.4398    10.7191    9.0885     8.5000     3.3978     4.1549     3.1701     58.4035    90.1824    99.7248    103.2445   -0.0335    23.5279    8.9654     3323.7317  0.4300     -999.2500  0.0960     0.1450     2.5078     1.4714     10.0495    0.0944     2472.6428  0.0589     1340.5483  0.4773     0.5394     2792.5225  1.0500     16086.5811 4.8800     7.3701    
5852.0000  36.5051    22.5948    16.7188    10.8362    9.0991     8.5000     3.3786     4.1315     3.0969     57.4187    90.1824    99.7248    104.1630   -0.0417    21.6463    8.9546     3621.1750  0.4300     -999.2500  0.1101     0.1673     2.4937     1.4683     10.0495    0.0963     2442.7334  0.0605     1454.9706  0.4931     0.5627     2885.2212  1.0500     17459.6465 4.8767     7.4137    
5852.5000  37.0455    23.9555    17.1601    10.9862    9.4244     8.5000     3.3958     4.0344     3.0526     55.9415    91.1854    99.3904    104.8288   -0.0505    20.0600    8.9219     4173.8096  0.4300     -999.2500  0.1441     0.2096     2.4895     1.4648     8.6107     0.0973     2444.4287  0.0631     1674.8055  0.5351     0.6106     3131.6272  1.0500     20097.6660 5.1420     7.4813    
5853.0000  41.4755    26.6402    18.2360    11.0517    9.4528     8.5000     3.3877     3.9955     3.0183     55.9415    91.5198    99.3904    105.2971   -0.0545    21.5521    8.9328     4171.7988  0.4300     -999.2500  0.1485     0.2131     2.4836     1.4604     8.2454     0.0966     2450.5000  0.0639     1671.7607  0.5403     0.6142     3162.0020  1.0500     20061.1289 5.1630     7.4101    
5853.5000  43.0511    27.4821    19.2998    11.1491    9.6936     8.5000     3.3905     3.9410     3.0094     56.4339    92.1885    99.3904    105.4970   -0.0562    22.5205    8.9256     4031.4412  0.4300     -999.2500  0.1512     0.2107     2.4857     1.4577     7.5185     0.0945     2473.3333  0.0661     1614.9551  0.5431     0.6110     3178.9846  1.0500     19379.4609 5.2324     7.2892    
5854.0000  44.2256    27.4790    18.3535    10.7645    9.3461     8.5000     3.3942     3.9453     2.9978     56.9263    92.1885    99.3904    105.7592   -0.0584    21.2563    8.9183     3868.9429  0.4300     -999.2500  0.1448     0.2013     2.4884     1.4552     7.5185     0.0923     2445.1428  0.0670     1551.7158  0.5350     0.6000     3131.3638  1.0500     18620.5898 5.2218     7.2586    
5854.5000  44.8859    27.3739    17.9070    10.5359    9.1443     8.5000     3.4010     3.9247     2.9972     58.8959    92.5228    99.3904    105.8742   -0.0594    20.4894    8.9111     3266.8354  0.4300     -999.2500  0.1219     0.1656     2.4934     1.4528     7.1570     0.0922     2448.9333  0.0675     1314.5050  0.5066     0.5589     2965.4192  1.0500     15774.0596 5.1902     7.0530    
5855.0000  44.8658    26.9125    17.3154    10.2304    8.8684     8.5000     3.4098     3.9348     2.9975     59.0625    92.5228    99.3904    106.0054   -0.0605    20.6119    8.9111     3220.3328  0.4300     -999.2500  0.1194     0.1621     2.4998     1.4511     7.1570     0.0933     2467.5715  0.0664     1301.4484  0.5043     0.5559     2952.2041  1.0500     15617.3799 5.2380     7.1123    
5855.5000  43.8046    26.1174    16.6113    9.7506     8.3935     8.5000     3.4136     3.9108     2.9988     59.1950    92.8572    99.3904    106.0415   -0.0608    21.6209    8.9111     3195.0354  0.4300     -999.2500  0.1221     0.1635     2.5026     1.4492     6.7967     0.0933     2460.2859  0.0656     1295.0951  0.5079     0.5578     2973.4492  1.0500     15541.1416 5.3176     7.1202    
5856.0000  42.1192    24.8582    15.8013    9.3233     7.9690     8.5000     3.4154     3.8026     2.9997     58.1573    94.1946    99.3904    106.0530   -0.0609    23.8535    8.9219     3557.8110  0.4300     -999.2500  0.1565     0.1990     2.5039     1.4474     5.3680     0.0902     2478.2856  0.0659     1442.4139  0.5499     0.5988     3219.8242  1.0500     17308.9688 5.6115     7.1371    
