~Version
 VERS              .         2.0                           : CWLS LOG ASCII STANDARD - VERSION 2.0
 WRAP              .         NO                            : ONE LINE PER DEPTH STEP
 DLM               .         SPACE                         : DELIMITING CHARACTER(SPACE TAB OR COMMA)
~Well Information
#_______________________________________________________________________________
#
#PARAMETER_NAME    .UNIT     VALUE                         : DESCRIPTION
#_______________________________________________________________________________
STRT               .ft       4040.0000                     : First reference value
STOP               .ft       7075.0000                     : Last reference value
STEP               .ft       0.5000                        : Step increment
NULL               .         -999.25                       : Missing value
COMP               .         One Earth Energy              : Company
WELL               .         OEE #1                        : Well name
FLD                .         OEE                           : Field
LOC                .                                       : Location
PROV               .         Illinois                      : Province
SRVC               .         Schlumberger                  : Service Company
DATE               .         26-Dec-2021                   : Date
UWI                .         12-113-25373-00               : Unique Well ID
APD                .ft       15                            : Elevation of Depth Reference (LMF) Above Permanent Datum
API                .         12-113-25373-00               : API NUMBER
BHS                .         OPEN                          : Borehole Status (Open or Cased Hole)
BHT                .degF     93.71                         : Bottom Hole Temperature
BLI                .ft       4052                          : Bottom Log Interval
BS                 .in       12.25                         : Bit Size
CBDR               .ft       374                           : Casing Bottom of Driller
CBLO               .ft       374                           : Logger Casing Shoe Depth
CNTY               .         McLean                        : COUNTY
CSIZ               .in       13.375                        : Current Casing Size
CWEI               .lbm/ft   54.5                          : Casing Weight
CTRY               .         United States of America - US : Nation
DCS                .         23-Dec-2021                   : Date Circulation Stopped
DFD                .lbm/gal  9.25                          : Drilling Fluid Density
DFT                .         WATER                         : Drilling Fluid Type
DLAB               .         26-Dec-2021                   : Date Logger At Bottom
EDF                .ft       840.0001                      : Elevation of Drill Floor
EGL                .ft       826                           : Elevation of Ground Level
EKB                .ft       841                           : Elevation of Kelly Bushing
EPD                .ft       826                           : Elevation of Permanent Datum (PDAT) above Mean Sea Level
GDAT               .                                       : GeoDetic Datum
LMF                .         KB                            : Logging Measured From (Name of Logging Elevation Reference)
LUL                .         Bradford                      : Logging Unit Location
LUN                .         2266                          : Logging Unit Number
LATI               .         40.485663 degrees             : Latitude
LONG               .         -88.468241 degrees            : Longitude
MCST               .degF     67.9                          : Mudcake Sample Temperature
MFST               .degF     66.3                          : Mud Filtrate Sample Temperature
MRT                .degF     93.71                         : Maximum Recorded Temperature
MST                .degF     65.4                          : Mud Sample Temperature
ORIGINALWELLNAME   .         OEE #1                        : 
PDAT               .         GL                            : Permanent Datum
PRODUCER-CODE      .         440                           : 
PRODUCER-NAME      .         Schlumberger                  : 
RMB                .ohm.m    3.533802                      : Resistivity of Mud at Bottom Hole Temperature
RMCS               .ohm.m    6.12                          : Resistivity of Mud Cake Sample
RMFS               .ohm.m    3.85                          : Resistivity of Mud Filtrate Sample
RMS                .ohm.m    4.92                          : Resistivity of Mud Sample
RUN                .         1C                            : Run Number
STAT               .         Illinois                      : State or Province
TCS                .         23_45_00                      : Time Circulation Stopped
TDD                .ft       4052                          : Driller Total Depth
TDL                .ft       4052                          : Logger Total Depth
TLAB               .         02_57_00                      : Time Logger At Bottom
TLI                .ft       379                           : Top Log Interval
~Parameter Information Block
#_______________________________________________________________________________
#
#PARAMETER_NAME    .UNIT     VALUE                         : DESCRIPTION
#_______________________________________________________________________________
SET                .         LQC                           : 
TLFamily_AT10      .         Resistivity - Induction Array 10: 
TLFamily_AT20      .         Resistivity - Induction Array 20: 
TLFamily_AT30      .         Resistivity - Induction Array 30: 
TLFamily_AT60      .         Resistivity - Induction Array 60: 
TLFamily_AT90      .         Resistivity - Induction Array 90: 
TLFamily_BS        .         Bit Size                      : 
TLFamily_Calcite_QE .        Calcite Volume Fraction       : 
TLFamily_HCAL      .         Caliper                       : 
TLFamily_HCGR      .         Gamma Ray Minus Uranium       : 
TLFamily_HSGR      .         Gamma Ray                     : 
TLFamily_HTHO      .         Thorium Concentration         : 
TLFamily_Illite_QE .         Illite Volume Fraction        : 
TLFamily_KINT_GEO_QE .       Permeability                  : 
TLFamily_KSDR_CMR  .         NMR Permeability              : 
TLFamily_MD        .         Measured Depth                : 
TLFamily_MRP_CMR   .         NMR Porosity                  : 
TLFamily_MRP_CMR_Edited .    NMR Porosity                  : 
TLFamily_MRP_CMR_Edited_REC_QE .NMR Porosity               : 
TLFamily_PHIT_QE   .         Total Porosity                : 
TLFamily_PIGN_QE   .         Effective Porosity            : 
TLFamily_Pyrite_QE .         Pyrite Volume Fraction        : 
TLFamily_Quartz_QE .         Quartz Volume Fraction        : 
TLFamily_RHGA_GEO_QE .       Grain Density                 : 
TLFamily_RHOZ      .         Bulk Density                  : 
TLFamily_TNPH_LIM  .         Thermal Neutron Porosity Limestone: 
TLFamily_UWater_QE .         Undisturbed Zone Water Volume Fraction: 
TLFamily_VCL_GEO_QE .        Clay Volume Fraction          : 
TLFamily_WANH_WALK2 .        Anhydrite Weight Fraction     : 
TLFamily_WCAR_WALK2 .        Carbonate Weight Fraction     : 
TLFamily_WCLA_WALK2 .        Clay Weight Fraction          : 
TLFamily_WCOA_WALK2 .        Coal Weight Fraction          : 
TLFamily_WPYR_WALK2 .        Pyrite Weight Fraction        : 
TLFamily_WQFM_WALK2 .        Quartz-Feldspar-Mica Weight Fraction: 
~Curve Information
#_______________________________________________________________________________
#
#LOGNAME           .UNIT     LOG_ID                        : DESCRIPTION
#_______________________________________________________________________________
MD                 .ft                                     : Measured DEPTH 
AT10               .ohm.m                                  : Array Induction Two Foot Resistivity A10 
AT20               .ohm.m                                  : Array Induction Two Foot Resistivity A20 
AT30               .ohm.m                                  : Array Induction Two Foot Resistivity A30 
AT60               .ohm.m                                  : Array Induction Two Foot Resistivity A60 
AT90               .ohm.m                                  : Array Induction Two Foot Resistivity A90 
BS                 .in                                     : Bit Size 
Calcite_QE         .v/v                                    : Calcite Volume Fraction 
HCAL               .in                                     : HRCC Caliper Calibrated 
HCGR               .gAPI                                   : HNGS Computed Gamma Ray 
HSGR               .gAPI                                   : HNGS Standard Gamma-Ray 
HTHO               .ppm                                    : HNGS Formation Thorium Concentration 
Illite_QE          .v/v                                    : Illite Volume Fraction 
KINT_GEO_QE        .mD                                     : Permeability (Juhasz 1979) 
KSDR_CMR           .mD                                     : SDR Permeability 
MRP_CMR            .ft3/ft3                                : Magnetic Resonance Porosity 
MRP_CMR_Edited     .ft3/ft3                                : Magnetic Resonance Porosity 
MRP_CMR_Edited_REC_QE .ft3/ft3                             : Quanti.Elan Reconstructed curve 
PHIT_QE            .v/v                                    : Total Porosity 
PIGN_QE            .v/v                                    : Effective porosity (with irreducible water) 
Pyrite_QE          .v/v                                    : Pyrite Volume Fraction 
Quartz_QE          .v/v                                    : Quartz Volume Fraction 
RHGA_GEO_QE        .g/cm3                                  : Apparent grain density 
RHOZ               .g/cm3                                  : Standard Resolution Formation Density 
TNPH_LIM           .ft3/ft3                                : Thermal Neutron Porosity (matrix Limestone) 
UWater_QE          .v/v                                    : Undisturbed Zone Water Volume Fraction 
VCL_GEO_QE         .v/v                                    : Clay fraction 
WANH_WALK2         .lbm/lbm                                : Dry Weight Fraction Anhydrite/Gypsum 
WCAR_WALK2         .lbm/lbm                                : Dry Weight Fraction Carbonate 
WCLA_WALK2         .lbm/lbm                                : Dry Weight Fraction Clay 
WCOA_WALK2         .lbm/lbm                                : Dry Weight Fraction Coal 
WPYR_WALK2         .lbm/lbm                                : Dry Weight Fraction Pyrite from WALK2 Model 
WQFM_WALK2         .lbm/lbm                                : Dry Weight Fraction Quartz+Feldspar+Mica (QFM) 
~Ascii
# ...
5052.0000  27.9335    16.4394    11.4261    7.2531     6.3941     8.5000     0.0000     8.3819     33.9193    38.2862    5.0028     0.0099     54.5672    79.8686    0.1204     0.1204     0.1199     0.1194     0.1182     0.0002     0.7975     2.6454     2.4488     0.0607     0.0791     0.0111     0.0000     0.0000     0.0129     0.0000     0.0000     0.9871    
5052.5000  29.7357    15.9434    11.2003    7.0441     6.1737     8.5000     0.0002     8.3674     28.5956    31.6517    4.3308     0.0141     39.5230    100.1138   0.1174     0.1174     0.1174     0.1154     0.1136     0.0006     0.8114     2.6485     2.4557     0.0565     0.0816     0.0159     0.0000     0.0000     0.0177     0.0000     0.0018     0.9805    
5053.0000  32.0463    15.0209    11.0389    6.9031     5.9957     8.5000     0.0001     8.3783     23.3033    25.7949    3.5949     0.0069     42.0155    112.5064   0.1141     0.1141     0.1146     0.1138     0.1130     0.0000     0.8306     2.6467     2.4548     0.0494     0.0827     0.0078     0.0000     0.0000     0.0087     0.0000     0.0003     0.9910    
5053.5000  33.4730    14.5863    10.9018    6.7483     5.8015     8.5000     0.0000     8.3964     21.5376    23.6464    3.4077     0.0042     49.4417    124.9464   0.1152     0.1152     0.1157     0.1176     0.1170     0.0000     0.8339     2.6466     2.4511     0.0501     0.0832     0.0047     0.0000     0.0000     0.0053     0.0000     0.0000     0.9947    
5054.0000  32.8863    13.6745    10.6255    6.5152     5.5862     8.5000     0.0000     8.3964     20.4538    22.9960    3.3918     0.0011     56.1904    135.8048   0.1196     0.1196     0.1191     0.1207     0.1205     0.0007     0.8368     2.6483     2.4567     0.0526     0.0838     0.0012     0.0000     0.0000     0.0019     0.0000     0.0000     0.9981    
5054.5000  31.1858    13.2886    10.1119    6.3008     5.3272     8.5000     0.0000     8.4254     19.9038    23.5284    3.4999     0.0044     52.3705    148.0910   0.1228     0.1228     0.1213     0.1219     0.1214     0.0010     0.8369     2.6502     2.4609     0.0578     0.0857     0.0050     0.0000     0.0000     0.0063     0.0000     0.0000     0.9937    
5055.0000  23.3610    12.6393    9.4487     5.9889     5.0288     8.5000     0.0000     8.4326     19.5287    23.2290    3.4536     0.0088     46.4926    155.2365   0.1233     0.1233     0.1217     0.1214     0.1203     0.0008     0.8356     2.6506     2.4609     0.0571     0.0887     0.0100     0.0000     0.0000     0.0116     0.0000     0.0000     0.9884    
5055.5000  15.2725    10.7712    8.3619     5.5353     4.6483     8.5000     0.0000     8.4471     18.8951    22.3279    3.1261     0.0115     44.6007    148.2169   0.1219     0.1219     0.1212     0.1210     0.1195     0.0000     0.8331     2.6488     2.4517     0.0591     0.0929     0.0129     0.0000     0.0000     0.0142     0.0000     0.0002     0.9856    
5056.0000  10.8527    9.1187     7.4437     5.2280     4.3852     8.5000     0.0007     8.4399     17.0631    21.0010    2.6716     0.0163     35.7973    111.8543   0.1185     0.1185     0.1195     0.1181     0.1160     0.0000     0.8336     2.6498     2.4468     0.0594     0.0969     0.0184     0.0000     0.0000     0.0197     0.0000     0.0023     0.9780    
5056.5000  9.8327     8.7079     7.1968     5.1853     4.3431     8.5000     0.0008     8.4761     18.1232    22.3903    2.6569     0.0156     29.5266    53.6244    0.1116     0.1116     0.1146     0.1111     0.1091     0.0000     0.8357     2.6492     2.4468     0.0619     0.0993     0.0176     0.0000     0.0000     0.0194     0.0000     0.0021     0.9785    
5057.0000  10.6589    9.0655     7.4947     5.4672     4.5603     8.5000     0.0011     8.4870     30.0127    36.4218    4.3979     0.0289     15.9720    23.6268    0.1069     0.1069     0.1109     0.0990     0.0953     0.0000     0.8115     2.6493     2.4686     0.0645     0.0953     0.0325     0.0000     0.0000     0.0368     0.0000     0.0024     0.9608    
5057.5000  12.3426    9.1167     7.8536     5.9414     4.9241     8.5000     0.0007     8.5051     63.8830    77.8489    9.3774     0.0499     7.4061     2.7839     0.0931     0.0931     0.0988     0.0833     0.0770     0.0005     0.7359     2.6475     2.5201     0.0846     0.0770     0.0563     0.0000     0.0000     0.0684     0.0000     0.0000     0.9316    
5058.0000  16.9628    10.6122    9.5990     7.2074     5.7262     8.5000     0.0000     8.5631     111.0830   135.5390   16.2351    0.0732     3.0687     0.1263     0.0743     0.0743     0.0833     0.0681     0.0587     0.0029     0.6253     2.6484     2.5782     0.1256     0.0587     0.0826     0.0000     0.0000     0.1108     0.0000     0.0000     0.8892    
5058.5000  22.0792    13.0122    11.9205    8.4460     7.0670     8.5000     0.0000     8.6283     150.2454   181.8907   21.6979    0.0933     1.9699     0.0023     0.0594     0.0594     0.0681     0.0623     0.0504     0.0040     0.5244     2.6470     2.6170     0.1804     0.0504     0.1053     0.0000     0.0000     0.1549     0.0000     0.0000     0.8451    
5059.0000  32.8401    15.3773    15.3028    10.2772    9.2336     8.5000     0.0000     8.6392     164.6578   196.9306   23.2451    0.0982     2.8777     0.0028     0.0585     0.0585     0.0627     0.0665     0.0539     0.0037     0.4779     2.6438     2.6134     0.1954     0.0539     0.1107     0.0000     0.0000     0.1714     0.0000     0.0000     0.8286    
5059.5000  39.7861    16.8452    20.0560    12.7963    12.1070    8.5000     0.0000     8.5704     145.0889   169.8166   19.5356    0.0833     6.4767     0.0166     0.0633     0.0633     0.0644     0.0761     0.0655     0.0028     0.5128     2.6417     2.5807     0.2141     0.0651     0.0939     0.0000     0.0000     0.1409     0.0000     0.0000     0.8591    
5060.0000  45.8229    26.3758    25.3818    15.3300    15.6207    8.5000     0.0000     8.5341     104.1922   120.7982   13.2888    0.0827     8.2553     0.2978     0.0755     0.0755     0.0713     0.0901     0.0795     0.0020     0.5919     2.6474     2.5328     0.1639     0.0532     0.0933     0.0000     0.0000     0.1254     0.0000     0.0000     0.8746    
5060.5000  43.7964    31.4650    31.4114    16.8632    20.3647    8.5000     0.0000     8.4326     64.2145    72.8718    8.0245     0.0809     7.6175     3.0756     0.0890     0.0890     0.0831     0.1006     0.0903     0.0031     0.6804     2.6588     2.4899     0.0997     0.0446     0.0913     0.0000     0.0000     0.1090     0.0000     0.0064     0.8845    
5061.0000  40.9181    34.7710    31.4679    18.1955    21.9695    8.5000     0.0004     8.4399     50.4539    56.6777    6.1497     0.0656     10.5275    6.3167     0.0983     0.0983     0.0954     0.1052     0.0968     0.0045     0.7169     2.6623     2.4695     0.0666     0.0427     0.0740     0.0000     0.0000     0.0855     0.0000     0.0118     0.9027    
5061.5000  36.5240    34.7539    26.9349    16.9916    18.6587    8.5000     0.0005     8.4544     69.4659    76.6756    8.2757     0.0549     16.7232    5.5983     0.1029     0.1029     0.1029     0.1013     0.0943     0.0020     0.6783     2.6493     2.4648     0.0643     0.0477     0.0619     0.0000     0.0000     0.0760     0.0000     0.0068     0.9172    
5062.0000  29.5223    33.5676    24.6358    16.0213    17.1941    8.5000     0.0000     8.4761     97.0418    104.3739   11.9228    0.0420     23.7522    2.9104     0.1021     0.1021     0.1032     0.0916     0.0863     0.0000     0.6304     2.6357     2.4678     0.0799     0.0516     0.0473     0.0000     0.0000     0.0637     0.0000     0.0000     0.9363    
5062.5000  28.4911    31.9323    22.3358    15.0984    16.0956    8.5000     0.0000     8.5196     126.5538   136.6904   14.9111    0.0493     18.9500    1.1586     0.0949     0.0949     0.0965     0.0806     0.0743     0.0000     0.5508     2.6297     2.4843     0.1003     0.0555     0.0556     0.0000     0.0000     0.0823     0.0000     0.0000     0.9177    
5063.0000  33.7875    34.2505    23.4564    16.0702    16.5135    8.5000     0.0000     8.5196     133.0738   143.5192   14.9924    0.0655     9.4153     0.4824     0.0841     0.0841     0.0861     0.0723     0.0640     0.0000     0.5209     2.6305     2.5087     0.1124     0.0563     0.0739     0.0000     0.0000     0.1109     0.0000     0.0000     0.8891    
