~Version
 VERS              .         2.0                           : CWLS LOG ASCII STANDARD - VERSION 2.0
 WRAP              .         NO                            : ONE LINE PER DEPTH STEP
 DLM               .         SPACE                         : DELIMITING CHARACTER(SPACE TAB OR COMMA)
~Well Information
#_______________________________________________________________________________
#
#PARAMETER_NAME    .UNIT     VALUE                         : DESCRIPTION
#_______________________________________________________________________________
STRT               .ft       4040.0000                     : First reference value
STOP               .ft       7075.0000                     : Last reference value
STEP               .ft       0.5000                        : Step increment
NULL               .         -999.25                       : Missing value
COMP               .         One Earth Energy              : Company
WELL               .         OEE #1                        : Well name
FLD                .         OEE                           : Field
LOC                .                                       : Location
PROV               .         Illinois                      : Province
SRVC               .         Schlumberger                  : Service Company
DATE               .         26-Dec-2021                   : Date
UWI                .         12-113-25373-00               : Unique Well ID
APD                .ft       15                            : Elevation of Depth Reference (LMF) Above Permanent Datum
API                .         12-113-25373-00               : API NUMBER
BHS                .         OPEN                          : Borehole Status (Open or Cased Hole)
BHT                .degF     93.71                         : Bottom Hole Temperature
BLI                .ft       4052                          : Bottom Log Interval
BS                 .in       12.25                         : Bit Size
CBDR               .ft       374                           : Casing Bottom of Driller
CBLO               .ft       374                           : Logger Casing Shoe Depth
CNTY               .         McLean                        : COUNTY
CSIZ               .in       13.375                        : Current Casing Size
CWEI               .lbm/ft   54.5                          : Casing Weight
CTRY               .         United States of America - US : Nation
DCS                .         23-Dec-2021                   : Date Circulation Stopped
DFD                .lbm/gal  9.25                          : Drilling Fluid Density
DFT                .         WATER                         : Drilling Fluid Type
DLAB               .         26-Dec-2021                   : Date Logger At Bottom
EDF                .ft       840.0001                      : Elevation of Drill Floor
EGL                .ft       826                           : Elevation of Ground Level
EKB                .ft       841                           : Elevation of Kelly Bushing
EPD                .ft       826                           : Elevation of Permanent Datum (PDAT) above Mean Sea Level
GDAT               .                                       : GeoDetic Datum
LMF                .         KB                            : Logging Measured From (Name of Logging Elevation Reference)
LUL                .         Bradford                      : Logging Unit Location
LUN                .         2266                          : Logging Unit Number
LATI               .         40.485663 degrees             : Latitude
LONG               .         -88.468241 degrees            : Longitude
MCST               .degF     67.9                          : Mudcake Sample Temperature
MFST               .degF     66.3                          : Mud Filtrate Sample Temperature
MRT                .degF     93.71                         : Maximum Recorded Temperature
MST                .degF     65.4                          : Mud Sample Temperature
ORIGINALWELLNAME   .         OEE #1                        : 
PDAT               .         GL                            : Permanent Datum
PRODUCER-CODE      .         440                           : 
PRODUCER-NAME      .         Schlumberger                  : 
RMB                .ohm.m    3.533802                      : Resistivity of Mud at Bottom Hole Temperature
RMCS               .ohm.m    6.12                          : Resistivity of Mud Cake Sample
RMFS               .ohm.m    3.85                          : Resistivity of Mud Filtrate Sample
RMS                .ohm.m    4.92                          : Resistivity of Mud Sample
RUN                .         1C                            : Run Number
STAT               .         Illinois                      : State or Province
TCS                .         23_45_00                      : Time Circulation Stopped
TDD                .ft       4052                          : Driller Total Depth
TDL                .ft       4052                          : Logger Total Depth
TLAB               .         02_57_00                      : Time Logger At Bottom
TLI                .ft       379                           : Top Log Interval
~Parameter Information Block
#_______________________________________________________________________________
#
#PARAMETER_NAME    .UNIT     VALUE                         : DESCRIPTION
#_______________________________________________________________________________
SET                .         LQC                           : 
TLFamily_AT10      .         Resistivity - Induction Array 10: 
TLFamily_AT20      .         Resistivity - Induction Array 20: 
TLFamily_AT30      .         Resistivity - Induction Array 30: 
TLFamily_AT60      .         Resistivity - Induction Array 60: 
TLFamily_AT90      .         Resistivity - Induction Array 90: 
TLFamily_BS        .         Bit Size                      : 
TLFamily_Calcite_QE .        Calcite Volume Fraction       : 
TLFamily_HCAL      .         Caliper                       : 
TLFamily_HCGR      .         Gamma Ray Minus Uranium       : 
TLFamily_HSGR      .         Gamma Ray                     : 
TLFamily_HTHO      .         Thorium Concentration         : 
TLFamily_Illite_QE .         Illite Volume Fraction        : 
TLFamily_KINT_GEO_QE .       Permeability                  : 
TLFamily_KSDR_CMR  .         NMR Permeability              : 
TLFamily_MD        .         Measured Depth                : 
TLFamily_MRP_CMR   .         NMR Porosity                  : 
TLFamily_MRP_CMR_Edited .    NMR Porosity                  : 
TLFamily_MRP_CMR_Edited_REC_QE .NMR Porosity               : 
TLFamily_PHIT_QE   .         Total Porosity                : 
TLFamily_PIGN_QE   .         Effective Porosity            : 
TLFamily_Pyrite_QE .         Pyrite Volume Fraction        : 
TLFamily_Quartz_QE .         Quartz Volume Fraction        : 
TLFamily_RHGA_GEO_QE .       Grain Density                 : 
TLFamily_RHOZ      .         Bulk Density                  : 
TLFamily_TNPH_LIM  .         Thermal Neutron Porosity Limestone: 
TLFamily_UWater_QE .         Undisturbed Zone Water Volume Fraction: 
TLFamily_VCL_GEO_QE .        Clay Volume Fraction          : 
TLFamily_WANH_WALK2 .        Anhydrite Weight Fraction     : 
TLFamily_WCAR_WALK2 .        Carbonate Weight Fraction     : 
TLFamily_WCLA_WALK2 .        Clay Weight Fraction          : 
TLFamily_WCOA_WALK2 .        Coal Weight Fraction          : 
TLFamily_WPYR_WALK2 .        Pyrite Weight Fraction        : 
TLFamily_WQFM_WALK2 .        Quartz-Feldspar-Mica Weight Fraction: 
~Curve Information
#_______________________________________________________________________________
#
#LOGNAME           .UNIT     LOG_ID                        : DESCRIPTION
#_______________________________________________________________________________
MD                 .ft                                     : Measured DEPTH 
AT10               .ohm.m                                  : Array Induction Two Foot Resistivity A10 
AT20               .ohm.m                                  : Array Induction Two Foot Resistivity A20 
AT30               .ohm.m                                  : Array Induction Two Foot Resistivity A30 
AT60               .ohm.m                                  : Array Induction Two Foot Resistivity A60 
AT90               .ohm.m                                  : Array Induction Two Foot Resistivity A90 
BS                 .in                                     : Bit Size 
Calcite_QE         .v/v                                    : Calcite Volume Fraction 
HCAL               .in                                     : HRCC Caliper Calibrated 
HCGR               .gAPI                                   : HNGS Computed Gamma Ray 
HSGR               .gAPI                                   : HNGS Standard Gamma-Ray 
HTHO               .ppm                                    : HNGS Formation Thorium Concentration 
Illite_QE          .v/v                                    : Illite Volume Fraction 
KINT_GEO_QE        .mD                                     : Permeability (Juhasz 1979) 
KSDR_CMR           .mD                                     : SDR Permeability 
MRP_CMR            .ft3/ft3                                : Magnetic Resonance Porosity 
MRP_CMR_Edited     .ft3/ft3                                : Magnetic Resonance Porosity 
MRP_CMR_Edited_REC_QE .ft3/ft3                             : Quanti.Elan Reconstructed curve 
PHIT_QE            .v/v                                    : Total Porosity 
PIGN_QE            .v/v                                    : Effective porosity (with irreducible water) 
Pyrite_QE          .v/v                                    : Pyrite Volume Fraction 
Quartz_QE          .v/v                                    : Quartz Volume Fraction 
RHGA_GEO_QE        .g/cm3                                  : Apparent grain density 
RHOZ               .g/cm3                                  : Standard Resolution Formation Density 
TNPH_LIM           .ft3/ft3                                : Thermal Neutron Porosity (matrix Limestone) 
UWater_QE          .v/v                                    : Undisturbed Zone Water Volume Fraction 
VCL_GEO_QE         .v/v                                    : Clay fraction 
WANH_WALK2         .lbm/lbm                                : Dry Weight Fraction Anhydrite/Gypsum 
WCAR_WALK2         .lbm/lbm                                : Dry Weight Fraction Carbonate 
WCLA_WALK2         .lbm/lbm                                : Dry Weight Fraction Clay 
WCOA_WALK2         .lbm/lbm                                : Dry Weight Fraction Coal 
WPYR_WALK2         .lbm/lbm                                : Dry Weight Fraction Pyrite from WALK2 Model 
WQFM_WALK2         .lbm/lbm                                : Dry Weight Fraction Quartz+Feldspar+Mica (QFM) 
~Ascii
# ...
5247.5000  25.8445    13.9998    9.8477     6.4838     5.4751     8.5000     0.0001     8.3529     19.6646    22.3906    3.4237     0.0007     41.4572    38.9565    0.1146     0.1146     0.1152     0.1112     0.1111     0.0000     0.8500     2.6467     2.4518     0.0510     0.0869     0.0007     0.0000     0.0000     0.0013     0.0000     0.0000     0.9987    
5248.0000  26.7825    14.0380    10.0790    6.5513     5.4983     8.5000     0.0001     8.3348     19.8317    22.4405    3.4519     0.0127     29.9775    32.0539    0.1094     0.1094     0.1118     0.1100     0.1084     0.0000     0.8430     2.6489     2.4550     0.0477     0.0879     0.0143     0.0000     0.0000     0.0160     0.0000     0.0000     0.9840    
5248.5000  26.5424    14.1510    10.2658    6.5384     5.4908     8.5000     0.0001     8.3456     20.1417    22.3956    3.6171     0.0161     26.8155    27.1185    0.1092     0.1092     0.1112     0.1093     0.1072     0.0000     0.8426     2.6497     2.4601     0.0477     0.0882     0.0181     0.0000     0.0000     0.0200     0.0000     0.0000     0.9800    
5249.0000  25.6193    13.9859    9.8905     6.4472     5.4180     8.5000     0.0001     8.3384     19.4973    22.4233    3.3075     0.0234     22.1314    24.8965    0.1077     0.1077     0.1100     0.1086     0.1056     0.0000     0.8370     2.6509     2.4609     0.0486     0.0894     0.0264     0.0000     0.0000     0.0290     0.0000     0.0000     0.9710    
5249.5000  24.3621    13.6455    9.8695     6.3686     5.3803     8.5000     0.0001     8.3384     19.7472    22.7415    3.3501     0.0224     21.0888    26.2567    0.1073     0.1073     0.1093     0.1065     0.1036     0.0000     0.8392     2.6507     2.4644     0.0488     0.0902     0.0253     0.0000     0.0000     0.0278     0.0000     0.0000     0.9722    
5250.0000  24.4279    13.5200    9.9760     6.4974     5.4266     8.5000     0.0002     8.3311     19.3442    22.7681    3.1699     0.0284     17.4384    27.2502    0.1062     0.1062     0.1086     0.1050     0.1014     0.0000     0.8360     2.6517     2.4659     0.0492     0.0906     0.0320     0.0000     0.0000     0.0349     0.0000     0.0002     0.9649    
5250.5000  23.6690    13.7106    9.8494     6.4967     5.4045     8.5000     0.0004     8.3239     18.5890    21.8994    3.1219     0.0335     14.6219    26.1976    0.1041     0.1041     0.1065     0.1040     0.0997     0.0000     0.8359     2.6529     2.4642     0.0513     0.0915     0.0378     0.0000     0.0000     0.0406     0.0000     0.0010     0.9583    
5251.0000  23.4498    14.0753    9.9643     6.5267     5.4592     8.5000     0.0015     8.3311     18.1766    21.3870    3.0080     0.0452     11.4880    24.1319    0.1023     0.1023     0.1050     0.1052     0.0995     0.0000     0.8262     2.6552     2.4617     0.0518     0.0914     0.0510     0.0000     0.0000     0.0536     0.0000     0.0046     0.9418    
5251.5000  24.7895    14.1648    10.1033    6.6060     5.5289     8.5000     0.0013     8.3384     18.4119    21.6669    3.0315     0.0467     11.3341    18.3854    0.1005     0.1005     0.1040     0.1057     0.0997     0.0000     0.8246     2.6554     2.4636     0.0505     0.0906     0.0526     0.0000     0.0000     0.0553     0.0000     0.0042     0.9406    
5252.0000  25.8366    14.4490    10.1182    6.6325     5.5430     8.5000     0.0015     8.3565     19.7318    23.8370    3.2722     0.0416     12.0971    11.8117    0.1013     0.1013     0.1052     0.1041     0.0988     0.0003     0.8264     2.6551     2.4701     0.0503     0.0906     0.0469     0.0000     0.0000     0.0492     0.0000     0.0053     0.9455    
5252.5000  26.7000    14.6064    10.1537    6.6094     5.5888     8.5000     0.0013     8.3456     20.0637    24.6114    3.2553     0.0312     13.1230    6.9628     0.1022     0.1022     0.1057     0.0993     0.0953     0.0000     0.8367     2.6521     2.4742     0.0499     0.0910     0.0352     0.0000     0.0000     0.0371     0.0000     0.0039     0.9590    
5253.0000  27.7757    14.5838    10.1545    6.5681     5.6164     8.5000     0.0017     8.3601     19.5400    24.3843    3.2535     0.0323     10.3089    4.3977     0.1011     0.1011     0.1041     0.0942     0.0901     0.0000     0.8421     2.6525     2.4710     0.0493     0.0901     0.0364     0.0000     0.0000     0.0386     0.0000     0.0046     0.9569    
5253.5000  29.0444    14.6823    10.2116    6.5663     5.6035     8.5000     0.0013     8.3456     17.1102    21.9998    2.8107     0.0387     8.0110     3.7291     0.0959     0.0959     0.0993     0.0924     0.0874     0.0000     0.8449     2.6540     2.4744     0.0436     0.0874     0.0436     0.0000     0.0000     0.0465     0.0000     0.0030     0.9505    
5254.0000  29.2358    14.9022    10.2691    6.5467     5.5765     8.5000     0.0014     8.3565     16.3083    21.3538    2.5740     0.0403     8.0570     4.7298     0.0884     0.0884     0.0942     0.0935     0.0884     0.0000     0.8429     2.6544     2.4812     0.0385     0.0884     0.0455     0.0000     0.0000     0.0479     0.0000     0.0036     0.9484    
5254.5000  27.5928    14.6472    10.1386    6.4437     5.4910     8.5000     0.0007     8.3565     16.5632    21.6347    2.7186     0.0314     11.2899    7.6987     0.0854     0.0854     0.0924     0.0969     0.0929     0.0003     0.8472     2.6537     2.4943     0.0368     0.0922     0.0354     0.0000     0.0000     0.0370     0.0000     0.0029     0.9601    
5255.0000  26.2808    14.4123    10.0116    6.3917     5.3800     8.5000     0.0000     8.3674     18.0795    23.9460    2.8983     0.0233     17.3096    11.8029    0.0881     0.0881     0.0935     0.1037     0.1007     0.0023     0.8409     2.6569     2.4983     0.0394     0.0904     0.0263     0.0000     0.0000     0.0285     0.0000     0.0038     0.9677    
5255.5000  25.4012    14.3545    9.9211     6.3605     5.2970     8.5000     0.0000     8.3783     20.1070    25.4850    3.4093     0.0185     25.6691    14.6552    0.0955     0.0955     0.0969     0.1114     0.1090     0.0025     0.8346     2.6564     2.4901     0.0452     0.0889     0.0208     0.0000     0.0000     0.0235     0.0000     0.0028     0.9737    
5256.0000  24.5268    14.2189    9.8706     6.3140     5.2006     8.5000     0.0000     8.3819     20.6991    25.9114    3.6238     0.0176     29.7190    14.8468    0.1045     0.1045     0.1037     0.1145     0.1123     0.0018     0.8329     2.6547     2.4774     0.0521     0.0892     0.0198     0.0000     0.0000     0.0221     0.0000     0.0025     0.9754    
5256.5000  25.0963    13.8857    9.8743     6.3300     5.1511     8.5000     0.0000     8.3819     18.6330    24.3627    3.2546     0.0113     34.8660    12.3704    0.1134     0.1134     0.1114     0.1143     0.1129     0.0005     0.8421     2.6503     2.4651     0.0582     0.0894     0.0127     0.0000     0.0000     0.0138     0.0000     0.0012     0.9850    
5257.0000  26.7716    14.0400    10.1341    6.4556     5.1710     8.5000     0.0002     8.3891     17.1528    21.9986    3.0921     0.0090     33.8183    12.9843    0.1158     0.1158     0.1145     0.1121     0.1110     0.0000     0.8501     2.6489     2.4635     0.0578     0.0896     0.0101     0.0000     0.0000     0.0109     0.0000     0.0007     0.9884    
5257.5000  28.2185    14.1188    10.4912    6.5851     5.2448     8.5000     0.0004     8.3891     15.4888    19.7127    2.8356     0.0104     30.0319    17.3885    0.1143     0.1143     0.1143     0.1103     0.1090     0.0000     0.8545     2.6495     2.4658     0.0533     0.0895     0.0117     0.0000     0.0000     0.0124     0.0000     0.0012     0.9864    
5258.0000  29.0257    14.0592    10.7483    6.7021     5.2847     8.5000     0.0006     8.3891     15.1062    18.6858    2.8506     0.0151     27.8286    27.1100    0.1115     0.1115     0.1121     0.1116     0.1097     0.0000     0.8517     2.6505     2.4615     0.0504     0.0893     0.0170     0.0000     0.0000     0.0180     0.0000     0.0018     0.9803    
5258.5000  29.2134    13.9707    10.9619    6.8440     5.3594     8.5000     0.0006     8.3891     14.9554    18.2950    2.8209     0.0167     27.3517    40.4515    0.1094     0.1094     0.1103     0.1122     0.1101     0.0000     0.8503     2.6508     2.4578     0.0455     0.0887     0.0188     0.0000     0.0000     0.0200     0.0000     0.0017     0.9783    
