~Version
 VERS              .         2.0                           : CWLS LOG ASCII STANDARD - VERSION 2.0
 WRAP              .         NO                            : ONE LINE PER DEPTH STEP
 DLM               .         SPACE                         : DELIMITING CHARACTER(SPACE TAB OR COMMA)
~Well Information
#_______________________________________________________________________________
#
#PARAMETER_NAME    .UNIT     VALUE                         : DESCRIPTION
#_______________________________________________________________________________
STRT               .ft       4040.0000                     : First reference value
STOP               .ft       7075.0000                     : Last reference value
STEP               .ft       0.5000                        : Step increment
NULL               .         -999.25                       : Missing value
COMP               .         One Earth Energy              : Company
WELL               .         OEE #1                        : Well name
FLD                .         OEE                           : Field
LOC                .                                       : Location
PROV               .         Illinois                      : Province
SRVC               .         Schlumberger                  : Service Company
DATE               .         26-Dec-2021                   : Date
UWI                .         12-113-25373-00               : Unique Well ID
APD                .ft       15                            : Elevation of Depth Reference (LMF) Above Permanent Datum
API                .         12-113-25373-00               : API NUMBER
BHS                .         OPEN                          : Borehole Status (Open or Cased Hole)
BHT                .degF     93.71                         : Bottom Hole Temperature
BLI                .ft       4052                          : Bottom Log Interval
BS                 .in       12.25                         : Bit Size
CBDR               .ft       374                           : Casing Bottom of Driller
CBLO               .ft       374                           : Logger Casing Shoe Depth
CNTY               .         McLean                        : COUNTY
CSIZ               .in       13.375                        : Current Casing Size
CWEI               .lbm/ft   54.5                          : Casing Weight
CTRY               .         United States of America - US : Nation
DCS                .         23-Dec-2021                   : Date Circulation Stopped
DFD                .lbm/gal  9.25                          : Drilling Fluid Density
DFT                .         WATER                         : Drilling Fluid Type
DLAB               .         26-Dec-2021                   : Date Logger At Bottom
EDF                .ft       840.0001                      : Elevation of Drill Floor
EGL                .ft       826                           : Elevation of Ground Level
EKB                .ft       841                           : Elevation of Kelly Bushing
EPD                .ft       826                           : Elevation of Permanent Datum (PDAT) above Mean Sea Level
GDAT               .                                       : GeoDetic Datum
LMF                .         KB                            : Logging Measured From (Name of Logging Elevation Reference)
LUL                .         Bradford                      : Logging Unit Location
LUN                .         2266                          : Logging Unit Number
LATI               .         40.485663 degrees             : Latitude
LONG               .         -88.468241 degrees            : Longitude
MCST               .degF     67.9                          : Mudcake Sample Temperature
MFST               .degF     66.3                          : Mud Filtrate Sample Temperature
MRT                .degF     93.71                         : Maximum Recorded Temperature
MST                .degF     65.4                          : Mud Sample Temperature
ORIGINALWELLNAME   .         OEE #1                        : 
PDAT               .         GL                            : Permanent Datum
PRODUCER-CODE      .         440                           : 
PRODUCER-NAME      .         Schlumberger                  : 
RMB                .ohm.m    3.533802                      : Resistivity of Mud at Bottom Hole Temperature
RMCS               .ohm.m    6.12                          : Resistivity of Mud Cake Sample
RMFS               .ohm.m    3.85                          : Resistivity of Mud Filtrate Sample
RMS                .ohm.m    4.92                          : Resistivity of Mud Sample
RUN                .         1C                            : Run Number
STAT               .         Illinois                      : State or Province
TCS                .         23_45_00                      : Time Circulation Stopped
TDD                .ft       4052                          : Driller Total Depth
TDL                .ft       4052                          : Logger Total Depth
TLAB               .         02_57_00                      : Time Logger At Bottom
TLI                .ft       379                           : Top Log Interval
~Parameter Information Block
#_______________________________________________________________________________
#
#PARAMETER_NAME    .UNIT     VALUE                         : DESCRIPTION
#_______________________________________________________________________________
SET                .         LQC                           : 
TLFamily_AT10      .         Resistivity - Induction Array 10: 
TLFamily_AT20      .         Resistivity - Induction Array 20: 
TLFamily_AT30      .         Resistivity - Induction Array 30: 
TLFamily_AT60      .         Resistivity - Induction Array 60: 
TLFamily_AT90      .         Resistivity - Induction Array 90: 
TLFamily_BS        .         Bit Size                      : 
TLFamily_Calcite_QE .        Calcite Volume Fraction       : 
TLFamily_HCAL      .         Caliper                       : 
TLFamily_HCGR      .         Gamma Ray Minus Uranium       : 
TLFamily_HSGR      .         Gamma Ray                     : 
TLFamily_HTHO      .         Thorium Concentration         : 
TLFamily_Illite_QE .         Illite Volume Fraction        : 
TLFamily_KINT_GEO_QE .       Permeability                  : 
TLFamily_KSDR_CMR  .         NMR Permeability              : 
TLFamily_MD        .         Measured Depth                : 
TLFamily_MRP_CMR   .         NMR Porosity                  : 
TLFamily_MRP_CMR_Edited .    NMR Porosity                  : 
TLFamily_MRP_CMR_Edited_REC_QE .NMR Porosity               : 
TLFamily_PHIT_QE   .         Total Porosity                : 
TLFamily_PIGN_QE   .         Effective Porosity            : 
TLFamily_Pyrite_QE .         Pyrite Volume Fraction        : 
TLFamily_Quartz_QE .         Quartz Volume Fraction        : 
TLFamily_RHGA_GEO_QE .       Grain Density                 : 
TLFamily_RHOZ      .         Bulk Density                  : 
TLFamily_TNPH_LIM  .         Thermal Neutron Porosity Limestone: 
TLFamily_UWater_QE .         Undisturbed Zone Water Volume Fraction: 
TLFamily_VCL_GEO_QE .        Clay Volume Fraction          : 
TLFamily_WANH_WALK2 .        Anhydrite Weight Fraction     : 
TLFamily_WCAR_WALK2 .        Carbonate Weight Fraction     : 
TLFamily_WCLA_WALK2 .        Clay Weight Fraction          : 
TLFamily_WCOA_WALK2 .        Coal Weight Fraction          : 
TLFamily_WPYR_WALK2 .        Pyrite Weight Fraction        : 
TLFamily_WQFM_WALK2 .        Quartz-Feldspar-Mica Weight Fraction: 
~Curve Information
#_______________________________________________________________________________
#
#LOGNAME           .UNIT     LOG_ID                        : DESCRIPTION
#_______________________________________________________________________________
MD                 .ft                                     : Measured DEPTH 
AT10               .ohm.m                                  : Array Induction Two Foot Resistivity A10 
AT20               .ohm.m                                  : Array Induction Two Foot Resistivity A20 
AT30               .ohm.m                                  : Array Induction Two Foot Resistivity A30 
AT60               .ohm.m                                  : Array Induction Two Foot Resistivity A60 
AT90               .ohm.m                                  : Array Induction Two Foot Resistivity A90 
BS                 .in                                     : Bit Size 
Calcite_QE         .v/v                                    : Calcite Volume Fraction 
HCAL               .in                                     : HRCC Caliper Calibrated 
HCGR               .gAPI                                   : HNGS Computed Gamma Ray 
HSGR               .gAPI                                   : HNGS Standard Gamma-Ray 
HTHO               .ppm                                    : HNGS Formation Thorium Concentration 
Illite_QE          .v/v                                    : Illite Volume Fraction 
KINT_GEO_QE        .mD                                     : Permeability (Juhasz 1979) 
KSDR_CMR           .mD                                     : SDR Permeability 
MRP_CMR            .ft3/ft3                                : Magnetic Resonance Porosity 
MRP_CMR_Edited     .ft3/ft3                                : Magnetic Resonance Porosity 
MRP_CMR_Edited_REC_QE .ft3/ft3                             : Quanti.Elan Reconstructed curve 
PHIT_QE            .v/v                                    : Total Porosity 
PIGN_QE            .v/v                                    : Effective porosity (with irreducible water) 
Pyrite_QE          .v/v                                    : Pyrite Volume Fraction 
Quartz_QE          .v/v                                    : Quartz Volume Fraction 
RHGA_GEO_QE        .g/cm3                                  : Apparent grain density 
RHOZ               .g/cm3                                  : Standard Resolution Formation Density 
TNPH_LIM           .ft3/ft3                                : Thermal Neutron Porosity (matrix Limestone) 
UWater_QE          .v/v                                    : Undisturbed Zone Water Volume Fraction 
VCL_GEO_QE         .v/v                                    : Clay fraction 
WANH_WALK2         .lbm/lbm                                : Dry Weight Fraction Anhydrite/Gypsum 
WCAR_WALK2         .lbm/lbm                                : Dry Weight Fraction Carbonate 
WCLA_WALK2         .lbm/lbm                                : Dry Weight Fraction Clay 
WCOA_WALK2         .lbm/lbm                                : Dry Weight Fraction Coal 
WPYR_WALK2         .lbm/lbm                                : Dry Weight Fraction Pyrite from WALK2 Model 
WQFM_WALK2         .lbm/lbm                                : Dry Weight Fraction Quartz+Feldspar+Mica (QFM) 
~Ascii
# ...
4649.5000  26.3789    16.3689    12.1403    7.9435     7.0575     8.5000     0.0000     8.7914     90.7049    108.2366   6.6862     0.0576     67.2048    11.6455    0.1208     0.1208     0.1188     0.1230     0.1157     0.0005     0.5489     2.6360     2.4431     0.1153     0.0765     0.0650     0.0000     0.0000     0.0958     0.0000     0.0000     0.9042    
4650.0000  24.1361    15.5547    11.6373    7.6922     6.7006     8.5000     0.0000     8.7371     62.3224    74.2291    4.9593     0.0506     50.6514    20.8111    0.1235     0.1235     0.1217     0.1259     0.1195     0.0003     0.6460     2.6428     2.4370     0.1222     0.0782     0.0571     0.0000     0.0000     0.0745     0.0000     0.0002     0.9253    
4650.5000  23.4994    15.7426    11.5337    7.5755     6.4805     8.5000     0.0000     8.5921     31.2203    37.9574    2.5842     0.0326     49.0964    30.3040    0.1250     0.1250     0.1236     0.1292     0.1250     0.0000     0.7531     2.6474     2.4244     0.0982     0.0788     0.0368     0.0000     0.0000     0.0433     0.0000     0.0001     0.9567    
4651.0000  24.2060    15.7648    11.5040    7.5557     6.3088     8.5000     0.0003     8.5559     18.4563    22.0595    1.6377     0.0165     54.7897    44.9341    0.1266     0.1266     0.1259     0.1281     0.1260     0.0000     0.8051     2.6481     2.4249     0.0711     0.0796     0.0186     0.0000     0.0000     0.0209     0.0000     0.0010     0.9781    
4651.5000  22.9769    15.1581    11.3462    7.3849     6.0610     8.5000     0.0000     8.5631     17.3300    20.4311    1.6417     0.0040     63.8118    99.3235    0.1280     0.1280     0.1285     0.1243     0.1238     0.0000     0.8217     2.6461     2.4303     0.0630     0.0812     0.0045     0.0000     0.0000     0.0053     0.0000     0.0000     0.9947    
4652.0000  21.4496    14.9636    11.2381    7.3229     5.9082     8.5000     0.0001     8.5559     17.7867    21.8151    1.9525     0.0011     57.2889    131.8025   0.1277     0.1277     0.1286     0.1192     0.1191     0.0000     0.8305     2.6457     2.4331     0.0606     0.0830     0.0012     0.0000     0.0000     0.0018     0.0000     0.0000     0.9982    
4652.5000  20.9273    14.5631    11.2311    7.3386     5.8500     8.5000     0.0001     8.5631     19.3830    24.0301    2.3841     0.0014     44.8108    152.2651   0.1252     0.1252     0.1262     0.1119     0.1117     0.0000     0.8361     2.6457     2.4382     0.0603     0.0850     0.0016     0.0000     0.0000     0.0025     0.0000     0.0000     0.9975    
4653.0000  21.6603    14.3561    11.2460    7.3951     5.8966     8.5000     0.0002     8.5414     19.6903    24.9145    2.5464     0.0104     26.4909    151.1052   0.1220     0.1220     0.1233     0.1033     0.1019     0.0000     0.8390     2.6474     2.4426     0.0561     0.0874     0.0117     0.0000     0.0000     0.0140     0.0000     0.0000     0.9860    
4653.5000  22.8048    14.7579    11.8581    7.7393     6.1300     8.5000     0.0003     8.5631     20.9322    26.2542    2.8136     0.0218     17.2028    140.1422   0.1171     0.1171     0.1192     0.0989     0.0961     0.0000     0.8341     2.6494     2.4540     0.0520     0.0874     0.0246     0.0000     0.0000     0.0279     0.0000     0.0000     0.9721    
4654.0000  23.9921    15.3067    12.5894    8.1129     6.4778     8.5000     0.0001     8.5849     26.2790    31.9651    3.5946     0.0332     13.7132    107.4894   0.1084     0.1084     0.1119     0.0983     0.0941     0.0000     0.8156     2.6505     2.4702     0.0461     0.0855     0.0375     0.0000     0.0000     0.0416     0.0000     0.0000     0.9584    
4654.5000  24.2428    15.3546    12.8711    8.3696     6.7823     8.5000     0.0000     8.6175     33.2520    40.5434    4.4793     0.0375     15.3717    15.1706    0.0952     0.0952     0.1002     0.1014     0.0966     0.0000     0.7929     2.6498     2.4854     0.0442     0.0824     0.0423     0.0000     0.0000     0.0471     0.0000     0.0000     0.9529    
4655.0000  24.3054    15.5716    13.0136    8.5938     7.1592     8.5000     0.0000     8.7588     36.8586    46.4082    4.8646     0.0360     20.9420    1.0405     0.1018     0.1018     0.1025     0.1079     0.1033     0.0009     0.7769     2.6511     2.4864     0.0519     0.0783     0.0406     0.0000     0.0000     0.0467     0.0000     0.0000     0.9533    
4655.5000  25.4050    16.0725    14.0046    9.0295     7.8181     8.5000     0.0000     8.8132     36.5447    46.2699    4.6477     0.0404     17.6746    0.4172     0.1040     0.1040     0.1041     0.1052     0.1000     0.0000     0.7759     2.6493     2.4756     0.0641     0.0758     0.0456     0.0000     0.0000     0.0515     0.0000     0.0000     0.9485    
4656.0000  25.4603    17.4572    14.9704    9.6507     8.4828     8.5000     0.0001     8.8676     37.5699    47.1162    4.6550     0.0437     13.3000    0.3467     0.0918     0.0918     0.0928     0.0992     0.0936     0.0000     0.7749     2.6495     2.4764     0.0683     0.0740     0.0493     0.0000     0.0000     0.0558     0.0000     0.0000     0.9442    
4656.5000  24.8262    17.8764    15.3312    9.9855     9.0468     8.5000     0.0000     8.9111     42.2486    52.3589    4.9240     0.0479     10.1306    0.8482     0.0909     0.0909     0.0896     0.0928     0.0867     0.0000     0.7621     2.6488     2.4930     0.0619     0.0730     0.0540     0.0000     0.0000     0.0615     0.0000     0.0000     0.9385    
4657.0000  24.2635    17.5578    14.7809    9.8316     9.2014     8.5000     0.0000     8.9835     45.2568    56.5761    5.0767     0.0394     11.2297    4.2115     0.0946     0.0946     0.0919     0.0896     0.0846     0.0007     0.7598     2.6481     2.5140     0.0567     0.0725     0.0445     0.0000     0.0000     0.0516     0.0000     0.0000     0.9484    
4657.5000  23.6903    17.3135    14.4160    9.7385     9.4136     8.5000     0.0000     8.9835     42.4313    51.8704    4.6401     0.0340     13.5232    3.4977     0.0914     0.0914     0.0890     0.0924     0.0881     0.0017     0.7661     2.6503     2.5227     0.0613     0.0706     0.0384     0.0000     0.0000     0.0453     0.0000     0.0000     0.9547    
4658.0000  26.2046    18.7114    15.2341    10.2364    9.8890     8.5000     0.0000     8.9618     38.8408    47.2853    4.3647     0.0341     9.6002     1.4526     0.0839     0.0839     0.0827     0.0856     0.0812     0.0009     0.7847     2.6492     2.5245     0.0614     0.0704     0.0384     0.0000     0.0000     0.0439     0.0000     0.0000     0.9561    
4658.5000  28.5458    20.3544    16.3004    10.5711    10.2974    8.5000     0.0000     8.8893     40.9687    48.7211    4.6133     0.0490     5.3087     0.9050     0.0798     0.0798     0.0791     0.0798     0.0736     0.0004     0.7752     2.6502     2.5309     0.0556     0.0709     0.0553     0.0000     0.0000     0.0620     0.0000     0.0000     0.9380    
4659.0000  29.3312    20.4887    16.3554    10.5975    10.3262    8.5000     0.0000     8.8676     40.5333    48.3374    4.6538     0.0459     4.6774     0.6764     0.0768     0.0768     0.0763     0.0763     0.0704     0.0007     0.7827     2.6506     2.5406     0.0554     0.0704     0.0518     0.0000     0.0000     0.0582     0.0000     0.0000     0.9418    
4659.5000  31.0568    21.4880    16.6127    10.5630    10.3038    8.5000     0.0000     8.8132     35.2848    42.0718    4.0920     0.0339     6.0522     0.7772     0.0769     0.0769     0.0766     0.0767     0.0724     0.0001     0.8054     2.6482     2.5311     0.0572     0.0712     0.0382     0.0000     0.0000     0.0421     0.0000     0.0000     0.9579    
4660.0000  32.8237    22.6450    17.2522    10.6841    10.2012    8.5000     0.0000     8.7480     25.5486    30.9176    3.0492     0.0134     11.5403    1.4296     0.0792     0.0792     0.0797     0.0827     0.0810     0.0000     0.8402     2.6465     2.5069     0.0586     0.0696     0.0151     0.0000     0.0000     0.0167     0.0000     0.0000     0.9833    
4660.5000  34.6164    23.8153    17.9103    10.8738    10.1138    8.5000     0.0001     8.6718     21.8555    25.4727    2.7772     0.0131     15.6871    3.0768     0.0849     0.0849     0.0869     0.0910     0.0893     0.0000     0.8441     2.6475     2.4794     0.0508     0.0684     0.0148     0.0000     0.0000     0.0166     0.0000     0.0000     0.9834    
