~Version
 VERS              .         2.0                           : CWLS LOG ASCII STANDARD - VERSION 2.0
 WRAP              .         NO                            : ONE LINE PER DEPTH STEP
 DLM               .         SPACE                         : DELIMITING CHARACTER(SPACE TAB OR COMMA)
~Well Information
#_______________________________________________________________________________
#
#PARAMETER_NAME    .UNIT     VALUE                         : DESCRIPTION
#_______________________________________________________________________________
STRT               .ft       4040.0000                     : First reference value
STOP               .ft       7075.0000                     : Last reference value
STEP               .ft       0.5000                        : Step increment
NULL               .         -999.25                       : Missing value
COMP               .         One Earth Energy              : Company
WELL               .         OEE #1                        : Well name
FLD                .         OEE                           : Field
LOC                .                                       : Location
PROV               .         Illinois                      : Province
SRVC               .         Schlumberger                  : Service Company
DATE               .         26-Dec-2021                   : Date
UWI                .         12-113-25373-00               : Unique Well ID
APD                .ft       15                            : Elevation of Depth Reference (LMF) Above Permanent Datum
API                .         12-113-25373-00               : API NUMBER
BHS                .         OPEN                          : Borehole Status (Open or Cased Hole)
BHT                .degF     93.71                         : Bottom Hole Temperature
BLI                .ft       4052                          : Bottom Log Interval
BS                 .in       12.25                         : Bit Size
CBDR               .ft       374                           : Casing Bottom of Driller
CBLO               .ft       374                           : Logger Casing Shoe Depth
CNTY               .         McLean                        : COUNTY
CSIZ               .in       13.375                        : Current Casing Size
CWEI               .lbm/ft   54.5                          : Casing Weight
CTRY               .         United States of America - US : Nation
DCS                .         23-Dec-2021                   : Date Circulation Stopped
DFD                .lbm/gal  9.25                          : Drilling Fluid Density
DFT                .         WATER                         : Drilling Fluid Type
DLAB               .         26-Dec-2021                   : Date Logger At Bottom
EDF                .ft       840.0001                      : Elevation of Drill Floor
EGL                .ft       826                           : Elevation of Ground Level
EKB                .ft       841                           : Elevation of Kelly Bushing
EPD                .ft       826                           : Elevation of Permanent Datum (PDAT) above Mean Sea Level
GDAT               .                                       : GeoDetic Datum
LMF                .         KB                            : Logging Measured From (Name of Logging Elevation Reference)
LUL                .         Bradford                      : Logging Unit Location
LUN                .         2266                          : Logging Unit Number
LATI               .         40.485663 degrees             : Latitude
LONG               .         -88.468241 degrees            : Longitude
MCST               .degF     67.9                          : Mudcake Sample Temperature
MFST               .degF     66.3                          : Mud Filtrate Sample Temperature
MRT                .degF     93.71                         : Maximum Recorded Temperature
MST                .degF     65.4                          : Mud Sample Temperature
ORIGINALWELLNAME   .         OEE #1                        : 
PDAT               .         GL                            : Permanent Datum
PRODUCER-CODE      .         440                           : 
PRODUCER-NAME      .         Schlumberger                  : 
RMB                .ohm.m    3.533802                      : Resistivity of Mud at Bottom Hole Temperature
RMCS               .ohm.m    6.12                          : Resistivity of Mud Cake Sample
RMFS               .ohm.m    3.85                          : Resistivity of Mud Filtrate Sample
RMS                .ohm.m    4.92                          : Resistivity of Mud Sample
RUN                .         1C                            : Run Number
STAT               .         Illinois                      : State or Province
TCS                .         23_45_00                      : Time Circulation Stopped
TDD                .ft       4052                          : Driller Total Depth
TDL                .ft       4052                          : Logger Total Depth
TLAB               .         02_57_00                      : Time Logger At Bottom
TLI                .ft       379                           : Top Log Interval
~Parameter Information Block
#_______________________________________________________________________________
#
#PARAMETER_NAME    .UNIT     VALUE                         : DESCRIPTION
#_______________________________________________________________________________
SET                .         LQC                           : 
TLFamily_AT10      .         Resistivity - Induction Array 10: 
TLFamily_AT20      .         Resistivity - Induction Array 20: 
TLFamily_AT30      .         Resistivity - Induction Array 30: 
TLFamily_AT60      .         Resistivity - Induction Array 60: 
TLFamily_AT90      .         Resistivity - Induction Array 90: 
TLFamily_BS        .         Bit Size                      : 
TLFamily_Calcite_QE .        Calcite Volume Fraction       : 
TLFamily_HCAL      .         Caliper                       : 
TLFamily_HCGR      .         Gamma Ray Minus Uranium       : 
TLFamily_HSGR      .         Gamma Ray                     : 
TLFamily_HTHO      .         Thorium Concentration         : 
TLFamily_Illite_QE .         Illite Volume Fraction        : 
TLFamily_KINT_GEO_QE .       Permeability                  : 
TLFamily_KSDR_CMR  .         NMR Permeability              : 
TLFamily_MD        .         Measured Depth                : 
TLFamily_MRP_CMR   .         NMR Porosity                  : 
TLFamily_MRP_CMR_Edited .    NMR Porosity                  : 
TLFamily_MRP_CMR_Edited_REC_QE .NMR Porosity               : 
TLFamily_PHIT_QE   .         Total Porosity                : 
TLFamily_PIGN_QE   .         Effective Porosity            : 
TLFamily_Pyrite_QE .         Pyrite Volume Fraction        : 
TLFamily_Quartz_QE .         Quartz Volume Fraction        : 
TLFamily_RHGA_GEO_QE .       Grain Density                 : 
TLFamily_RHOZ      .         Bulk Density                  : 
TLFamily_TNPH_LIM  .         Thermal Neutron Porosity Limestone: 
TLFamily_UWater_QE .         Undisturbed Zone Water Volume Fraction: 
TLFamily_VCL_GEO_QE .        Clay Volume Fraction          : 
TLFamily_WANH_WALK2 .        Anhydrite Weight Fraction     : 
TLFamily_WCAR_WALK2 .        Carbonate Weight Fraction     : 
TLFamily_WCLA_WALK2 .        Clay Weight Fraction          : 
TLFamily_WCOA_WALK2 .        Coal Weight Fraction          : 
TLFamily_WPYR_WALK2 .        Pyrite Weight Fraction        : 
TLFamily_WQFM_WALK2 .        Quartz-Feldspar-Mica Weight Fraction: 
~Curve Information
#_______________________________________________________________________________
#
#LOGNAME           .UNIT     LOG_ID                        : DESCRIPTION
#_______________________________________________________________________________
MD                 .ft                                     : Measured DEPTH 
AT10               .ohm.m                                  : Array Induction Two Foot Resistivity A10 
AT20               .ohm.m                                  : Array Induction Two Foot Resistivity A20 
AT30               .ohm.m                                  : Array Induction Two Foot Resistivity A30 
AT60               .ohm.m                                  : Array Induction Two Foot Resistivity A60 
AT90               .ohm.m                                  : Array Induction Two Foot Resistivity A90 
BS                 .in                                     : Bit Size 
Calcite_QE         .v/v                                    : Calcite Volume Fraction 
HCAL               .in                                     : HRCC Caliper Calibrated 
HCGR               .gAPI                                   : HNGS Computed Gamma Ray 
HSGR               .gAPI                                   : HNGS Standard Gamma-Ray 
HTHO               .ppm                                    : HNGS Formation Thorium Concentration 
Illite_QE          .v/v                                    : Illite Volume Fraction 
KINT_GEO_QE        .mD                                     : Permeability (Juhasz 1979) 
KSDR_CMR           .mD                                     : SDR Permeability 
MRP_CMR            .ft3/ft3                                : Magnetic Resonance Porosity 
MRP_CMR_Edited     .ft3/ft3                                : Magnetic Resonance Porosity 
MRP_CMR_Edited_REC_QE .ft3/ft3                             : Quanti.Elan Reconstructed curve 
PHIT_QE            .v/v                                    : Total Porosity 
PIGN_QE            .v/v                                    : Effective porosity (with irreducible water) 
Pyrite_QE          .v/v                                    : Pyrite Volume Fraction 
Quartz_QE          .v/v                                    : Quartz Volume Fraction 
RHGA_GEO_QE        .g/cm3                                  : Apparent grain density 
RHOZ               .g/cm3                                  : Standard Resolution Formation Density 
TNPH_LIM           .ft3/ft3                                : Thermal Neutron Porosity (matrix Limestone) 
UWater_QE          .v/v                                    : Undisturbed Zone Water Volume Fraction 
VCL_GEO_QE         .v/v                                    : Clay fraction 
WANH_WALK2         .lbm/lbm                                : Dry Weight Fraction Anhydrite/Gypsum 
WCAR_WALK2         .lbm/lbm                                : Dry Weight Fraction Carbonate 
WCLA_WALK2         .lbm/lbm                                : Dry Weight Fraction Clay 
WCOA_WALK2         .lbm/lbm                                : Dry Weight Fraction Coal 
WPYR_WALK2         .lbm/lbm                                : Dry Weight Fraction Pyrite from WALK2 Model 
WQFM_WALK2         .lbm/lbm                                : Dry Weight Fraction Quartz+Feldspar+Mica (QFM) 
~Ascii
# ...
6455.0000  5.8657     3.8373     3.3106     2.6551     2.2192     8.5000     0.0000     8.5486     133.3586   151.6301   9.7427     0.0887     49.4960    0.0631     0.1042     0.1042     0.1136     0.1136     0.1024     0.0021     0.3941     2.6334     2.5097     0.1396     0.1024     0.0999     0.0000     0.0000     0.1814     0.0000     0.0000     0.8186    
6455.5000  5.1005     3.5455     3.1573     2.5903     2.2013     8.5000     0.0000     8.5486     141.2212   160.2969   10.5038    0.0875     110.3115   0.1864     0.1307     0.1307     0.1317     0.1317     0.1207     0.0015     0.3567     2.6293     2.4739     0.1731     0.1207     0.0986     0.0000     0.0000     0.1904     0.0000     0.0000     0.8096    
6456.0000  4.5032     3.3071     2.9935     2.5254     2.2120     8.5000     0.0000     8.5269     131.3076   148.5576   10.1207    0.0791     179.3381   0.5534     0.1500     0.1500     0.1472     0.1472     0.1372     0.0006     0.3856     2.6282     2.4219     0.1958     0.1304     0.0891     0.0000     0.0000     0.1648     0.0000     0.0000     0.8352    
6456.5000  4.5908     3.6023     3.3361     2.8317     2.4777     8.5000     0.0000     8.5414     117.0497   132.8007   9.3385     0.0857     108.3004   0.7304     0.1463     0.1463     0.1451     0.1451     0.1342     0.0003     0.4325     2.6334     2.4169     0.1639     0.1240     0.0966     0.0000     0.0000     0.1627     0.0000     0.0000     0.8373    
6457.0000  5.6924     4.2979     3.9422     3.3564     2.9341     8.5000     0.0000     8.5305     114.8846   130.0269   9.6380     0.1135     21.1425    0.2542     0.1175     0.1175     0.1187     0.1187     0.1043     0.0022     0.4497     2.6452     2.5062     0.1218     0.1043     0.1278     0.0000     0.0000     0.2016     0.0000     0.0000     0.7984    
6457.5000  8.2359     5.6928     5.1872     4.3502     3.7863     8.5000     0.0000     8.5740     128.6918   147.2940   11.1951    0.1616     1.5303     0.0185     0.0749     0.0749     0.0824     0.0824     0.0619     0.0041     0.4139     2.6557     2.6031     0.1160     0.0619     0.1820     0.0000     0.0000     0.2791     0.0000     0.0000     0.7209    
6458.0000  10.5831    6.9458     6.6086     5.6241     4.9279     8.5000     0.0000     8.5849     146.8331   170.9511   12.7393    0.2039     0.0776     0.0002     0.0452     0.0452     0.0552     0.0552     0.0294     0.0039     0.3564     2.6577     2.6450     0.1291     0.0294     0.2298     0.0000     0.0000     0.3552     0.0000     0.0000     0.6448    
6458.5000  14.1673    7.8381     8.1868     7.1789     6.3929     8.5000     0.0000     8.6066     168.1891   192.8806   14.9839    0.2287     0.0076     0.0000     0.0334     0.0334     0.0412     0.0438     0.0148     0.0032     0.2918     2.6551     2.6545     0.1525     0.0148     0.2577     0.0000     0.0000     0.4201     0.0000     0.0000     0.5799    
6459.0000  16.0427    9.5619     10.4353    9.2246     8.6642     8.5000     0.0000     8.6175     172.8081   198.1358   15.2957    0.2584     0.0003     0.0000     0.0321     0.0321     0.0380     0.0385     0.0058     0.0032     0.2626     2.6591     2.6670     0.1470     0.0058     0.2911     0.0000     0.0000     0.4717     0.0000     0.0000     0.5283    
6459.5000  16.9490    11.6138    13.2963    11.8247    11.8223    8.5000     0.0000     8.6501     172.5524   201.6659   15.0483    0.2700     0.0000     0.0000     0.0340     0.0340     0.0392     0.0374     0.0032     0.0028     0.2543     2.6598     2.6583     0.1356     0.0032     0.3042     0.0000     0.0000     0.4895     0.0000     0.0000     0.5105    
6460.0000  16.3249    13.4080    14.9603    13.2794    14.4080    8.5000     0.0000     8.6501     169.2741   197.3059   14.9914    0.2560     0.0009     0.0000     0.0406     0.0406     0.0458     0.0410     0.0086     0.0020     0.2733     2.6566     2.6331     0.1224     0.0086     0.2885     0.0000     0.0000     0.4616     0.0000     0.0000     0.5384    
6460.5000  13.7477    13.3759    14.6951    12.9180    15.6145    8.5000     0.0000     8.6428     162.2273   187.7699   14.5424    0.2206     0.0331     0.0001     0.0489     0.0489     0.0539     0.0506     0.0226     0.0010     0.3114     2.6499     2.5896     0.1132     0.0226     0.2485     0.0000     0.0000     0.3983     0.0000     0.0000     0.6017    
6461.0000  11.7364    12.0701    12.7627    11.6887    14.4034    8.5000     0.0000     8.6501     151.0151   175.5280   13.5799    0.2031     0.1113     0.0001     0.0528     0.0528     0.0574     0.0572     0.0315     0.0008     0.3510     2.6493     2.5746     0.1063     0.0315     0.2289     0.0000     0.0000     0.3557     0.0000     0.0000     0.6443    
6461.5000  10.3513    11.5223    11.7709    10.9411    13.4060    8.5000     0.0000     8.6501     147.3393   172.0922   13.1157    0.2047     0.1044     0.0000     0.0468     0.0468     0.0504     0.0576     0.0317     0.0012     0.3586     2.6513     2.5829     0.1062     0.0317     0.2306     0.0000     0.0000     0.3536     0.0000     0.0000     0.6464    
6462.0000  12.1014    13.7482    13.6512    12.7021    15.5296    8.5000     0.0000     8.6501     154.2726   180.8438   13.6288    0.2117     0.0385     0.0000     0.0367     0.0367     0.0414     0.0504     0.0236     0.0017     0.3383     2.6518     2.6056     0.1110     0.0236     0.2386     0.0000     0.0000     0.3724     0.0000     0.0000     0.6276    
6462.5000  14.8243    16.8660    16.2290    15.1121    18.1435    8.5000     0.0000     8.6392     163.1606   191.6160   14.5163    0.2325     0.0035     0.0000     0.0320     0.0320     0.0381     0.0414     0.0119     0.0015     0.3077     2.6528     2.6170     0.1211     0.0119     0.2620     0.0000     0.0000     0.4134     0.0000     0.0000     0.5866    
6463.0000  16.3974    18.3640    17.1697    15.9969    19.0400    8.5000     0.0000     8.6392     170.0654   197.7460   15.3056    0.2554     0.0002     0.0000     0.0307     0.0307     0.0369     0.0379     0.0056     0.0011     0.2777     2.6543     2.6155     0.1311     0.0056     0.2877     0.0000     0.0000     0.4576     0.0000     0.0000     0.5424    
6463.5000  16.6330    18.5513    17.6438    16.6544    19.7384    8.5000     0.0000     8.6501     174.4671   202.6345   15.8837    0.2816     0.0000     0.0000     0.0289     0.0289     0.0364     0.0359     0.0002     0.0012     0.2518     2.6581     2.6235     0.1444     0.0002     0.3173     0.0000     0.0000     0.5029     0.0000     0.0000     0.4971    
6464.0000  17.3161    18.5824    18.1073    16.9147    21.5481    8.5000     0.0000     8.6283     176.2421   205.7641   16.0784    0.2908     0.0000     0.0000     0.0273     0.0273     0.0376     0.0368     0.0001     0.0020     0.2385     2.6613     2.6410     0.1494     0.0000     0.3276     0.0000     0.0000     0.5226     0.0000     0.0000     0.4774    
6464.5000  19.0074    20.3380    19.5564    18.4267    23.7555    8.5000     0.0000     8.6428     178.8959   211.0026   16.9750    0.3026     0.0000     0.0000     0.0250     0.0250     0.0383     0.0383     0.0001     0.0027     0.2283     2.6649     2.6530     0.1487     0.0000     0.3410     0.0000     0.0000     0.5426     0.0000     0.0000     0.4574    
6465.0000  21.4263    23.3564    22.2664    19.5485    25.6766    8.5000     0.0000     8.6501     173.3232   209.0588   16.6607    0.3025     0.0000     0.0000     0.0257     0.0257     0.0377     0.0383     0.0001     0.0028     0.2467     2.6667     2.6518     0.1409     0.0000     0.3408     0.0000     0.0000     0.5283     0.0000     0.0000     0.4717    
6465.5000  22.5561    21.2875    20.3634    17.9580    23.5583    8.5000     0.0000     8.6283     169.8425   207.1374   16.1930    0.2920     0.0000     0.0000     0.0321     0.0321     0.0390     0.0370     0.0001     0.0021     0.2655     2.6641     2.6410     0.1326     0.0000     0.3290     0.0000     0.0000     0.5033     0.0000     0.0000     0.4967    
6466.0000  21.5455    17.2789    16.4522    14.3237    18.8040    8.5000     0.0000     8.6356     162.7088   202.2838   15.3619    0.2445     0.0015     0.0000     0.0413     0.0413     0.0457     0.0410     0.0101     0.0017     0.3133     2.6564     2.6222     0.1203     0.0101     0.2754     0.0000     0.0000     0.4228     0.0000     0.0000     0.5772    
