~Version
 VERS              .         2.0                           : CWLS LOG ASCII STANDARD - VERSION 2.0
 WRAP              .         NO                            : ONE LINE PER DEPTH STEP
 DLM               .         SPACE                         : DELIMITING CHARACTER(SPACE TAB OR COMMA)
~Well Information
#_______________________________________________________________________________
#
#PARAMETER_NAME    .UNIT     VALUE                         : DESCRIPTION
#_______________________________________________________________________________
STRT               .ft       4040.0000                     : First reference value
STOP               .ft       7050.0000                     : Last reference value
STEP               .ft       0.5000                        : Step increment
NULL               .         -999.25                       : Missing value
COMP               .         One Earth Energy              : Company
WELL               .         OEE #1                        : Well name
FLD                .         OEE                           : Field
LOC                .                                       : Location
PROV               .         Illinois                      : Province
SRVC               .         Schlumberger                  : Service Company
DATE               .         26-Dec-2021                   : Date
UWI                .         12-113-25373-00               : Unique Well ID
APD                .ft       15                            : Elevation of Depth Reference (LMF) Above Permanent Datum
API                .         12-113-25373-00               : API NUMBER
BHS                .         OPEN                          : Borehole Status (Open or Cased Hole)
BHT                .degF     93.71                         : Bottom Hole Temperature
BLI                .ft       4052                          : Bottom Log Interval
BS                 .in       12.25                         : Bit Size
CBDR               .ft       374                           : Casing Bottom of Driller
CBLO               .ft       374                           : Logger Casing Shoe Depth
CNTY               .         McLean                        : COUNTY
CSIZ               .in       13.375                        : Current Casing Size
CWEI               .lbm/ft   54.5                          : Casing Weight
CTRY               .         United States of America - US : Nation
DCS                .         23-Dec-2021                   : Date Circulation Stopped
DFD                .lbm/gal  9.25                          : Drilling Fluid Density
DFT                .         WATER                         : Drilling Fluid Type
DLAB               .         26-Dec-2021                   : Date Logger At Bottom
EDF                .ft       840.0001                      : Elevation of Drill Floor
EGL                .ft       826                           : Elevation of Ground Level
EKB                .ft       841                           : Elevation of Kelly Bushing
EPD                .ft       826                           : Elevation of Permanent Datum (PDAT) above Mean Sea Level
GDAT               .                                       : GeoDetic Datum
LMF                .         KB                            : Logging Measured From (Name of Logging Elevation Reference)
LUL                .         Bradford                      : Logging Unit Location
LUN                .         2266                          : Logging Unit Number
LATI               .         40.485663 degrees             : Latitude
LONG               .         -88.468241 degrees            : Longitude
MCST               .degF     67.9                          : Mudcake Sample Temperature
MFST               .degF     66.3                          : Mud Filtrate Sample Temperature
MRT                .degF     93.71                         : Maximum Recorded Temperature
MST                .degF     65.4                          : Mud Sample Temperature
ORIGINALWELLNAME   .         OEE #1                        : 
PDAT               .         GL                            : Permanent Datum
PRODUCER-CODE      .         440                           : 
PRODUCER-NAME      .         Schlumberger                  : 
RMB                .ohm.m    3.533802                      : Resistivity of Mud at Bottom Hole Temperature
RMCS               .ohm.m    6.12                          : Resistivity of Mud Cake Sample
RMFS               .ohm.m    3.85                          : Resistivity of Mud Filtrate Sample
RMS                .ohm.m    4.92                          : Resistivity of Mud Sample
RUN                .         1C                            : Run Number
STAT               .         Illinois                      : State or Province
TCS                .         23_45_00                      : Time Circulation Stopped
TDD                .ft       4052                          : Driller Total Depth
TDL                .ft       4052                          : Logger Total Depth
TLAB               .         02_57_00                      : Time Logger At Bottom
TLI                .ft       379                           : Top Log Interval
~Parameter Information Block
#_______________________________________________________________________________
#
#PARAMETER_NAME    .UNIT     VALUE                         : DESCRIPTION
#_______________________________________________________________________________
SET                .         LQC_MP_043_Deliverables       : 
TLFamily_AT10      .         Resistivity - Induction Array 10: 
TLFamily_AT20      .         Resistivity - Induction Array 20: 
TLFamily_AT30      .         Resistivity - Induction Array 30: 
TLFamily_AT60      .         Resistivity - Induction Array 60: 
TLFamily_AT90      .         Resistivity - Induction Array 90: 
TLFamily_BS        .         Bit Size                      : 
TLFamily_C44       .         Elastic Modulus               : 
TLFamily_C55       .         Elastic Modulus               : 
TLFamily_C66       .         Elastic Modulus               : 
TLFamily_DTCO_MF_DDBHC .         Compressional Slowness        : 
TLFamily_DTSH_FAST .         Fast Shear Slowness           : 
TLFamily_DTSH_SLOW .         Slow Shear Slowness           : 
TLFamily_DTSH_STRVP .         Stoneley Shear Slowness       : 
TLFamily_GAMMA     .         Regularization Factor         : 
TLFamily_GR_EDTC   .         Gamma Ray                     : 
TLFamily_HCAL      .         Caliper                       : 
TLFamily_ISHE      .         Shear Strength                : 
TLFamily_MD        .         Measured Depth                : 
TLFamily_PPGI_MP_TD .         Pore Pressure Gradient        : 
TLFamily_PPGI_PorePressure .         Pore Pressure Gradient        : 
TLFamily_PR_HH     .         Poisson Ratio (Dynamic)       : 
TLFamily_PR_VH     .         Poisson Ratio (Dynamic)       : 
TLFamily_RHOZ      .         Bulk Density                  : 
TLFamily_SDEVM     .         Sonde Deviation               : 
TLFamily_SLOANI    .         Acoustic Anisotropy           : 
TLFamily_SPHI      .         Total Porosity                : 
TLFamily_TENS      .         Tension                       : 
TLFamily_TNPH      .         Thermal Neutron Porosity      : 
TLFamily_TSTR      .         Tensile Strength              : 
TLFamily_TXSG_ANISO .         Minimum Horizontal Stress Gradient: 
TLFamily_TXSG_ISO  .         Minimum Horizontal Stress Gradient: 
TLFamily_TXSP_ANISO .         Minimum Horizontal Stress     : 
TLFamily_TZSG      .         Vertical Stress Gradient      : 
TLFamily_UCS       .         Compressive Strength          : 
TLFamily_YME_H_STA .         Young's Modulus (Dynamic)     : 
TLFamily_YME_V_STA .         Young's Modulus (Dynamic)     : 
~Curve Information
#_______________________________________________________________________________
#
#LOGNAME           .UNIT     LOG_ID                        : DESCRIPTION
#_______________________________________________________________________________
MD                 .ft                                     : Measured DEPTH 
AT10               .ohm.m                                  : Array Induction Two Foot Resistivity A10 
AT20               .ohm.m                                  : Array Induction Two Foot Resistivity A20 
AT30               .ohm.m                                  : Array Induction Two Foot Resistivity A30 
AT60               .ohm.m                                  : Array Induction Two Foot Resistivity A60 
AT90               .ohm.m                                  : Array Induction Two Foot Resistivity A90 
BS                 .in                                     : Bit Size 
C44                .Mpsi                                   : C44 Modulus 
C55                .Mpsi                                   : C55 Modulus 
C66                .Mpsi                                   : C66 Modulus 
DTCO_MF_DDBHC      .us/ft                                  : Compressional slowness 
DTSH_FAST          .us/ft                                  : Shear slowness 
DTSH_SLOW          .us/ft                                  : Shear slowness 
DTSH_STRVP         .us/ft                                  : Stoneley Shear Slowness 
GAMMA              .unitless                               : Thomsens Anisotropy Parameter Gamma 
GR_EDTC            .gAPI                                   : Gamma Ray 
HCAL               .in                                     : HRCC Caliper Calibrated 
ISHE               .psi                                    : Cohesive Strength 
PPGI_MP_TD         .psi/ft                                 : Pore Pressure Gradient 
PPGI_PorePressure  .psi/ft                                 : Pore Pressure Gradient from XRP
PR_HH              .unitless                               : Poissons Ratio - Loading Horizontal - Displacement Horizontal 
PR_VH              .unitless                               : Poissons Ratio - Loading Vertical - Displacement Horizontal 
RHOZ               .g/cm3                                  : Standard Resolution Formation Density 
SDEVM              .deg                                    : Memorized Sonde Deviation 
SLOANI             .%                                      : Slowness-based Anisotropy 
SPHI               .ft3/ft3                                : Total porosity from Sonic 
TENS               .lbf                                    : Cable Tension 
TNPH               .ft3/ft3                                : Thermal Neutron Porosity (Ratio Method) in Selected Lithology 
TSTR               .psi                                    : Tensile Strength 
TXSG_ANISO         .psi/ft                                 : Anisotropic Minimum Horizontal Stress Gradient 
TXSG_ISO           .psi/ft                                 : Isotropic Minimum Horizontal Stress Gradient 
TXSP_ANISO         .psi                                    : Anisotropic Minimum Horizontal Stress 
TZSG               .psi/ft                                 : Overburden Stress Gradient 
UCS                .psi                                    : Unconfined Compressive Strength 
YME_H_STA          .Mpsi                                   :  Static Horizontal Youngs Modulus 
YME_V_STA          .Mpsi                                   : Static Vertical Youngs Modulus 
~Ascii
# ...
4638.5000  22.5529    12.3736    8.5693     5.2738     4.2383     8.5000     2.8595     2.8595     3.2859     65.3730    100.9741   112.1923   99.0148    0.0746     17.2896    8.4834     2677.1152  0.4300     -999.2500  0.2213     0.2066     2.3908     0.6922     10.5253    0.1263     2067.8667  0.1161     921.2316   0.6586     0.5824     3055.0483  1.0500     11054.7803 5.1402     4.1760    
4639.0000  18.8742    11.5001    7.9973     5.1278     4.0306     8.5000     2.9091     2.9091     3.3233     65.1240    99.9066    111.7675   98.5573    0.0712     17.8337    8.4906     2685.3301  0.4300     -999.2500  0.2180     0.2037     2.3957     0.6901     11.2068    0.1246     2062.0667  0.1093     931.6909   0.6543     0.5799     3035.4524  1.0500     11180.2900 5.2640     4.3071    
4639.5000  16.4177    10.4025    7.7649     4.9944     3.8755     8.5000     2.9283     2.9283     3.3437     64.9300    99.7463    111.3910   98.3447    0.0709     17.6100    8.4906     2706.2905  0.4300     -999.2500  0.2187     0.2043     2.4000     0.6881     11.0304    0.1232     2064.9333  0.1036     946.4246   0.6578     0.5828     3051.9575  1.0500     11357.0947 5.4227     4.4376    
4640.0000  13.5908    9.7738     7.3992     4.8542     3.7680     8.5000     2.9013     2.9013     3.3492     65.2257    100.8989   111.2574   98.3770    0.0772     19.3960    8.4870     2699.7024  0.4300     -999.2500  0.2213     0.2058     2.4056     0.6883     9.7650     0.1253     2077.4668  0.1064     942.9753   0.6659     0.5848     3089.7048  1.0500     11315.7041 5.5260     4.4519    
4640.5000  11.9787    8.8323     6.9695     4.7095     3.6780     8.5000     2.8187     2.8187     3.3351     65.4720    103.0008   112.3612   98.7128    0.0916     23.3681    8.4870     2786.4626  0.4300     -999.2500  0.2331     0.2149     2.4118     0.6907     8.6927     0.1270     2073.5334  0.1092     961.8091   0.6915     0.5982     3208.7991  1.0500     11541.7090 5.5977     4.3617    
4641.0000  11.6568    8.6871     6.9507     4.7379     3.7064     8.5000     2.6996     2.6996     3.3202     65.6382    105.4954   114.9366   99.1098    0.1149     27.2159    8.4870     2961.7976  0.4300     -999.2500  0.2504     0.2281     2.4204     0.6932     8.5661     0.1282     2084.4668  0.1165     1002.3990  0.7324     0.6207     3399.1387  1.0500     12028.7881 5.7010     4.2231    
4641.5000  12.3162    8.0554     7.0622     4.9533     3.7748     8.5000     2.6115     2.6115     3.3033     65.8378    107.5336   117.0328   99.5681    0.1325     30.0847    8.4979     3079.5742  0.4300     -999.2500  0.2611     0.2362     2.4304     0.6967     8.4600     0.1296     2070.2666  0.1132     1028.5692  0.7613     0.6371     3533.4941  1.0500     12342.8301 5.7780     4.1327    
4642.0000  12.2956    8.0539     7.5485     5.3849     4.1348     8.5000     2.5667     2.5667     3.2727     66.1283    108.6348   117.8301   100.0305   0.1375     35.8397    8.5196     3063.0513  0.4300     -999.2500  0.2633     0.2381     2.4303     0.7007     8.1207     0.1316     2087.7332  0.1114     1018.6217  0.7671     0.6406     3561.0593  1.0500     12223.4609 5.7407     4.0710    
4642.5000  13.1390    8.3083     7.6143     5.0323     4.0693     8.5000     2.5395     2.5395     3.2368     66.2402    109.4016   117.9163   100.4622   0.1373     45.2627    8.5305     3033.7429  0.4300     -999.2500  0.2640     0.2392     2.4244     0.7037     7.4915     0.1324     2138.2000  0.1152     1007.3715  0.7668     0.6422     3559.9641  1.0500     12088.4570 5.6512     4.0168    
4643.0000  13.3526    8.6622     7.8542     5.5071     4.5354     8.5000     2.5290     2.5290     3.2112     66.0182    110.3807   117.2402   100.8630   0.1349     45.5666    8.5631     3073.4326  0.4300     -999.2500  0.2666     0.2422     2.4245     0.7072     6.0271     0.1309     2127.4668  0.1291     1019.3806  0.7687     0.6471     3569.1306  1.0500     12232.5674 5.5584     3.9764    
4643.5000  14.7918    11.3364    8.8035     6.2721     5.1083     8.5000     2.5465     2.5465     3.1798     64.7718    110.4954   116.1097   101.3005   0.1243     39.1901    8.5631     3249.0313  0.4300     -999.2500  0.2742     0.2509     2.4216     0.7099     4.9552     0.1221     2128.5999  0.1272     1085.7880  0.7763     0.6634     3604.5698  1.0500     13029.4551 5.4991     4.0285    
4644.0000  21.2651    13.9446    11.1209    7.4845     6.3445     8.5000     2.6528     2.6528     3.1809     62.9738    108.7860   113.6151   101.4794   0.0995     27.6831    8.5486     3462.1086  0.4300     -999.2500  0.2787     0.2582     2.4311     0.7094     4.3426     0.1094     2075.3572  0.1120     1186.0562  0.7718     0.6772     3584.2566  1.0500     14232.6738 5.5401     4.2798    
4644.5000  24.6595    17.6536    12.5815    8.2324     6.7793     8.5000     2.8404     2.8404     3.1832     62.1794    105.4854   109.6246   101.5410   0.0604     24.2133    8.5196     3308.9912  0.4300     -999.2500  0.2627     0.2491     2.4358     0.7086     3.8485     0.1037     2086.8667  0.0945     1183.4269  0.7235     0.6613     3360.2356  1.0500     14201.1221 5.5282     4.6761    
4645.0000  26.6984    19.2111    13.4925    8.6203     7.0486     8.5000     3.0670     3.0670     3.1957     62.3775    101.3905   105.9961   101.5090   0.0210     20.6661    8.5196     2912.9810  0.4300     -999.2500  0.2241     0.2192     2.4438     0.7078     4.4416     0.1051     2072.5334  0.0865     1092.6134  0.6458     0.6222     2999.8674  1.0500     13111.3613 5.4457     5.1134    
4645.5000  27.6106    19.6732    13.7900    8.8078     7.2672     8.5000     3.1283     3.4161     3.2150     62.8797    98.3801    102.8057   101.4106   0.0139     21.9065    8.5087     2619.3062  0.4300     -999.2500  0.1306     0.1585     2.4538     0.7062     4.3995     0.1087     2058.6001  0.0830     995.3875   0.5196     0.5534     2413.9717  1.0500     11944.6494 4.5967     5.5765    
4646.0000  27.5407    19.8999    13.9810    8.9625     7.3695     8.5000     3.2549     3.4465     3.2338     63.3275    98.0390    100.8843   101.2129   -0.0032    24.0151    8.5087     2403.5256  0.4300     -999.2500  0.1270     0.1442     2.4585     0.7041     2.8607     0.1119     2095.7334  0.0855     935.8780   0.5190     0.5406     2411.3555  1.0500     11230.5361 4.9899     5.6624    
4646.5000  27.3131    19.6312    13.7495    8.9557     7.4985     8.5000     3.2276     3.3207     3.2582     63.8018    99.8537    101.2838   100.8067   0.0000     41.5587    8.5305     2368.6011  0.4300     -999.2500  0.1466     0.1564     2.4572     0.7022     1.4220     0.1152     2084.2666  0.0902     932.0063   0.5430     0.5647     2522.9753  1.0500     11184.0762 5.2927     5.6458    
4647.0000  26.9200    18.9163    13.9387    9.0104     7.6138     8.5000     3.1358     3.1358     3.2855     64.3987    102.3561   102.9632   100.2919   0.0239     65.6419    8.6211     2439.3369  0.4300     -999.2500  0.1882     0.1833     2.4526     0.7000     0.5915     0.1194     2060.1333  0.1016     939.4681   0.6051     0.5770     2811.6907  1.0500     11273.6182 5.8336     5.4236    
4647.5000  28.0735    18.7410    14.1942    9.1560     7.8074     8.5000     3.0142     3.0142     3.3590     64.8351    104.6182   105.1930   99.3741    0.0572     83.0010    8.7661     2645.2832  0.4300     -999.2500  0.2149     0.2029     2.4618     0.6977     0.5479     0.1225     2085.3333  0.1282     982.0789   0.6581     0.5937     3058.3079  1.0500     11784.9473 6.1211     5.1857    
4648.0000  30.4944    19.0225    14.1286    9.0471     7.8126     8.5000     2.8917     2.8917     3.4125     65.7001    106.4573   107.9213   98.6635    0.0901     89.9392    8.7588     2773.7229  0.4300     -999.2500  0.2301     0.2117     2.4653     0.6959     1.3658     0.1286     2105.4666  0.1460     984.9045   0.6951     0.5991     3230.6982  1.0500     11818.8545 6.1545     4.7991    
4648.5000  30.0931    18.4814    14.0770    8.9988     7.7911     8.5000     2.7865     2.7865     3.4599     66.4637    107.7213   110.3708   97.8392    0.1208     101.7967   8.7951     2871.4695  0.4300     -999.2500  0.2397     0.2161     2.4580     0.6947     2.4297     0.1340     2136.8000  0.1464     978.2205   0.7234     0.6008     3362.6880  1.0500     11738.6455 6.1069     4.4348    
