~Version
 VERS              .         2.0                           : CWLS LOG ASCII STANDARD - VERSION 2.0
 WRAP              .         NO                            : ONE LINE PER DEPTH STEP
 DLM               .         SPACE                         : DELIMITING CHARACTER(SPACE TAB OR COMMA)
~Well Information
#_______________________________________________________________________________
#
#PARAMETER_NAME    .UNIT     VALUE                         : DESCRIPTION
#_______________________________________________________________________________
STRT               .ft       4040.0000                     : First reference value
STOP               .ft       7050.0000                     : Last reference value
STEP               .ft       0.5000                        : Step increment
NULL               .         -999.25                       : Missing value
COMP               .         One Earth Energy              : Company
WELL               .         OEE #1                        : Well name
FLD                .         OEE                           : Field
LOC                .                                       : Location
PROV               .         Illinois                      : Province
SRVC               .         Schlumberger                  : Service Company
DATE               .         26-Dec-2021                   : Date
UWI                .         12-113-25373-00               : Unique Well ID
APD                .ft       15                            : Elevation of Depth Reference (LMF) Above Permanent Datum
API                .         12-113-25373-00               : API NUMBER
BHS                .         OPEN                          : Borehole Status (Open or Cased Hole)
BHT                .degF     93.71                         : Bottom Hole Temperature
BLI                .ft       4052                          : Bottom Log Interval
BS                 .in       12.25                         : Bit Size
CBDR               .ft       374                           : Casing Bottom of Driller
CBLO               .ft       374                           : Logger Casing Shoe Depth
CNTY               .         McLean                        : COUNTY
CSIZ               .in       13.375                        : Current Casing Size
CWEI               .lbm/ft   54.5                          : Casing Weight
CTRY               .         United States of America - US : Nation
DCS                .         23-Dec-2021                   : Date Circulation Stopped
DFD                .lbm/gal  9.25                          : Drilling Fluid Density
DFT                .         WATER                         : Drilling Fluid Type
DLAB               .         26-Dec-2021                   : Date Logger At Bottom
EDF                .ft       840.0001                      : Elevation of Drill Floor
EGL                .ft       826                           : Elevation of Ground Level
EKB                .ft       841                           : Elevation of Kelly Bushing
EPD                .ft       826                           : Elevation of Permanent Datum (PDAT) above Mean Sea Level
GDAT               .                                       : GeoDetic Datum
LMF                .         KB                            : Logging Measured From (Name of Logging Elevation Reference)
LUL                .         Bradford                      : Logging Unit Location
LUN                .         2266                          : Logging Unit Number
LATI               .         40.485663 degrees             : Latitude
LONG               .         -88.468241 degrees            : Longitude
MCST               .degF     67.9                          : Mudcake Sample Temperature
MFST               .degF     66.3                          : Mud Filtrate Sample Temperature
MRT                .degF     93.71                         : Maximum Recorded Temperature
MST                .degF     65.4                          : Mud Sample Temperature
ORIGINALWELLNAME   .         OEE #1                        : 
PDAT               .         GL                            : Permanent Datum
PRODUCER-CODE      .         440                           : 
PRODUCER-NAME      .         Schlumberger                  : 
RMB                .ohm.m    3.533802                      : Resistivity of Mud at Bottom Hole Temperature
RMCS               .ohm.m    6.12                          : Resistivity of Mud Cake Sample
RMFS               .ohm.m    3.85                          : Resistivity of Mud Filtrate Sample
RMS                .ohm.m    4.92                          : Resistivity of Mud Sample
RUN                .         1C                            : Run Number
STAT               .         Illinois                      : State or Province
TCS                .         23_45_00                      : Time Circulation Stopped
TDD                .ft       4052                          : Driller Total Depth
TDL                .ft       4052                          : Logger Total Depth
TLAB               .         02_57_00                      : Time Logger At Bottom
TLI                .ft       379                           : Top Log Interval
~Parameter Information Block
#_______________________________________________________________________________
#
#PARAMETER_NAME    .UNIT     VALUE                         : DESCRIPTION
#_______________________________________________________________________________
SET                .         LQC_MP_043_Deliverables       : 
TLFamily_AT10      .         Resistivity - Induction Array 10: 
TLFamily_AT20      .         Resistivity - Induction Array 20: 
TLFamily_AT30      .         Resistivity - Induction Array 30: 
TLFamily_AT60      .         Resistivity - Induction Array 60: 
TLFamily_AT90      .         Resistivity - Induction Array 90: 
TLFamily_BS        .         Bit Size                      : 
TLFamily_C44       .         Elastic Modulus               : 
TLFamily_C55       .         Elastic Modulus               : 
TLFamily_C66       .         Elastic Modulus               : 
TLFamily_DTCO_MF_DDBHC .         Compressional Slowness        : 
TLFamily_DTSH_FAST .         Fast Shear Slowness           : 
TLFamily_DTSH_SLOW .         Slow Shear Slowness           : 
TLFamily_DTSH_STRVP .         Stoneley Shear Slowness       : 
TLFamily_GAMMA     .         Regularization Factor         : 
TLFamily_GR_EDTC   .         Gamma Ray                     : 
TLFamily_HCAL      .         Caliper                       : 
TLFamily_ISHE      .         Shear Strength                : 
TLFamily_MD        .         Measured Depth                : 
TLFamily_PPGI_MP_TD .         Pore Pressure Gradient        : 
TLFamily_PPGI_PorePressure .         Pore Pressure Gradient        : 
TLFamily_PR_HH     .         Poisson Ratio (Dynamic)       : 
TLFamily_PR_VH     .         Poisson Ratio (Dynamic)       : 
TLFamily_RHOZ      .         Bulk Density                  : 
TLFamily_SDEVM     .         Sonde Deviation               : 
TLFamily_SLOANI    .         Acoustic Anisotropy           : 
TLFamily_SPHI      .         Total Porosity                : 
TLFamily_TENS      .         Tension                       : 
TLFamily_TNPH      .         Thermal Neutron Porosity      : 
TLFamily_TSTR      .         Tensile Strength              : 
TLFamily_TXSG_ANISO .         Minimum Horizontal Stress Gradient: 
TLFamily_TXSG_ISO  .         Minimum Horizontal Stress Gradient: 
TLFamily_TXSP_ANISO .         Minimum Horizontal Stress     : 
TLFamily_TZSG      .         Vertical Stress Gradient      : 
TLFamily_UCS       .         Compressive Strength          : 
TLFamily_YME_H_STA .         Young's Modulus (Dynamic)     : 
TLFamily_YME_V_STA .         Young's Modulus (Dynamic)     : 
~Curve Information
#_______________________________________________________________________________
#
#LOGNAME           .UNIT     LOG_ID                        : DESCRIPTION
#_______________________________________________________________________________
MD                 .ft                                     : Measured DEPTH 
AT10               .ohm.m                                  : Array Induction Two Foot Resistivity A10 
AT20               .ohm.m                                  : Array Induction Two Foot Resistivity A20 
AT30               .ohm.m                                  : Array Induction Two Foot Resistivity A30 
AT60               .ohm.m                                  : Array Induction Two Foot Resistivity A60 
AT90               .ohm.m                                  : Array Induction Two Foot Resistivity A90 
BS                 .in                                     : Bit Size 
C44                .Mpsi                                   : C44 Modulus 
C55                .Mpsi                                   : C55 Modulus 
C66                .Mpsi                                   : C66 Modulus 
DTCO_MF_DDBHC      .us/ft                                  : Compressional slowness 
DTSH_FAST          .us/ft                                  : Shear slowness 
DTSH_SLOW          .us/ft                                  : Shear slowness 
DTSH_STRVP         .us/ft                                  : Stoneley Shear Slowness 
GAMMA              .unitless                               : Thomsens Anisotropy Parameter Gamma 
GR_EDTC            .gAPI                                   : Gamma Ray 
HCAL               .in                                     : HRCC Caliper Calibrated 
ISHE               .psi                                    : Cohesive Strength 
PPGI_MP_TD         .psi/ft                                 : Pore Pressure Gradient 
PPGI_PorePressure  .psi/ft                                 : Pore Pressure Gradient from XRP
PR_HH              .unitless                               : Poissons Ratio - Loading Horizontal - Displacement Horizontal 
PR_VH              .unitless                               : Poissons Ratio - Loading Vertical - Displacement Horizontal 
RHOZ               .g/cm3                                  : Standard Resolution Formation Density 
SDEVM              .deg                                    : Memorized Sonde Deviation 
SLOANI             .%                                      : Slowness-based Anisotropy 
SPHI               .ft3/ft3                                : Total porosity from Sonic 
TENS               .lbf                                    : Cable Tension 
TNPH               .ft3/ft3                                : Thermal Neutron Porosity (Ratio Method) in Selected Lithology 
TSTR               .psi                                    : Tensile Strength 
TXSG_ANISO         .psi/ft                                 : Anisotropic Minimum Horizontal Stress Gradient 
TXSG_ISO           .psi/ft                                 : Isotropic Minimum Horizontal Stress Gradient 
TXSP_ANISO         .psi                                    : Anisotropic Minimum Horizontal Stress 
TZSG               .psi/ft                                 : Overburden Stress Gradient 
UCS                .psi                                    : Unconfined Compressive Strength 
YME_H_STA          .Mpsi                                   :  Static Horizontal Youngs Modulus 
YME_V_STA          .Mpsi                                   : Static Vertical Youngs Modulus 
~Ascii
# ...
5646.5000  30.0626    14.1425    10.0270    6.6171     5.9489     8.5000     3.7421     3.7421     3.7599     60.6345    93.1207    97.2850    94.9087    0.0024     30.8278    8.6936     3007.0095  0.4300     -999.2500  0.1598     0.1593     2.5135     1.7641     4.3742     0.0928     2382.2668  0.0673     1191.4596  0.5575     0.5542     3147.6565  1.0500     14297.5146 6.5511     6.4981    
5647.0000  34.0552    14.9140    10.4551    6.7711     6.2168     8.5000     3.6062     3.9100     3.7320     60.9418    92.9777    96.8149    95.1700    0.0174     37.2346    8.6718     2916.8589  0.4300     -999.2500  0.1056     0.1256     2.5086     1.7639     4.0435     0.0950     2382.8125  0.0668     1138.0684  0.4919     0.5179     2777.3806  1.0500     13656.8203 5.5937     6.6546    
5647.5000  35.8806    15.4965    10.5950    6.7556     6.2910     8.5000     3.5409     3.8603     3.6591     61.7330    93.3938    97.5150    95.9269    0.0167     42.4428    8.6610     2702.7202  0.4300     -999.2500  0.0949     0.1140     2.4989     1.7642     4.3174     0.1006     2396.8667  0.0749     1053.8900  0.4788     0.5041     2703.6531  1.0500     12646.6807 5.3963     6.4808    
5648.0000  36.8955    16.1273    10.5592    6.6453     6.1807     8.5000     3.4270     3.7426     3.5474     62.0839    94.5255    98.7821    97.0911    0.0176     41.5051    8.6610     2657.7390  0.4300     -999.2500  0.1019     0.1230     2.4818     1.7651     4.4040     0.1031     2384.0000  0.0876     1030.3748  0.4838     0.5107     2732.5178  1.0500     12364.4971 5.1939     6.2681    
5648.5000  35.8766    16.8840    10.4320    6.4805     5.9171     8.5000     3.3366     3.5874     3.4305     62.2470    96.2953    99.8484    98.4718    0.0141     34.1066    8.6610     2668.1118  0.4300     -999.2500  0.1227     0.1438     2.4687     1.7662     3.6229     0.1042     2374.3999  0.0915     1031.8684  0.5045     0.5296     2849.5349  1.0500     12382.4209 5.1443     6.0288    
5649.0000  31.6055    16.8415    9.9190     6.1916     5.5117     8.5000     3.2761     3.4534     3.3181     62.3894    97.9174    100.5319   99.8938    0.0064     26.6394    8.6501     2641.1816  0.4300     -999.2500  0.1428     0.1608     2.4573     1.7676     2.6349     0.1052     2368.0000  0.0911     1022.6761  0.5253     0.5457     2967.2473  1.0500     12272.1133 5.1381     5.7836    
5649.5000  25.2694    15.4514    9.0317     5.7134     5.0017     8.5000     3.2212     3.3867     3.2616     63.0266    98.8087    101.3149   100.6855   0.0063     26.5651    8.6501     2537.3501  0.4300     -999.2500  0.1424     0.1593     2.4539     1.7691     2.5046     0.1097     2387.6667  0.0879     977.5804   0.5230     0.5421     2954.3186  1.0500     11730.9648 5.0015     5.5973    
5650.0000  20.6974    13.9342    8.2447     5.3321     4.5678     8.5000     3.1600     3.3273     3.1787     63.9871    99.5852    102.1865   101.8859   0.0030     29.0481    8.6501     2336.5994  0.4300     -999.2500  0.1342     0.1506     2.4489     1.7707     2.5785     0.1165     2382.7334  0.0943     902.2615   0.5122     0.5307     2893.8218  1.0500     10827.1377 4.8456     5.4357    
5650.5000  17.4901    12.7877    7.7605     5.0587     4.2413     8.5000     3.1084     3.2572     3.1126     64.2466    100.6310   103.0116   102.9414   0.0000     29.4218    8.6610     2340.8257  0.4300     -999.2500  0.1423     0.1581     2.4479     1.7731     2.3380     0.1184     2371.5334  0.0974     908.5410   0.5207     0.5566     2942.1833  1.0500     10902.4922 4.8397     5.3764    
5651.0000  17.2991    11.6845    7.3602     4.8393     4.0088     8.5000     3.0563     3.2018     3.0756     63.8442    101.5531   103.9415   103.6148   0.0000     29.0519    8.6610     2433.0813  0.4300     -999.2500  0.1582     0.1759     2.4506     1.7749     2.3245     0.1155     2370.0000  0.0991     948.0175   0.5390     0.5748     3045.5269  1.0500     11376.2090 4.8693     5.4143    
5651.5000  19.2133    11.2148    7.1799     4.7508     3.8719     8.5000     2.9907     3.1654     3.0640     63.3485    102.1420   105.0817   103.8185   0.0122     28.3315    8.6283     2593.4705  0.4300     -999.2500  0.1679     0.1912     2.4509     1.7771     2.8372     0.1120     2389.5625  0.0940     996.2009   0.5500     0.5751     3108.3320  1.0500     11954.4111 4.7639     5.4266    
5652.0000  22.4115    11.3464    7.5128     4.8233     3.8798     8.5000     3.0481     3.0481     3.0539     62.9507    102.4074   105.9743   104.0464   0.0009     29.1233    8.6501     2642.9414  0.4300     -999.2500  0.2125     0.2123     2.4536     1.7789     3.4234     0.1092     2399.0000  0.0901     1027.1473  0.6050     0.6040     3419.2524  1.0500     12325.7676 5.3079     5.2925    
5652.5000  24.7664    11.6366    7.4445     4.7564     3.8560     8.5000     3.0472     3.0472     3.0511     62.6433    102.4406   106.1047   104.1571   0.0006     27.4087    8.6501     2712.9700  0.4300     -999.2500  0.2175     0.2173     2.4566     1.7813     3.5139     0.1070     2386.2668  0.0878     1053.1639  0.6112     0.6105     3454.3376  1.0500     12637.9668 5.3060     5.2956    
5653.0000  27.2941    11.3797    7.5664     4.7553     3.8490     8.5000     2.9525     3.1595     3.0463     62.4201    102.4406   105.9702   104.3259   0.0159     24.6868    8.6428     2852.4368  0.4300     -999.2500  0.1796     0.2100     2.4606     1.7833     3.3871     0.1054     2390.3333  0.0859     1087.3368  0.5643     0.5965     3189.8167  1.0500     13048.0420 4.6666     5.4583    
5653.5000  27.6248    11.7358    7.6497     4.7425     3.8311     8.5000     2.9976     3.1706     3.0310     62.2486    102.2953   105.2060   104.6255   0.0056     26.2742    8.6501     2808.7515  0.4300     -999.2500  0.1847     0.2105     2.4623     1.7860     2.8055     0.1042     2395.0669  0.0822     1084.7146  0.5712     0.5985     3228.9429  1.0500     13016.5752 4.8178     5.4910    
5654.0000  26.3133    11.6471    7.5785     4.6403     3.7822     8.5000     3.0722     3.2270     3.0043     62.3667    101.3241   103.8455   105.0129   -0.0111    26.1767    8.6610     2699.7422  0.4300     -999.2500  0.1772     0.1986     2.4588     1.7882     2.4579     0.1051     2391.6001  0.0823     1054.5844  0.5633     0.5863     3184.7268  1.0500     12655.0127 4.9917     5.5946    
5654.5000  24.8062    11.4009    7.3691     4.5396     3.6736     8.5000     3.1314     3.3629     2.9812     62.7965    99.2559    102.8596   105.4200   -0.0240    25.5253    8.6718     2541.7419  0.4300     -999.2500  0.1449     0.1699     2.4588     1.7912     3.5659     0.1081     2383.2000  0.0862     996.8935   0.5261     0.5542     2974.8608  1.0500     11962.7227 4.8961     5.7430    
5655.0000  22.9936    11.0027    7.1642     4.4595     3.5809     8.5000     3.1013     3.4493     2.9526     63.3699    97.9077    103.2546   105.8236   -0.0240    20.9118    8.6501     2368.5020  0.4300     -999.2500  0.1140     0.1432     2.4539     1.7940     5.3160     0.1122     2389.2000  0.0903     926.8890   0.4902     0.5243     2771.8909  1.0500     11122.6680 4.5580     5.7273    
5655.5000  21.4583    10.7237    7.0119     4.3583     3.4630     8.5000     2.9402     3.4129     2.9273     63.8947    98.3753    105.9889   106.2209   -0.0022    21.6306    8.6573     2292.0701  0.4300     -999.2500  0.1023     0.1398     2.4512     1.7968     7.4510     0.1159     2380.6877  0.0944     889.7261   0.4741     0.5175     2680.9241  1.0500     10676.7129 4.0583     5.5457    
5656.0000  19.9528    10.4327    6.8476     4.2847     3.3898     8.5000     2.7864     3.3559     2.9036     64.2167    99.1356    108.7971   106.5783   0.0210     22.7206    8.6718     2399.8406  0.4300     -999.2500  0.0983     0.1443     2.4477     1.8006     9.2930     0.1181     2411.6667  0.0964     901.9750   0.4669     0.5191     2640.5322  1.0500     10823.7002 3.6614     5.3743    
5656.5000  19.9704    10.1768    6.7463     4.2351     3.3329     8.5000     2.8000     3.3210     2.8843     64.3122    99.5655    108.4337   106.8389   0.0150     23.7876    8.6646     2357.3550  0.4300     -999.2500  0.1035     0.1477     2.4433     1.8038     8.5271     0.1188     2398.8000  0.0990     889.3925   0.4723     0.5219     2671.4646  1.0500     10672.7100 3.7095     5.2939    
