~Version
 VERS              .         2.0                           : CWLS LOG ASCII STANDARD - VERSION 2.0
 WRAP              .         NO                            : ONE LINE PER DEPTH STEP
 DLM               .         SPACE                         : DELIMITING CHARACTER(SPACE TAB OR COMMA)
~Well Information
#_______________________________________________________________________________
#
#PARAMETER_NAME    .UNIT     VALUE                         : DESCRIPTION
#_______________________________________________________________________________
STRT               .ft       4040.0000                     : First reference value
STOP               .ft       7075.0000                     : Last reference value
STEP               .ft       0.5000                        : Step increment
NULL               .         -999.25                       : Missing value
COMP               .         One Earth Energy              : Company
WELL               .         OEE #1                        : Well name
FLD                .         OEE                           : Field
LOC                .                                       : Location
PROV               .         Illinois                      : Province
SRVC               .         Schlumberger                  : Service Company
DATE               .         26-Dec-2021                   : Date
UWI                .         12-113-25373-00               : Unique Well ID
APD                .ft       15                            : Elevation of Depth Reference (LMF) Above Permanent Datum
API                .         12-113-25373-00               : API NUMBER
BHS                .         OPEN                          : Borehole Status (Open or Cased Hole)
BHT                .degF     93.71                         : Bottom Hole Temperature
BLI                .ft       4052                          : Bottom Log Interval
BS                 .in       12.25                         : Bit Size
CBDR               .ft       374                           : Casing Bottom of Driller
CBLO               .ft       374                           : Logger Casing Shoe Depth
CNTY               .         McLean                        : COUNTY
CSIZ               .in       13.375                        : Current Casing Size
CWEI               .lbm/ft   54.5                          : Casing Weight
CTRY               .         United States of America - US : Nation
DCS                .         23-Dec-2021                   : Date Circulation Stopped
DFD                .lbm/gal  9.25                          : Drilling Fluid Density
DFT                .         WATER                         : Drilling Fluid Type
DLAB               .         26-Dec-2021                   : Date Logger At Bottom
EDF                .ft       840.0001                      : Elevation of Drill Floor
EGL                .ft       826                           : Elevation of Ground Level
EKB                .ft       841                           : Elevation of Kelly Bushing
EPD                .ft       826                           : Elevation of Permanent Datum (PDAT) above Mean Sea Level
GDAT               .                                       : GeoDetic Datum
LMF                .         KB                            : Logging Measured From (Name of Logging Elevation Reference)
LUL                .         Bradford                      : Logging Unit Location
LUN                .         2266                          : Logging Unit Number
LATI               .         40.485663 degrees             : Latitude
LONG               .         -88.468241 degrees            : Longitude
MCST               .degF     67.9                          : Mudcake Sample Temperature
MFST               .degF     66.3                          : Mud Filtrate Sample Temperature
MRT                .degF     93.71                         : Maximum Recorded Temperature
MST                .degF     65.4                          : Mud Sample Temperature
ORIGINALWELLNAME   .         OEE #1                        : 
PDAT               .         GL                            : Permanent Datum
PRODUCER-CODE      .         440                           : 
PRODUCER-NAME      .         Schlumberger                  : 
RMB                .ohm.m    3.533802                      : Resistivity of Mud at Bottom Hole Temperature
RMCS               .ohm.m    6.12                          : Resistivity of Mud Cake Sample
RMFS               .ohm.m    3.85                          : Resistivity of Mud Filtrate Sample
RMS                .ohm.m    4.92                          : Resistivity of Mud Sample
RUN                .         1C                            : Run Number
STAT               .         Illinois                      : State or Province
TCS                .         23_45_00                      : Time Circulation Stopped
TDD                .ft       4052                          : Driller Total Depth
TDL                .ft       4052                          : Logger Total Depth
TLAB               .         02_57_00                      : Time Logger At Bottom
TLI                .ft       379                           : Top Log Interval
~Parameter Information Block
#_______________________________________________________________________________
#
#PARAMETER_NAME    .UNIT     VALUE                         : DESCRIPTION
#_______________________________________________________________________________
SET                .         LQC                           : 
TLFamily_AT10      .         Resistivity - Induction Array 10: 
TLFamily_AT20      .         Resistivity - Induction Array 20: 
TLFamily_AT30      .         Resistivity - Induction Array 30: 
TLFamily_AT60      .         Resistivity - Induction Array 60: 
TLFamily_AT90      .         Resistivity - Induction Array 90: 
TLFamily_BS        .         Bit Size                      : 
TLFamily_Calcite_QE .        Calcite Volume Fraction       : 
TLFamily_HCAL      .         Caliper                       : 
TLFamily_HCGR      .         Gamma Ray Minus Uranium       : 
TLFamily_HSGR      .         Gamma Ray                     : 
TLFamily_HTHO      .         Thorium Concentration         : 
TLFamily_Illite_QE .         Illite Volume Fraction        : 
TLFamily_KINT_GEO_QE .       Permeability                  : 
TLFamily_KSDR_CMR  .         NMR Permeability              : 
TLFamily_MD        .         Measured Depth                : 
TLFamily_MRP_CMR   .         NMR Porosity                  : 
TLFamily_MRP_CMR_Edited .    NMR Porosity                  : 
TLFamily_MRP_CMR_Edited_REC_QE .NMR Porosity               : 
TLFamily_PHIT_QE   .         Total Porosity                : 
TLFamily_PIGN_QE   .         Effective Porosity            : 
TLFamily_Pyrite_QE .         Pyrite Volume Fraction        : 
TLFamily_Quartz_QE .         Quartz Volume Fraction        : 
TLFamily_RHGA_GEO_QE .       Grain Density                 : 
TLFamily_RHOZ      .         Bulk Density                  : 
TLFamily_TNPH_LIM  .         Thermal Neutron Porosity Limestone: 
TLFamily_UWater_QE .         Undisturbed Zone Water Volume Fraction: 
TLFamily_VCL_GEO_QE .        Clay Volume Fraction          : 
TLFamily_WANH_WALK2 .        Anhydrite Weight Fraction     : 
TLFamily_WCAR_WALK2 .        Carbonate Weight Fraction     : 
TLFamily_WCLA_WALK2 .        Clay Weight Fraction          : 
TLFamily_WCOA_WALK2 .        Coal Weight Fraction          : 
TLFamily_WPYR_WALK2 .        Pyrite Weight Fraction        : 
TLFamily_WQFM_WALK2 .        Quartz-Feldspar-Mica Weight Fraction: 
~Curve Information
#_______________________________________________________________________________
#
#LOGNAME           .UNIT     LOG_ID                        : DESCRIPTION
#_______________________________________________________________________________
MD                 .ft                                     : Measured DEPTH 
AT10               .ohm.m                                  : Array Induction Two Foot Resistivity A10 
AT20               .ohm.m                                  : Array Induction Two Foot Resistivity A20 
AT30               .ohm.m                                  : Array Induction Two Foot Resistivity A30 
AT60               .ohm.m                                  : Array Induction Two Foot Resistivity A60 
AT90               .ohm.m                                  : Array Induction Two Foot Resistivity A90 
BS                 .in                                     : Bit Size 
Calcite_QE         .v/v                                    : Calcite Volume Fraction 
HCAL               .in                                     : HRCC Caliper Calibrated 
HCGR               .gAPI                                   : HNGS Computed Gamma Ray 
HSGR               .gAPI                                   : HNGS Standard Gamma-Ray 
HTHO               .ppm                                    : HNGS Formation Thorium Concentration 
Illite_QE          .v/v                                    : Illite Volume Fraction 
KINT_GEO_QE        .mD                                     : Permeability (Juhasz 1979) 
KSDR_CMR           .mD                                     : SDR Permeability 
MRP_CMR            .ft3/ft3                                : Magnetic Resonance Porosity 
MRP_CMR_Edited     .ft3/ft3                                : Magnetic Resonance Porosity 
MRP_CMR_Edited_REC_QE .ft3/ft3                             : Quanti.Elan Reconstructed curve 
PHIT_QE            .v/v                                    : Total Porosity 
PIGN_QE            .v/v                                    : Effective porosity (with irreducible water) 
Pyrite_QE          .v/v                                    : Pyrite Volume Fraction 
Quartz_QE          .v/v                                    : Quartz Volume Fraction 
RHGA_GEO_QE        .g/cm3                                  : Apparent grain density 
RHOZ               .g/cm3                                  : Standard Resolution Formation Density 
TNPH_LIM           .ft3/ft3                                : Thermal Neutron Porosity (matrix Limestone) 
UWater_QE          .v/v                                    : Undisturbed Zone Water Volume Fraction 
VCL_GEO_QE         .v/v                                    : Clay fraction 
WANH_WALK2         .lbm/lbm                                : Dry Weight Fraction Anhydrite/Gypsum 
WCAR_WALK2         .lbm/lbm                                : Dry Weight Fraction Carbonate 
WCLA_WALK2         .lbm/lbm                                : Dry Weight Fraction Clay 
WCOA_WALK2         .lbm/lbm                                : Dry Weight Fraction Coal 
WPYR_WALK2         .lbm/lbm                                : Dry Weight Fraction Pyrite from WALK2 Model 
WQFM_WALK2         .lbm/lbm                                : Dry Weight Fraction Quartz+Feldspar+Mica (QFM) 
~Ascii
4040.0000  1949.9996  1.4657     1949.9996  69.1469    240.5035   12.2500    -999.2500  8.8313     77.5278    84.9901    6.2389     -999.2500  -999.2500  -999.2500  -999.2500  -999.2500  -999.2500  -999.2500  -999.2500  -999.2500  -999.2500  -999.2500  3.9835     0.2422     -999.2500  -999.2500  -999.2500  -999.2500  -999.2500  -999.2500  -999.2500  -999.2500 
4040.5000  1949.9996  1.4490     1927.3126  70.9634    220.7181   12.2500    0.0438     8.8313     76.8327    84.5442    5.9922     0.5617     0.0000     139.2787   0.0487     0.0487     -999.2500  0.0725     0.0001     0.2189     0.1031     3.2899     3.9683     0.2558     0.0000     0.6343     0.0000     0.1241     0.6550     0.0000     0.0255     0.1955    
4041.0000  1949.9996  1.4323     1789.4523  75.8887    202.9203   12.2500    0.0834     8.8458     76.7019    84.2809    5.9525     0.5260     0.0000     167.0821   0.0511     0.0511     0.0725     0.0679     0.0001     0.2184     0.1042     3.2828     3.9633     0.2438     0.0000     0.5939     0.0000     0.1568     0.6209     0.0000     0.0265     0.1957    
4041.5000  1949.9996  1.4141     1555.3052  87.4278    180.6558   12.2500    0.0902     8.8386     75.8417    83.6156    5.8746     0.5094     0.0000     183.7948   0.0524     0.0524     0.0679     0.0658     0.0001     0.2190     0.1157     3.2806     3.9648     0.2641     0.0000     0.5752     0.0000     0.1645     0.6042     0.0000     0.0261     0.2052    
4042.0000  1949.9996  1.3922     1259.6510  101.4874   147.5401   12.2500    0.0619     8.8313     76.4179    84.7982    5.9176     0.5211     0.0000     192.4931   0.0531     0.0531     0.0658     0.0673     0.0001     0.2107     0.1390     3.2608     3.9629     0.2559     0.0000     0.5884     0.0000     0.1413     0.6184     0.0000     0.0126     0.2276    
4042.5000  1949.9996  1.3670     987.9664   113.5135   111.7561   12.2500    0.0000     8.8458     77.2017    86.6791    5.8055     0.5754     0.0000     192.3782   0.0531     0.0531     0.0673     0.0743     0.0001     0.1983     0.1520     3.2382     3.9496     0.2749     0.0000     0.6497     0.0000     0.0748     0.6803     0.0000     0.0001     0.2447    
4043.0000  1949.9996  1.3411     795.3940   107.4184   84.2222    12.2500    0.0000     8.8241     78.6075    90.1244    6.0994     0.5941     0.0000     177.4982   0.0520     0.0520     0.0743     0.0767     0.0001     0.1860     0.1431     3.2116     3.9227     0.2744     0.0000     0.6708     0.0000     0.0400     0.7124     0.0000     0.0000     0.2476    
4043.5000  1949.9996  1.3175     677.9147   78.1152    62.3636    12.2500    0.0000     8.8241     83.3083    95.8362    6.4330     0.6028     0.0000     173.6623   0.0517     0.0517     0.0767     0.0779     0.0001     0.1824     0.1370     3.2043     3.8929     0.2904     0.0000     0.6806     0.0000     0.0516     0.7136     0.0000     0.0000     0.2347    
4044.0000  1949.9996  1.2985     552.5718   60.6334    57.4252    12.2500    0.0000     8.8349     87.2278    99.6150    6.8164     0.5948     0.0000     171.4447   0.0515     0.0515     0.0779     0.0768     0.0001     0.1814     0.1470     3.1999     3.8691     0.2778     0.0000     0.6716     0.0000     0.0540     0.7013     0.0000     0.0051     0.2396    
4044.5000  1949.9996  1.2858     362.7226   43.3090    56.4599    12.2500    0.0000     8.8241     90.6135    102.8061   7.2088     0.5774     0.0000     169.6189   0.0513     0.0513     0.0768     0.0746     0.0001     0.1766     0.1714     3.1840     3.8564     0.2719     0.0000     0.6520     0.0000     0.0267     0.6934     0.0000     0.0099     0.2701    
4045.0000  1949.9996  1.2835     182.4440   24.3359    49.5647    12.2500    0.0000     8.8349     92.6828    106.1432   7.5392     0.5326     0.0000     168.0081   0.0512     0.0512     0.0746     0.0688     0.0001     0.1680     0.2307     3.1522     3.8524     0.2547     0.0000     0.6014     0.0000     0.0000     0.6619     0.0000     0.0036     0.3344    
4045.5000  1949.9996  1.3021     85.4150    18.9883    43.4504    12.2500    0.0000     8.8132     91.2393    104.7801   7.5629     0.4965     0.0000     167.4239   0.0511     0.0511     0.0688     0.0641     0.0001     0.1666     0.2727     3.1409     3.8552     0.2488     0.0000     0.5606     0.0000     0.0000     0.6274     0.0000     0.0000     0.3726    
4046.0000  1949.9996  1.3562     36.2803    14.4011    30.9406    8.5000     0.0000     8.8241     89.8832    103.9752   7.9019     0.4688     0.0000     170.4057   0.0514     0.0514     0.0641     0.0605     0.0001     0.1681     0.3025     3.1387     3.8599     0.2471     0.0000     0.5293     0.0000     0.0015     0.6000     0.0000     0.0000     0.3985    
4046.5000  436.0264   1.4744     20.0753    9.0885     16.3894    8.5000     0.0000     8.8313     83.1214    96.3415    7.3941     0.4665     0.0000     172.5124   0.0516     0.0516     0.0605     0.0603     0.0001     0.1787     0.2945     3.1645     3.8641     0.2204     0.0000     0.5268     0.0000     0.0464     0.5825     0.0000     0.0000     0.3711    
4047.0000  42.3399    1.6031     21.3561    6.9283     9.9087     8.5000     0.1404     8.8096     75.2551    87.1979    6.8249     0.4018     0.0000     179.0963   0.0521     0.0521     0.0603     0.0519     0.0001     0.1950     0.2109     3.1995     3.8949     0.2071     0.0000     0.4537     0.0000     0.2106     0.4938     0.0000     0.0113     0.2843    
4047.5000  10.1515    1.8830     9.2643     6.6315     9.5441     8.5000     0.2985     8.8386     56.8491    66.0184    5.1090     0.2840     0.0000     195.8956   0.0534     0.0534     0.0519     0.0367     0.0001     0.2383     0.1426     3.2887     4.0605     0.2182     0.0000     0.3206     0.0000     0.3425     0.3958     0.0000     0.0197     0.2419    
4048.0000  4.4888     2.6393     8.0960     9.8419     15.5092    8.5000     0.1670     8.8132     39.4813    45.9259    3.5173     0.3083     0.0000     231.1300   0.0557     0.0557     0.0367     0.0398     0.0001     0.3147     0.1702     3.4724     4.3145     0.2108     0.0000     0.3481     0.0000     0.2525     0.4399     0.0000     0.0311     0.2765    
4048.5000  2.6806     5.0033     4.7988     3.9806     5.1168     8.5000     0.0000     8.8349     32.1720    36.9545    2.7039     0.2305     0.0000     314.0252   0.0605     0.0605     0.0398     0.0298     0.0001     0.2741     0.4657     3.3443     4.3114     0.1893     0.0000     0.2603     0.0000     0.0000     0.4180     0.0000     0.0119     0.5701    
4049.0000  1.7649     17.6639    14.3381    6.2234     5.9694     8.5000     0.0000     8.8386     39.6419    44.7441    3.4118     0.3193     0.0000     373.0638   0.0633     0.0633     0.0298     0.0412     0.0001     0.1686     0.4709     3.1082     3.8599     0.1923     0.0000     0.3605     0.0000     0.0000     0.4498     0.0000     0.0000     0.5502    
4049.5000  1.1278     75.1710    6.9541     4.0731     4.9234     8.5000     0.0000     8.9111     57.1441    62.9483    4.8846     0.5455     0.0000     236.5624   0.0572     0.0572     0.0412     0.0705     0.0001     0.0763     0.3077     2.9243     3.2688     0.2357     0.0000     0.6160     0.0000     0.0000     0.6328     0.0000     0.0039     0.3632    
4050.0000  0.8284     21.0575    3.5544     2.5182     3.3924     8.5000     0.0000     8.9690     74.8511    82.6952    6.0895     0.5838     0.0000     65.2154    0.0421     0.0421     0.0705     0.0754     0.0001     0.0267     0.3141     2.8059     2.8159     0.2887     0.0000     0.6592     0.0000     0.0000     0.6477     0.0000     0.0136     0.3387    
4050.5000  0.6935     13.7117    3.4741     2.4196     2.8337     8.5000     0.0709     9.3895     91.1325    98.0353    7.2706     0.2876     0.0199     8.4949     0.0248     0.0248     0.0754     0.0981     0.0610     0.0017     0.5417     2.7038     2.5515     0.2917     0.0610     0.3247     0.0000     0.0780     0.3330     0.0000     0.0009     0.5881    
4051.0000  0.8783     9.0706     3.4270     2.4632     2.7247     8.5000     0.1403     9.5127     102.7053   109.1091   7.9967     0.1838     0.5045     0.0013     0.0091     0.0091     0.0981     0.1325     0.1088     0.0000     0.5433     2.6894     2.3317     0.2556     0.1088     0.2076     0.0000     0.1616     0.2250     0.0000     0.0000     0.6134    
