~Version
 VERS              .         2.0                           : CWLS LOG ASCII STANDARD - VERSION 2.0
 WRAP              .         NO                            : ONE LINE PER DEPTH STEP
 DLM               .         SPACE                         : DELIMITING CHARACTER(SPACE TAB OR COMMA)
~Well Information
#_______________________________________________________________________________
#
#PARAMETER_NAME    .UNIT     VALUE                         : DESCRIPTION
#_______________________________________________________________________________
STRT               .ft       4040.0000                     : First reference value
STOP               .ft       7050.0000                     : Last reference value
STEP               .ft       0.5000                        : Step increment
NULL               .         -999.25                       : Missing value
COMP               .         One Earth Energy              : Company
WELL               .         OEE #1                        : Well name
FLD                .         OEE                           : Field
LOC                .                                       : Location
PROV               .         Illinois                      : Province
SRVC               .         Schlumberger                  : Service Company
DATE               .         26-Dec-2021                   : Date
UWI                .         12-113-25373-00               : Unique Well ID
APD                .ft       15                            : Elevation of Depth Reference (LMF) Above Permanent Datum
API                .         12-113-25373-00               : API NUMBER
BHS                .         OPEN                          : Borehole Status (Open or Cased Hole)
BHT                .degF     93.71                         : Bottom Hole Temperature
BLI                .ft       4052                          : Bottom Log Interval
BS                 .in       12.25                         : Bit Size
CBDR               .ft       374                           : Casing Bottom of Driller
CBLO               .ft       374                           : Logger Casing Shoe Depth
CNTY               .         McLean                        : COUNTY
CSIZ               .in       13.375                        : Current Casing Size
CWEI               .lbm/ft   54.5                          : Casing Weight
CTRY               .         United States of America - US : Nation
DCS                .         23-Dec-2021                   : Date Circulation Stopped
DFD                .lbm/gal  9.25                          : Drilling Fluid Density
DFT                .         WATER                         : Drilling Fluid Type
DLAB               .         26-Dec-2021                   : Date Logger At Bottom
EDF                .ft       840.0001                      : Elevation of Drill Floor
EGL                .ft       826                           : Elevation of Ground Level
EKB                .ft       841                           : Elevation of Kelly Bushing
EPD                .ft       826                           : Elevation of Permanent Datum (PDAT) above Mean Sea Level
GDAT               .                                       : GeoDetic Datum
LMF                .         KB                            : Logging Measured From (Name of Logging Elevation Reference)
LUL                .         Bradford                      : Logging Unit Location
LUN                .         2266                          : Logging Unit Number
LATI               .         40.485663 degrees             : Latitude
LONG               .         -88.468241 degrees            : Longitude
MCST               .degF     67.9                          : Mudcake Sample Temperature
MFST               .degF     66.3                          : Mud Filtrate Sample Temperature
MRT                .degF     93.71                         : Maximum Recorded Temperature
MST                .degF     65.4                          : Mud Sample Temperature
ORIGINALWELLNAME   .         OEE #1                        : 
PDAT               .         GL                            : Permanent Datum
PRODUCER-CODE      .         440                           : 
PRODUCER-NAME      .         Schlumberger                  : 
RMB                .ohm.m    3.533802                      : Resistivity of Mud at Bottom Hole Temperature
RMCS               .ohm.m    6.12                          : Resistivity of Mud Cake Sample
RMFS               .ohm.m    3.85                          : Resistivity of Mud Filtrate Sample
RMS                .ohm.m    4.92                          : Resistivity of Mud Sample
RUN                .         1C                            : Run Number
STAT               .         Illinois                      : State or Province
TCS                .         23_45_00                      : Time Circulation Stopped
TDD                .ft       4052                          : Driller Total Depth
TDL                .ft       4052                          : Logger Total Depth
TLAB               .         02_57_00                      : Time Logger At Bottom
TLI                .ft       379                           : Top Log Interval
~Parameter Information Block
#_______________________________________________________________________________
#
#PARAMETER_NAME    .UNIT     VALUE                         : DESCRIPTION
#_______________________________________________________________________________
SET                .         LQC_MP_043_Deliverables       : 
TLFamily_AT10      .         Resistivity - Induction Array 10: 
TLFamily_AT20      .         Resistivity - Induction Array 20: 
TLFamily_AT30      .         Resistivity - Induction Array 30: 
TLFamily_AT60      .         Resistivity - Induction Array 60: 
TLFamily_AT90      .         Resistivity - Induction Array 90: 
TLFamily_BS        .         Bit Size                      : 
TLFamily_C44       .         Elastic Modulus               : 
TLFamily_C55       .         Elastic Modulus               : 
TLFamily_C66       .         Elastic Modulus               : 
TLFamily_DTCO_MF_DDBHC .         Compressional Slowness        : 
TLFamily_DTSH_FAST .         Fast Shear Slowness           : 
TLFamily_DTSH_SLOW .         Slow Shear Slowness           : 
TLFamily_DTSH_STRVP .         Stoneley Shear Slowness       : 
TLFamily_GAMMA     .         Regularization Factor         : 
TLFamily_GR_EDTC   .         Gamma Ray                     : 
TLFamily_HCAL      .         Caliper                       : 
TLFamily_ISHE      .         Shear Strength                : 
TLFamily_MD        .         Measured Depth                : 
TLFamily_PPGI_MP_TD .         Pore Pressure Gradient        : 
TLFamily_PPGI_PorePressure .         Pore Pressure Gradient        : 
TLFamily_PR_HH     .         Poisson Ratio (Dynamic)       : 
TLFamily_PR_VH     .         Poisson Ratio (Dynamic)       : 
TLFamily_RHOZ      .         Bulk Density                  : 
TLFamily_SDEVM     .         Sonde Deviation               : 
TLFamily_SLOANI    .         Acoustic Anisotropy           : 
TLFamily_SPHI      .         Total Porosity                : 
TLFamily_TENS      .         Tension                       : 
TLFamily_TNPH      .         Thermal Neutron Porosity      : 
TLFamily_TSTR      .         Tensile Strength              : 
TLFamily_TXSG_ANISO .         Minimum Horizontal Stress Gradient: 
TLFamily_TXSG_ISO  .         Minimum Horizontal Stress Gradient: 
TLFamily_TXSP_ANISO .         Minimum Horizontal Stress     : 
TLFamily_TZSG      .         Vertical Stress Gradient      : 
TLFamily_UCS       .         Compressive Strength          : 
TLFamily_YME_H_STA .         Young's Modulus (Dynamic)     : 
TLFamily_YME_V_STA .         Young's Modulus (Dynamic)     : 
~Curve Information
#_______________________________________________________________________________
#
#LOGNAME           .UNIT     LOG_ID                        : DESCRIPTION
#_______________________________________________________________________________
MD                 .ft                                     : Measured DEPTH 
AT10               .ohm.m                                  : Array Induction Two Foot Resistivity A10 
AT20               .ohm.m                                  : Array Induction Two Foot Resistivity A20 
AT30               .ohm.m                                  : Array Induction Two Foot Resistivity A30 
AT60               .ohm.m                                  : Array Induction Two Foot Resistivity A60 
AT90               .ohm.m                                  : Array Induction Two Foot Resistivity A90 
BS                 .in                                     : Bit Size 
C44                .Mpsi                                   : C44 Modulus 
C55                .Mpsi                                   : C55 Modulus 
C66                .Mpsi                                   : C66 Modulus 
DTCO_MF_DDBHC      .us/ft                                  : Compressional slowness 
DTSH_FAST          .us/ft                                  : Shear slowness 
DTSH_SLOW          .us/ft                                  : Shear slowness 
DTSH_STRVP         .us/ft                                  : Stoneley Shear Slowness 
GAMMA              .unitless                               : Thomsens Anisotropy Parameter Gamma 
GR_EDTC            .gAPI                                   : Gamma Ray 
HCAL               .in                                     : HRCC Caliper Calibrated 
ISHE               .psi                                    : Cohesive Strength 
PPGI_MP_TD         .psi/ft                                 : Pore Pressure Gradient 
PPGI_PorePressure  .psi/ft                                 : Pore Pressure Gradient from XRP
PR_HH              .unitless                               : Poissons Ratio - Loading Horizontal - Displacement Horizontal 
PR_VH              .unitless                               : Poissons Ratio - Loading Vertical - Displacement Horizontal 
RHOZ               .g/cm3                                  : Standard Resolution Formation Density 
SDEVM              .deg                                    : Memorized Sonde Deviation 
SLOANI             .%                                      : Slowness-based Anisotropy 
SPHI               .ft3/ft3                                : Total porosity from Sonic 
TENS               .lbf                                    : Cable Tension 
TNPH               .ft3/ft3                                : Thermal Neutron Porosity (Ratio Method) in Selected Lithology 
TSTR               .psi                                    : Tensile Strength 
TXSG_ANISO         .psi/ft                                 : Anisotropic Minimum Horizontal Stress Gradient 
TXSG_ISO           .psi/ft                                 : Isotropic Minimum Horizontal Stress Gradient 
TXSP_ANISO         .psi                                    : Anisotropic Minimum Horizontal Stress 
TZSG               .psi/ft                                 : Overburden Stress Gradient 
UCS                .psi                                    : Unconfined Compressive Strength 
YME_H_STA          .Mpsi                                   :  Static Horizontal Youngs Modulus 
YME_V_STA          .Mpsi                                   : Static Vertical Youngs Modulus 
~Ascii
# ...
4239.5000  14.9327    14.6640    15.1537    14.9470    15.8127    8.5000     1.7287     1.7287     2.6747     71.4533    140.5907   140.8423   113.1271   0.2736     137.7589   9.6142     3043.0750  0.4300     -999.2500  0.3033     0.2807     2.5404     0.2387     0.1788     0.1693     2039.3750  0.1895     933.0107   0.9322     0.7634     3952.1555  1.0500     11196.1279 5.4018     3.2308    
4240.0000  14.4441    14.1286    14.7459    14.6649    15.0941    8.5000     1.7782     1.7782     2.7234     74.7722    139.2793   139.3916   112.5873   0.2658     134.7106   9.5743     2591.4663  0.4300     -999.2500  0.2859     0.2620     2.5620     0.2342     0.0805     0.1927     2029.0667  0.1947     804.9733   0.8888     0.7188     3768.5630  1.0500     9659.6787  5.5471     3.3193    
4240.5000  13.2791    14.2475    14.5757    14.5580    14.8271    8.5000     1.7844     1.7844     2.8259     76.5400    140.0606   140.1496   111.3326   0.2918     144.8062   9.6360     2552.0400  0.4300     -999.2500  0.2785     0.2524     2.5995     0.2266     0.0635     0.2052     2036.4999  0.2008     779.9988   0.8911     0.7032     3778.8616  1.0500     9359.9854  5.8023     3.3195    
4241.0000  14.5516    14.3271    14.5276    14.7759    14.9565    8.5000     1.7233     1.7233     2.9419     76.1822    142.9469   143.0694   109.4528   0.3536     156.5418   9.9332     2912.7178  0.4300     -999.2500  0.2837     0.2551     2.6156     0.2254     0.0857     0.2027     2024.9999  0.1976     851.6434   0.9437     0.7245     4002.1052  1.0500     10219.7207 6.0859     3.2052    
4241.5000  17.0281    16.2023    16.3921    16.4904    16.3262    8.5000     1.6939     1.6939     3.0427     74.3363    143.7926   143.9535   107.3469   0.3982     171.9311   9.6215     3381.5618  0.4300     -999.2500  0.2906     0.2602     2.6021     0.2151     0.1119     0.1897     2039.5332  0.1775     958.4654   0.9917     0.7498     4206.2495  1.0500     11501.5850 6.2959     3.1385    
4242.0000  18.6990    17.9489    18.2719    18.1888    17.8922    8.5000     1.6965     1.6965     3.1248     72.5770    142.8686   143.1473   105.3701   0.4210     172.1972   9.6432     3744.5178  0.4300     -999.2500  0.2949     0.2630     2.5748     0.2131     0.1948     0.1772     2044.6250  0.1594     1044.9233  1.0204     0.7646     4328.7046  1.0500     12539.0791 6.4519     3.1230    
4242.5000  16.4782    16.3489    17.3065    17.5942    16.0052    8.5000     1.7235     1.7235     3.2640     72.2233    141.5026   141.9136   102.9722   0.4469     177.4945   9.6722     3970.1245  0.4300     -999.2500  0.2940     0.2588     2.5685     0.2085     0.2900     0.1747     2040.4000  0.1540     1088.8806  1.0375     0.7616     4401.7842  1.0500     13066.5674 6.6780     3.1042    
4243.0000  14.6029    14.9443    15.8004    15.7222    15.2864    8.5000     1.7624     1.7624     3.3561     73.3436    140.0637   140.5161   101.6624   0.4521     171.0287   9.7084     3823.9094  0.4300     -999.2500  0.2885     0.2509     2.5742     0.2065     0.3224     0.1826     2034.9376  0.1660     1047.1499  1.0286     0.7421     4364.1709  1.0500     12565.7998 6.8801     3.1422    
4243.5000  14.1436    14.8407    15.3072    14.7089    14.7695    8.5000     1.8076     1.8076     3.4662     74.7932    138.5438   139.0150   100.2187   0.4588     170.7749   9.7592     3632.6257  0.4300     -999.2500  0.2814     0.2411     2.5837     0.2082     0.3395     0.1929     2053.7334  0.1740     992.6884   1.0164     0.7169     4313.2188  1.0500     11912.2607 7.1190     3.1816    
4244.0000  13.7363    14.4359    15.4730    14.9592    14.6053    8.5000     1.8143     1.8143     3.4924     75.8645    138.4762   139.2056   100.0694   0.4625     169.1134   9.7882     3484.0325  0.4300     -999.2500  0.2773     0.2365     2.5955     0.2103     0.5254     0.2005     2040.1875  0.1916     952.8100   1.0090     0.7050     4282.1919  1.0500     11433.7197 7.2395     3.2083    
4244.5000  13.1020    14.5009    14.5853    14.5843    14.3056    8.5000     1.7374     1.7374     3.4487     76.9441    141.6791   142.7405   100.9352   0.4925     169.2539   9.8462     3454.4092  0.4300     -999.2500  0.2760     0.2369     2.6075     0.2141     0.7463     0.2081     2025.1334  0.2010     931.3196   1.0211     0.7119     4333.8755  1.0500     11175.8359 7.2155     3.1206    
4245.0000  12.9715    14.6662    14.7296    14.8650    14.2370    8.5000     1.6528     1.6528     3.3483     77.4145    145.8690   146.6019   102.7420   0.5129     167.4555   9.8824     3439.8359  0.4300     -999.2500  0.2776     0.2417     2.6231     0.2189     0.5012     0.2114     2052.3750  0.2194     919.1788   1.0354     0.7296     4395.3086  1.0500     11030.1465 7.1400     3.0689    
4245.5000  12.6339    14.2538    15.0777    15.3982    14.5304    8.5000     1.5977     1.5977     3.2335     77.2365    148.9684   149.5002   104.9004   0.5119     171.4845   9.9549     3492.3948  0.4300     -999.2500  0.2811     0.2485     2.6407     0.2262     0.3563     0.2102     2050.9333  0.2187     930.6396   1.0376     0.7451     4404.9414  1.0500     11167.6748 6.7476     2.9471    
4246.0000  13.0067    14.7671    15.0644    15.0117    14.4153    8.5000     1.5294     1.5294     3.0304     77.7301    150.7116   151.5348   107.3582   0.4907     156.9335   10.0274    3249.3481  0.4300     -999.2500  0.2801     0.2525     2.5922     0.2348     0.5447     0.2136     2044.5625  0.2285     864.2711   1.0067     0.7429     4274.5991  1.0500     10371.2529 5.9359     2.7004    
4246.5000  14.4648    16.1886    16.0527    17.1600    16.2503    8.5000     1.4359     1.4359     2.8255     78.4366    151.8179   152.9262   108.6203   0.4839     140.2664   10.0274    2917.1494  0.4300     -999.2500  0.2754     0.2531     2.4740     0.2431     0.7274     0.2186     2033.2000  0.2448     755.0544   0.9630     0.7279     4089.1956  1.0500     9060.6533  4.6018     2.1496    
4247.0000  11.9750    14.0138    14.8875    15.2421    14.5159    8.5000     1.3482     1.3482     2.5475     80.9539    151.4654   152.4615   110.5485   0.4448     126.1438   10.1289    2256.0591  0.4300     -999.2500  0.2624     0.2454     2.3105     0.2480     0.6555     0.2364     2015.5625  0.2843     568.9003   0.8727     0.6811     3706.3884  1.0500     6826.8032  2.8058     1.3886    
4247.5000  10.3367    11.4091    12.5939    14.3083    13.0973    8.5000     1.3409     1.3409     2.3591     81.0798    148.7278   149.4704   112.4085   0.3797     134.0013   10.9190    1943.4309  0.4300     -999.2500  0.2581     0.2435     2.2122     0.2531     0.4981     0.2373     2030.0667  0.2972     490.2722   0.8113     0.6541     3445.8687  1.0500     5883.2661  1.8336     0.9830    
4248.0000  12.4421    13.5721    14.1018    14.8047    14.9803    8.5000     1.4954     1.4954     2.3460     77.7289    143.3771   144.3097   114.8392   0.2844     150.7075   11.4337    2100.0728  0.4300     -999.2500  0.2720     0.2562     2.2962     0.2570     0.6483     0.2136     2030.1874  0.2764     566.1725   0.8053     0.6698     3421.0681  1.0500     6794.0703  2.4226     1.4545    
4248.5000  15.4121    16.5532    16.1581    17.0711    17.3087    8.5000     1.6748     1.6748     2.3234     74.8555    138.4387   139.3222   117.9108   0.1936     156.5459   10.3609    2172.3379  0.4300     -999.2500  0.2834     0.2682     2.3973     0.2599     0.6362     0.1933     2014.6001  0.2710     646.7902   0.7957     0.6877     3380.7058  1.0500     7761.4819  3.2106     2.1901    
4249.0000  12.7340    16.8599    17.5904    17.1399    18.8106    8.5000     1.5315     1.5315     2.2004     78.1862    145.1444   146.3410   121.5855   0.2184     159.8717   10.6218    1912.8804  0.4300     -999.2500  0.2798     0.2667     2.4141     0.2609     0.8210     0.2169     2028.4667  0.2665     566.5793   0.8023     0.6906     3409.1746  1.0500     6798.9517  3.2287     2.1422    
4249.5000  10.8281    13.2016    12.9926    13.1431    14.9814    8.5000     1.2608     1.2608     1.8944     87.4035    155.4490   156.4068   127.2035   0.2513     157.5882   11.4337    1225.7767  0.4300     -999.2500  0.2490     0.2411     2.2749     0.2614     0.6143     0.2820     2043.7500  0.2833     337.1130   0.7323     0.6321     3112.0884  1.0500     4045.3557  1.9445     1.2526    
