~Version
 VERS              .         2.0                           : CWLS LOG ASCII STANDARD - VERSION 2.0
 WRAP              .         NO                            : ONE LINE PER DEPTH STEP
 DLM               .         SPACE                         : DELIMITING CHARACTER(SPACE TAB OR COMMA)
~Well Information
#_______________________________________________________________________________
#
#PARAMETER_NAME    .UNIT     VALUE                         : DESCRIPTION
#_______________________________________________________________________________
STRT               .ft       4040.0000                     : First reference value
STOP               .ft       7050.0000                     : Last reference value
STEP               .ft       0.5000                        : Step increment
NULL               .         -999.25                       : Missing value
COMP               .         One Earth Energy              : Company
WELL               .         OEE #1                        : Well name
FLD                .         OEE                           : Field
LOC                .                                       : Location
PROV               .         Illinois                      : Province
SRVC               .         Schlumberger                  : Service Company
DATE               .         26-Dec-2021                   : Date
UWI                .         12-113-25373-00               : Unique Well ID
APD                .ft       15                            : Elevation of Depth Reference (LMF) Above Permanent Datum
API                .         12-113-25373-00               : API NUMBER
BHS                .         OPEN                          : Borehole Status (Open or Cased Hole)
BHT                .degF     93.71                         : Bottom Hole Temperature
BLI                .ft       4052                          : Bottom Log Interval
BS                 .in       12.25                         : Bit Size
CBDR               .ft       374                           : Casing Bottom of Driller
CBLO               .ft       374                           : Logger Casing Shoe Depth
CNTY               .         McLean                        : COUNTY
CSIZ               .in       13.375                        : Current Casing Size
CWEI               .lbm/ft   54.5                          : Casing Weight
CTRY               .         United States of America - US : Nation
DCS                .         23-Dec-2021                   : Date Circulation Stopped
DFD                .lbm/gal  9.25                          : Drilling Fluid Density
DFT                .         WATER                         : Drilling Fluid Type
DLAB               .         26-Dec-2021                   : Date Logger At Bottom
EDF                .ft       840.0001                      : Elevation of Drill Floor
EGL                .ft       826                           : Elevation of Ground Level
EKB                .ft       841                           : Elevation of Kelly Bushing
EPD                .ft       826                           : Elevation of Permanent Datum (PDAT) above Mean Sea Level
GDAT               .                                       : GeoDetic Datum
LMF                .         KB                            : Logging Measured From (Name of Logging Elevation Reference)
LUL                .         Bradford                      : Logging Unit Location
LUN                .         2266                          : Logging Unit Number
LATI               .         40.485663 degrees             : Latitude
LONG               .         -88.468241 degrees            : Longitude
MCST               .degF     67.9                          : Mudcake Sample Temperature
MFST               .degF     66.3                          : Mud Filtrate Sample Temperature
MRT                .degF     93.71                         : Maximum Recorded Temperature
MST                .degF     65.4                          : Mud Sample Temperature
ORIGINALWELLNAME   .         OEE #1                        : 
PDAT               .         GL                            : Permanent Datum
PRODUCER-CODE      .         440                           : 
PRODUCER-NAME      .         Schlumberger                  : 
RMB                .ohm.m    3.533802                      : Resistivity of Mud at Bottom Hole Temperature
RMCS               .ohm.m    6.12                          : Resistivity of Mud Cake Sample
RMFS               .ohm.m    3.85                          : Resistivity of Mud Filtrate Sample
RMS                .ohm.m    4.92                          : Resistivity of Mud Sample
RUN                .         1C                            : Run Number
STAT               .         Illinois                      : State or Province
TCS                .         23_45_00                      : Time Circulation Stopped
TDD                .ft       4052                          : Driller Total Depth
TDL                .ft       4052                          : Logger Total Depth
TLAB               .         02_57_00                      : Time Logger At Bottom
TLI                .ft       379                           : Top Log Interval
~Parameter Information Block
#_______________________________________________________________________________
#
#PARAMETER_NAME    .UNIT     VALUE                         : DESCRIPTION
#_______________________________________________________________________________
SET                .         LQC_MP_043_Deliverables       : 
TLFamily_AT10      .         Resistivity - Induction Array 10: 
TLFamily_AT20      .         Resistivity - Induction Array 20: 
TLFamily_AT30      .         Resistivity - Induction Array 30: 
TLFamily_AT60      .         Resistivity - Induction Array 60: 
TLFamily_AT90      .         Resistivity - Induction Array 90: 
TLFamily_BS        .         Bit Size                      : 
TLFamily_C44       .         Elastic Modulus               : 
TLFamily_C55       .         Elastic Modulus               : 
TLFamily_C66       .         Elastic Modulus               : 
TLFamily_DTCO_MF_DDBHC .         Compressional Slowness        : 
TLFamily_DTSH_FAST .         Fast Shear Slowness           : 
TLFamily_DTSH_SLOW .         Slow Shear Slowness           : 
TLFamily_DTSH_STRVP .         Stoneley Shear Slowness       : 
TLFamily_GAMMA     .         Regularization Factor         : 
TLFamily_GR_EDTC   .         Gamma Ray                     : 
TLFamily_HCAL      .         Caliper                       : 
TLFamily_ISHE      .         Shear Strength                : 
TLFamily_MD        .         Measured Depth                : 
TLFamily_PPGI_MP_TD .         Pore Pressure Gradient        : 
TLFamily_PPGI_PorePressure .         Pore Pressure Gradient        : 
TLFamily_PR_HH     .         Poisson Ratio (Dynamic)       : 
TLFamily_PR_VH     .         Poisson Ratio (Dynamic)       : 
TLFamily_RHOZ      .         Bulk Density                  : 
TLFamily_SDEVM     .         Sonde Deviation               : 
TLFamily_SLOANI    .         Acoustic Anisotropy           : 
TLFamily_SPHI      .         Total Porosity                : 
TLFamily_TENS      .         Tension                       : 
TLFamily_TNPH      .         Thermal Neutron Porosity      : 
TLFamily_TSTR      .         Tensile Strength              : 
TLFamily_TXSG_ANISO .         Minimum Horizontal Stress Gradient: 
TLFamily_TXSG_ISO  .         Minimum Horizontal Stress Gradient: 
TLFamily_TXSP_ANISO .         Minimum Horizontal Stress     : 
TLFamily_TZSG      .         Vertical Stress Gradient      : 
TLFamily_UCS       .         Compressive Strength          : 
TLFamily_YME_H_STA .         Young's Modulus (Dynamic)     : 
TLFamily_YME_V_STA .         Young's Modulus (Dynamic)     : 
~Curve Information
#_______________________________________________________________________________
#
#LOGNAME           .UNIT     LOG_ID                        : DESCRIPTION
#_______________________________________________________________________________
MD                 .ft                                     : Measured DEPTH 
AT10               .ohm.m                                  : Array Induction Two Foot Resistivity A10 
AT20               .ohm.m                                  : Array Induction Two Foot Resistivity A20 
AT30               .ohm.m                                  : Array Induction Two Foot Resistivity A30 
AT60               .ohm.m                                  : Array Induction Two Foot Resistivity A60 
AT90               .ohm.m                                  : Array Induction Two Foot Resistivity A90 
BS                 .in                                     : Bit Size 
C44                .Mpsi                                   : C44 Modulus 
C55                .Mpsi                                   : C55 Modulus 
C66                .Mpsi                                   : C66 Modulus 
DTCO_MF_DDBHC      .us/ft                                  : Compressional slowness 
DTSH_FAST          .us/ft                                  : Shear slowness 
DTSH_SLOW          .us/ft                                  : Shear slowness 
DTSH_STRVP         .us/ft                                  : Stoneley Shear Slowness 
GAMMA              .unitless                               : Thomsens Anisotropy Parameter Gamma 
GR_EDTC            .gAPI                                   : Gamma Ray 
HCAL               .in                                     : HRCC Caliper Calibrated 
ISHE               .psi                                    : Cohesive Strength 
PPGI_MP_TD         .psi/ft                                 : Pore Pressure Gradient 
PPGI_PorePressure  .psi/ft                                 : Pore Pressure Gradient from XRP
PR_HH              .unitless                               : Poissons Ratio - Loading Horizontal - Displacement Horizontal 
PR_VH              .unitless                               : Poissons Ratio - Loading Vertical - Displacement Horizontal 
RHOZ               .g/cm3                                  : Standard Resolution Formation Density 
SDEVM              .deg                                    : Memorized Sonde Deviation 
SLOANI             .%                                      : Slowness-based Anisotropy 
SPHI               .ft3/ft3                                : Total porosity from Sonic 
TENS               .lbf                                    : Cable Tension 
TNPH               .ft3/ft3                                : Thermal Neutron Porosity (Ratio Method) in Selected Lithology 
TSTR               .psi                                    : Tensile Strength 
TXSG_ANISO         .psi/ft                                 : Anisotropic Minimum Horizontal Stress Gradient 
TXSG_ISO           .psi/ft                                 : Isotropic Minimum Horizontal Stress Gradient 
TXSP_ANISO         .psi                                    : Anisotropic Minimum Horizontal Stress 
TZSG               .psi/ft                                 : Overburden Stress Gradient 
UCS                .psi                                    : Unconfined Compressive Strength 
YME_H_STA          .Mpsi                                   :  Static Horizontal Youngs Modulus 
YME_V_STA          .Mpsi                                   : Static Vertical Youngs Modulus 
~Ascii
# ...
5037.5000  6.0797     4.2484     3.3289     2.5219     2.2044     8.5000     2.6482     3.0917     2.5285     63.5670    102.7692   111.0416   113.6388   -0.0226    18.7762    8.4036     2482.8191  0.4300     -999.2500  0.1424     0.1997     2.4233     1.7200     7.7381     0.1135     2176.8750  0.1152     945.0090   0.5196     0.5809     2617.4546  1.0500     11340.1074 3.5967     5.0420    
5038.0000  5.4411     3.9832     3.1375     2.4223     2.0976     8.5000     2.6222     3.0705     2.4901     63.9578    103.1365   111.6045   114.5273   -0.0252    19.2626    8.4254     2421.2019  0.4300     -999.2500  0.1398     0.1970     2.4239     1.7192     7.8868     0.1163     2175.8823  0.1147     920.3918   0.5157     0.5769     2598.2883  1.0500     11044.7021 3.5340     4.9803    
5038.5000  5.4286     3.9250     3.1162     2.4311     2.0844     8.5000     2.6063     3.0067     2.4207     64.3083    104.2117   111.9316   116.1432   -0.0356    21.1436    8.4326     2377.6611  0.4300     -999.2500  0.1473     0.2016     2.4233     1.7181     7.1433     0.1188     2170.4707  0.1114     904.1503   0.5241     0.5817     2640.6328  1.0500     10849.8027 3.5786     4.9000    
5039.0000  5.7877     4.0431     3.2459     2.5411     2.1585     8.5000     2.6127     2.9445     2.3841     64.5091    105.6380   112.1452   117.3974   -0.0437    23.7248    8.4326     2393.2371  0.4300     -999.2500  0.1616     0.2113     2.4386     1.7171     5.9758     0.1202     2177.4375  0.1068     912.1122   0.5415     0.5937     2728.4673  1.0500     10945.3457 3.7201     4.8647    
5039.5000  6.9904     4.4233     3.5662     2.8069     2.3138     8.5000     2.6155     2.8914     2.3564     64.4830    106.9499   112.4508   118.4711   -0.0495    25.7727    8.4399     2435.8889  0.4300     -999.2500  0.1771     0.2228     2.4545     1.7161     5.0145     0.1200     2181.0000  0.1048     933.7472   0.5612     0.6089     2828.0144  1.0500     11204.9668 3.8882     4.8915    
5040.0000  8.5171     4.9067     4.0511     3.1311     2.6085     8.5000     2.6200     2.8681     2.3359     63.7904    107.4862   112.4592   119.1023   -0.0542    24.8111    8.4399     2553.3542  0.4300     -999.2500  0.1918     0.2367     2.4591     1.7152     4.5221     0.1151     2168.2354  0.0977     986.9796   0.5816     0.6285     2931.1055  1.0500     11843.7549 4.0570     5.0070    
5040.5000  10.0264    5.6111     4.7248     3.5995     3.0026     8.5000     2.6420     2.9029     2.3039     63.2083    106.7648   111.9133   119.8436   -0.0640    23.8342    8.4435     2607.9983  0.4300     -999.2500  0.1922     0.2393     2.4557     1.7147     4.7088     0.1110     2181.6250  0.0932     1022.1202  0.5850     0.6347     2948.7073  1.0500     12265.4434 4.2115     5.2425    
5041.0000  13.0425    6.5844     5.6333     4.2335     3.5712     8.5000     2.6986     2.9627     2.2924     62.8493    105.5566   110.6016   120.0006   -0.0753    31.4144    8.4326     2604.1377  0.4300     -999.2500  0.1885     0.2340     2.4499     1.7144     4.6679     0.1085     2173.5295  0.0884     1038.0181  0.5836     0.6326     2941.9871  1.0500     12456.2178 4.4523     5.5278    
5041.5000  17.3339    8.1644     6.9926     5.0962     4.3612     8.5000     2.7836     2.9903     2.3314     62.6411    105.4144   109.2574   119.3847   -0.0812    51.0179    8.4036     2639.8728  0.4300     -999.2500  0.1977     0.2339     2.4661     1.7142     3.5804     0.1070     2163.3125  0.0888     1066.7932  0.5986     0.6382     3017.8472  1.0500     12801.5186 4.8499     5.7385    
5042.0000  22.3540    9.9044     8.5594     6.0858     5.3324     8.5000     2.8591     3.0075     2.4078     62.3624    105.5007   108.2033   117.9098   -0.0789    74.6270    8.4036     2709.3865  0.4300     -999.2500  0.2097     0.2366     2.4843     1.7143     2.5293     0.1050     2175.2500  0.0962     1104.6600  0.6168     0.6465     3110.0505  1.0500     13255.9199 5.2171     5.8866    
5042.5000  28.7994    12.2318    10.5438    7.2185     6.4932     8.5000     2.9655     3.1418     2.5274     61.9073    103.7094   106.7464   115.6296   -0.0739    74.5800    8.3891     2836.7883  0.4300     -999.2500  0.1995     0.2286     2.5078     1.7142     2.8861     0.1018     2176.8823  0.1226     1153.9281  0.6057     0.6383     3054.0388  1.0500     13847.1367 5.3072     6.0822    
5043.0000  36.0930    15.9161    13.4786    8.5637     7.8611     8.5000     3.0529     3.2982     2.5890     61.7938    101.1099   105.0931   114.1209   -0.0760    58.7708    8.3819     2836.9395  0.4300     -999.2500  0.1740     0.2077     2.5024     1.7142     3.8634     0.1010     2184.1875  0.1196     1140.0042  0.5726     0.6110     2887.3491  1.0500     13680.0498 5.1292     6.1246    
5043.5000  41.3269    19.3981    15.8038    9.6714     8.9267     8.5000     3.0809     3.4632     2.7063     61.6618    98.4482    104.3779   111.3675   -0.0608    36.9939    8.3456     2809.4717  0.4300     -999.2500  0.1420     0.1837     2.4911     1.7142     5.8470     0.1001     2181.1250  0.0993     1113.6860  0.5317     0.5805     2681.7620  1.0500     13364.2324 4.7345     6.1254    
5044.0000  42.4972    22.3255    16.9131    10.0461    9.3268     8.5000     3.1214     3.5687     2.7718     61.5346    96.5749    103.2634   109.5822   -0.0560    29.3670    8.3456     2754.9946  0.4300     -999.2500  0.1230     0.1641     2.4702     1.7143     6.6938     0.0992     2173.6470  0.0828     1081.2716  0.5084     0.5576     2564.1323  1.0500     12975.2598 4.5538     6.0731    
5044.5000  40.1173    23.7792    16.8878    9.9312     9.3151     8.5000     3.2034     3.5438     2.9241     61.4291    96.7657    101.7774   106.5276   -0.0436    25.3896    8.3601     2780.9304  0.4300     -999.2500  0.1340     0.1672     2.4627     1.7146     5.0485     0.0984     2177.1250  0.0856     1087.4127  0.5220     0.5615     2633.0322  1.0500     13048.9531 4.8051     5.9971    
5045.0000  35.8171    23.9072    16.2327    9.6752     8.8760     8.5000     3.5243     3.5252     3.0687     61.4263    96.9356    96.9479    103.8961   -0.0646    22.2799    8.3674     2774.9861  0.4300     -999.2500  0.1644     0.1645     2.4584     1.7149     0.0127     0.0984     2181.2942  0.0858     1086.3075  0.5637     0.5638     2843.6599  1.0500     13035.6895 5.9633     5.9669    
5045.5000  31.9061    22.3358    14.8172    9.1276     8.1795     8.5000     3.5527     3.5641     3.1978     61.6491    96.4499    96.6044    101.8244   -0.0500    19.2300    8.3456     2697.5779  0.4300     -999.2500  0.1536     0.1548     2.4606     1.7153     0.1600     0.1000     2181.4375  0.0850     1060.3336  0.5520     0.5534     2784.8694  1.0500     12724.0039 5.9927     6.0371    
5046.0000  28.0664    20.7477    14.2490    8.8435     7.8669     8.5000     3.7173     3.7727     3.3094     61.5523    93.9067    94.6044    100.2653   -0.0549    20.4175    8.3674     2605.8613  0.4300     -999.2500  0.1198     0.1238     2.4691     1.7157     0.7402     0.0993     2169.4119  0.0797     1031.3859  0.5171     0.5225     2609.4792  1.0500     12376.6299 6.1093     6.3141    
5046.5000  26.1758    19.6151    13.4548    8.5115     7.5463     8.5000     3.7558     3.8518     3.4036     61.1517    93.1637    94.3474    99.1084    -0.0469    20.9262    8.4000     2673.9360  0.4300     -999.2500  0.1156     0.1222     2.4811     1.7162     1.2625     0.0965     2160.5295  0.0750     1066.2202  0.5143     0.5233     2595.1108  1.0500     12794.6416 6.1854     6.5404    
5047.0000  26.6320    18.4031    12.9183    8.2765     7.3741     8.5000     3.5957     3.8456     3.4536     60.4782    93.3863    96.5764    98.5440    -0.0198    21.8016    8.4036     2868.0598  0.4300     -999.2500  0.1219     0.1412     2.4889     1.7165     3.3587     0.0917     2174.6250  0.0730     1148.3677  0.5187     0.5441     2617.5781  1.0500     13780.4111 5.7810     6.6979    
5047.5000  28.0288    18.0044    12.9948    8.3166     7.3859     8.5000     3.5033     3.8959     3.4818     60.1637    92.6376    97.6909    97.9925    -0.0031    21.6844    8.3819     2899.8794  0.4300     -999.2500  0.1105     0.1387     2.4813     1.7164     5.3101     0.0895     2169.5000  0.0765     1159.8914  0.5034     0.5408     2540.7588  1.0500     13918.6963 5.3822     6.7560    
