~Version
 VERS              .         2.0                           : CWLS LOG ASCII STANDARD - VERSION 2.0
 WRAP              .         NO                            : ONE LINE PER DEPTH STEP
 DLM               .         SPACE                         : DELIMITING CHARACTER(SPACE TAB OR COMMA)
~Well Information
#_______________________________________________________________________________
#
#PARAMETER_NAME    .UNIT     VALUE                         : DESCRIPTION
#_______________________________________________________________________________
STRT               .ft       4040.0000                     : First reference value
STOP               .ft       7075.0000                     : Last reference value
STEP               .ft       0.5000                        : Step increment
NULL               .         -999.25                       : Missing value
COMP               .         One Earth Energy              : Company
WELL               .         OEE #1                        : Well name
FLD                .         OEE                           : Field
LOC                .                                       : Location
PROV               .         Illinois                      : Province
SRVC               .         Schlumberger                  : Service Company
DATE               .         26-Dec-2021                   : Date
UWI                .         12-113-25373-00               : Unique Well ID
APD                .ft       15                            : Elevation of Depth Reference (LMF) Above Permanent Datum
API                .         12-113-25373-00               : API NUMBER
BHS                .         OPEN                          : Borehole Status (Open or Cased Hole)
BHT                .degF     93.71                         : Bottom Hole Temperature
BLI                .ft       4052                          : Bottom Log Interval
BS                 .in       12.25                         : Bit Size
CBDR               .ft       374                           : Casing Bottom of Driller
CBLO               .ft       374                           : Logger Casing Shoe Depth
CNTY               .         McLean                        : COUNTY
CSIZ               .in       13.375                        : Current Casing Size
CWEI               .lbm/ft   54.5                          : Casing Weight
CTRY               .         United States of America - US : Nation
DCS                .         23-Dec-2021                   : Date Circulation Stopped
DFD                .lbm/gal  9.25                          : Drilling Fluid Density
DFT                .         WATER                         : Drilling Fluid Type
DLAB               .         26-Dec-2021                   : Date Logger At Bottom
EDF                .ft       840.0001                      : Elevation of Drill Floor
EGL                .ft       826                           : Elevation of Ground Level
EKB                .ft       841                           : Elevation of Kelly Bushing
EPD                .ft       826                           : Elevation of Permanent Datum (PDAT) above Mean Sea Level
GDAT               .                                       : GeoDetic Datum
LMF                .         KB                            : Logging Measured From (Name of Logging Elevation Reference)
LUL                .         Bradford                      : Logging Unit Location
LUN                .         2266                          : Logging Unit Number
LATI               .         40.485663 degrees             : Latitude
LONG               .         -88.468241 degrees            : Longitude
MCST               .degF     67.9                          : Mudcake Sample Temperature
MFST               .degF     66.3                          : Mud Filtrate Sample Temperature
MRT                .degF     93.71                         : Maximum Recorded Temperature
MST                .degF     65.4                          : Mud Sample Temperature
ORIGINALWELLNAME   .         OEE #1                        : 
PDAT               .         GL                            : Permanent Datum
PRODUCER-CODE      .         440                           : 
PRODUCER-NAME      .         Schlumberger                  : 
RMB                .ohm.m    3.533802                      : Resistivity of Mud at Bottom Hole Temperature
RMCS               .ohm.m    6.12                          : Resistivity of Mud Cake Sample
RMFS               .ohm.m    3.85                          : Resistivity of Mud Filtrate Sample
RMS                .ohm.m    4.92                          : Resistivity of Mud Sample
RUN                .         1C                            : Run Number
STAT               .         Illinois                      : State or Province
TCS                .         23_45_00                      : Time Circulation Stopped
TDD                .ft       4052                          : Driller Total Depth
TDL                .ft       4052                          : Logger Total Depth
TLAB               .         02_57_00                      : Time Logger At Bottom
TLI                .ft       379                           : Top Log Interval
~Parameter Information Block
#_______________________________________________________________________________
#
#PARAMETER_NAME    .UNIT     VALUE                         : DESCRIPTION
#_______________________________________________________________________________
SET                .         LQC                           : 
TLFamily_AT10      .         Resistivity - Induction Array 10: 
TLFamily_AT20      .         Resistivity - Induction Array 20: 
TLFamily_AT30      .         Resistivity - Induction Array 30: 
TLFamily_AT60      .         Resistivity - Induction Array 60: 
TLFamily_AT90      .         Resistivity - Induction Array 90: 
TLFamily_BS        .         Bit Size                      : 
TLFamily_Calcite_QE .        Calcite Volume Fraction       : 
TLFamily_HCAL      .         Caliper                       : 
TLFamily_HCGR      .         Gamma Ray Minus Uranium       : 
TLFamily_HSGR      .         Gamma Ray                     : 
TLFamily_HTHO      .         Thorium Concentration         : 
TLFamily_Illite_QE .         Illite Volume Fraction        : 
TLFamily_KINT_GEO_QE .       Permeability                  : 
TLFamily_KSDR_CMR  .         NMR Permeability              : 
TLFamily_MD        .         Measured Depth                : 
TLFamily_MRP_CMR   .         NMR Porosity                  : 
TLFamily_MRP_CMR_Edited .    NMR Porosity                  : 
TLFamily_MRP_CMR_Edited_REC_QE .NMR Porosity               : 
TLFamily_PHIT_QE   .         Total Porosity                : 
TLFamily_PIGN_QE   .         Effective Porosity            : 
TLFamily_Pyrite_QE .         Pyrite Volume Fraction        : 
TLFamily_Quartz_QE .         Quartz Volume Fraction        : 
TLFamily_RHGA_GEO_QE .       Grain Density                 : 
TLFamily_RHOZ      .         Bulk Density                  : 
TLFamily_TNPH_LIM  .         Thermal Neutron Porosity Limestone: 
TLFamily_UWater_QE .         Undisturbed Zone Water Volume Fraction: 
TLFamily_VCL_GEO_QE .        Clay Volume Fraction          : 
TLFamily_WANH_WALK2 .        Anhydrite Weight Fraction     : 
TLFamily_WCAR_WALK2 .        Carbonate Weight Fraction     : 
TLFamily_WCLA_WALK2 .        Clay Weight Fraction          : 
TLFamily_WCOA_WALK2 .        Coal Weight Fraction          : 
TLFamily_WPYR_WALK2 .        Pyrite Weight Fraction        : 
TLFamily_WQFM_WALK2 .        Quartz-Feldspar-Mica Weight Fraction: 
~Curve Information
#_______________________________________________________________________________
#
#LOGNAME           .UNIT     LOG_ID                        : DESCRIPTION
#_______________________________________________________________________________
MD                 .ft                                     : Measured DEPTH 
AT10               .ohm.m                                  : Array Induction Two Foot Resistivity A10 
AT20               .ohm.m                                  : Array Induction Two Foot Resistivity A20 
AT30               .ohm.m                                  : Array Induction Two Foot Resistivity A30 
AT60               .ohm.m                                  : Array Induction Two Foot Resistivity A60 
AT90               .ohm.m                                  : Array Induction Two Foot Resistivity A90 
BS                 .in                                     : Bit Size 
Calcite_QE         .v/v                                    : Calcite Volume Fraction 
HCAL               .in                                     : HRCC Caliper Calibrated 
HCGR               .gAPI                                   : HNGS Computed Gamma Ray 
HSGR               .gAPI                                   : HNGS Standard Gamma-Ray 
HTHO               .ppm                                    : HNGS Formation Thorium Concentration 
Illite_QE          .v/v                                    : Illite Volume Fraction 
KINT_GEO_QE        .mD                                     : Permeability (Juhasz 1979) 
KSDR_CMR           .mD                                     : SDR Permeability 
MRP_CMR            .ft3/ft3                                : Magnetic Resonance Porosity 
MRP_CMR_Edited     .ft3/ft3                                : Magnetic Resonance Porosity 
MRP_CMR_Edited_REC_QE .ft3/ft3                             : Quanti.Elan Reconstructed curve 
PHIT_QE            .v/v                                    : Total Porosity 
PIGN_QE            .v/v                                    : Effective porosity (with irreducible water) 
Pyrite_QE          .v/v                                    : Pyrite Volume Fraction 
Quartz_QE          .v/v                                    : Quartz Volume Fraction 
RHGA_GEO_QE        .g/cm3                                  : Apparent grain density 
RHOZ               .g/cm3                                  : Standard Resolution Formation Density 
TNPH_LIM           .ft3/ft3                                : Thermal Neutron Porosity (matrix Limestone) 
UWater_QE          .v/v                                    : Undisturbed Zone Water Volume Fraction 
VCL_GEO_QE         .v/v                                    : Clay fraction 
WANH_WALK2         .lbm/lbm                                : Dry Weight Fraction Anhydrite/Gypsum 
WCAR_WALK2         .lbm/lbm                                : Dry Weight Fraction Carbonate 
WCLA_WALK2         .lbm/lbm                                : Dry Weight Fraction Clay 
WCOA_WALK2         .lbm/lbm                                : Dry Weight Fraction Coal 
WPYR_WALK2         .lbm/lbm                                : Dry Weight Fraction Pyrite from WALK2 Model 
WQFM_WALK2         .lbm/lbm                                : Dry Weight Fraction Quartz+Feldspar+Mica (QFM) 
~Ascii
# ...
4845.0000  29.7214    22.6518    16.6439    10.6060    9.0152     8.5000     0.0002     8.3783     21.9396    29.3755    2.5651     0.0503     11.7785    3.7151     0.1074     0.1074     0.1077     0.1079     0.1015     0.0027     0.7980     2.6614     2.4781     0.0412     0.0700     0.0568     0.0000     0.0000     0.0614     0.0000     0.0066     0.9320    
4845.5000  27.6486    20.8812    15.7229    10.3725    8.8597     8.5000     0.0000     8.3819     25.6853    34.3519    2.9642     0.0458     14.3173    3.4162     0.1076     0.1076     0.1080     0.1096     0.1038     0.0038     0.7880     2.6626     2.4867     0.0444     0.0700     0.0517     0.0000     0.0000     0.0574     0.0000     0.0070     0.9356    
4846.0000  29.3153    21.5963    16.3798    10.7767    9.2040     8.5000     0.0000     8.3891     29.5075    38.9636    3.4638     0.0418     15.6588    5.0426     0.1092     0.1092     0.1088     0.1077     0.1024     0.0035     0.7832     2.6601     2.4854     0.0505     0.0689     0.0472     0.0000     0.0000     0.0528     0.0000     0.0067     0.9404    
4846.5000  32.4163    22.2388    17.1913    11.4468    9.6973     8.5000     0.0004     8.3964     38.1998    50.4999    4.5084     0.0532     9.2762     7.9364     0.1097     0.1097     0.1087     0.0966     0.0898     0.0018     0.7647     2.6555     2.4908     0.0596     0.0696     0.0600     0.0000     0.0000     0.0669     0.0000     0.0055     0.9276    
4847.0000  37.1176    23.2427    18.7039    11.7573    10.5032    8.5000     0.0007     8.4218     63.1988    82.7468    7.4645     0.0705     3.5359     6.4219     0.1021     0.1021     0.1022     0.0765     0.0674     0.0006     0.7065     2.6496     2.5216     0.0778     0.0674     0.0796     0.0000     0.0000     0.0931     0.0000     0.0034     0.9035    
4847.5000  43.2982    25.2560    18.8311    12.0809    11.0598    8.5000     0.0000     8.4906     96.2637    125.1586   11.4561    0.0859     1.1975     0.3905     0.0739     0.0739     0.0765     0.0584     0.0474     0.0013     0.6272     2.6466     2.5704     0.1144     0.0474     0.0969     0.0000     0.0000     0.1242     0.0000     0.0000     0.8758    
4848.0000  50.1258    26.4011    20.2376    12.6242    11.9083    8.5000     0.0000     8.5559     111.2714   143.7775   13.0746    0.0777     1.8162     0.0172     0.0526     0.0526     0.0584     0.0587     0.0488     0.0031     0.5888     2.6461     2.6007     0.1660     0.0488     0.0876     0.0000     0.0000     0.1206     0.0000     0.0000     0.8794    
4848.5000  58.6553    30.2213    21.6342    12.8733    12.5490    8.5000     0.0000     8.5305     90.6704    117.6099   10.6858    0.0642     4.4011     0.0812     0.0578     0.0578     0.0587     0.0720     0.0638     0.0037     0.6402     2.6501     2.5925     0.1734     0.0638     0.0725     0.0000     0.0000     0.0957     0.0000     0.0000     0.9043    
4849.0000  62.6590    33.3357    22.5448    12.7490    12.6353    8.5000     0.0000     8.4544     57.7233    73.7529    6.9143     0.0312     15.4463    1.7117     0.0780     0.0780     0.0720     0.0905     0.0865     0.0031     0.7346     2.6504     2.5440     0.1059     0.0603     0.0351     0.0000     0.0000     0.0443     0.0000     0.0000     0.9557    
4849.5000  59.9974    30.5066    19.7944    11.5826    11.7952    8.5000     0.0000     8.3674     32.9233    42.1263    3.9937     0.0066     30.2820    19.1943    0.0967     0.0967     0.0905     0.1014     0.1006     0.0028     0.8062     2.6508     2.5070     0.0644     0.0605     0.0074     0.0000     0.0000     0.0102     0.0000     0.0012     0.9886    
4850.0000  56.4743    28.6251    18.7776    11.1079    10.8000    8.5000     0.0000     8.3456     24.8466    31.4535    3.1037     0.0114     27.1471    43.9742    0.1051     0.1051     0.1009     0.1034     0.1020     0.0011     0.8245     2.6492     2.4781     0.0505     0.0636     0.0128     0.0000     0.0000     0.0144     0.0000     0.0017     0.9839    
4850.5000  55.5443    28.7108    18.2053    10.4405    10.0229    8.5000     0.0001     8.3348     21.1366    26.1369    2.8954     0.0100     26.9286    37.0111    0.1047     0.1047     0.1024     0.1037     0.1024     0.0004     0.8383     2.6483     2.4722     0.0503     0.0660     0.0113     0.0000     0.0000     0.0122     0.0000     0.0013     0.9865    
4851.0000  51.4756    28.7136    17.8721    10.0315    8.9690     8.5000     0.0000     8.3456     19.2249    22.9671    2.7806     0.0043     34.4324    24.2521    0.1037     0.1037     0.1036     0.1075     0.1069     0.0000     0.8454     2.6469     2.4667     0.0508     0.0690     0.0049     0.0000     0.0000     0.0053     0.0000     0.0000     0.9946    
4851.5000  44.7659    23.8515    15.3841    9.0561     7.8281     8.5000     0.0000     8.3456     18.4662    21.2353    2.8198     0.0036     39.4188    15.8026    0.1055     0.1055     0.1056     0.1113     0.1109     0.0000     0.8456     2.6470     2.4559     0.0513     0.0733     0.0040     0.0000     0.0000     0.0046     0.0000     0.0000     0.9954    
4852.0000  35.7366    20.3815    13.4331    8.1491     6.8882     8.5000     0.0001     8.3456     18.7481    21.0184    2.9815     0.0013     42.0367    10.0264    0.1091     0.1091     0.1094     0.1117     0.1116     0.0000     0.8474     2.6466     2.4515     0.0506     0.0780     0.0014     0.0000     0.0000     0.0018     0.0000     0.0000     0.9982    
4852.5000  30.3396    18.8259    12.8765    7.8676     6.4246     8.5000     0.0001     8.3456     18.3540    20.7934    2.9712     0.0213     24.5958    7.2386     0.1105     0.1105     0.1115     0.1102     0.1075     0.0000     0.8370     2.6505     2.4456     0.0519     0.0826     0.0241     0.0000     0.0000     0.0268     0.0000     0.0000     0.9732    
4853.0000  26.1276    17.4498    12.1432    7.5371     5.9811     8.5000     0.0001     8.3348     18.4349    21.4930    2.8957     0.0333     20.6137    6.3891     0.1085     0.1085     0.1110     0.1130     0.1088     0.0000     0.8251     2.6527     2.4454     0.0523     0.0855     0.0376     0.0000     0.0000     0.0413     0.0000     0.0000     0.9587    
4853.5000  22.7368    16.0037    11.6704    7.3248     5.8237     8.5000     0.0001     8.3456     20.1270    24.4530    2.8893     0.0345     20.9746    9.3626     0.1082     0.1082     0.1116     0.1132     0.1087     0.0000     0.8171     2.6523     2.4442     0.0522     0.0869     0.0389     0.0000     0.0000     0.0431     0.0000     0.0000     0.9569    
4854.0000  20.4058    14.5603    10.9150    7.1488     5.6920     8.5000     0.0005     8.3529     22.2810    27.7447    2.9630     0.0263     24.2152    15.5771    0.1097     0.1097     0.1131     0.1105     0.1071     0.0000     0.8164     2.6500     2.4492     0.0532     0.0880     0.0297     0.0000     0.0000     0.0329     0.0000     0.0012     0.9659    
4854.5000  20.3964    14.3690    11.1852    7.3377     5.8387     8.5000     0.0012     8.3783     24.9003    31.1033    3.2497     0.0263     21.7321    18.8294    0.1085     0.1085     0.1118     0.1065     0.1031     0.0000     0.8124     2.6494     2.4582     0.0529     0.0877     0.0297     0.0000     0.0000     0.0319     0.0000     0.0042     0.9639    
4855.0000  21.3252    14.7272    11.9271    7.8030     6.1496     8.5000     0.0010     8.3819     32.4622    40.3072    4.2732     0.0344     16.5825    15.7216    0.1054     0.1054     0.1085     0.1025     0.0981     0.0011     0.7918     2.6522     2.4738     0.0587     0.0866     0.0388     0.0000     0.0000     0.0426     0.0000     0.0058     0.9516    
4855.5000  23.3531    14.5541    11.9995    8.1124     6.4684     8.5000     0.0002     8.4036     55.8526    69.3751    7.2570     0.0508     15.2077    9.3972     0.1019     0.1019     0.1045     0.1025     0.0960     0.0023     0.7215     2.6529     2.4874     0.0659     0.0847     0.0574     0.0000     0.0000     0.0675     0.0000     0.0059     0.9265    
4856.0000  25.0309    14.8281    12.5580    8.5282     7.0279     8.5000     0.0000     8.4326     76.7352    96.0041    9.7557     0.0497     19.2044    4.9004     0.1012     0.1012     0.1025     0.1006     0.0942     0.0031     0.6688     2.6501     2.5116     0.0953     0.0808     0.0561     0.0000     0.0000     0.0716     0.0000     0.0043     0.9241    
