~Version
 VERS              .         2.0                           : CWLS LOG ASCII STANDARD - VERSION 2.0
 WRAP              .         NO                            : ONE LINE PER DEPTH STEP
 DLM               .         SPACE                         : DELIMITING CHARACTER(SPACE TAB OR COMMA)
~Well Information
#_______________________________________________________________________________
#
#PARAMETER_NAME    .UNIT     VALUE                         : DESCRIPTION
#_______________________________________________________________________________
STRT               .ft       4040.0000                     : First reference value
STOP               .ft       7050.0000                     : Last reference value
STEP               .ft       0.5000                        : Step increment
NULL               .         -999.25                       : Missing value
COMP               .         One Earth Energy              : Company
WELL               .         OEE #1                        : Well name
FLD                .         OEE                           : Field
LOC                .                                       : Location
PROV               .         Illinois                      : Province
SRVC               .         Schlumberger                  : Service Company
DATE               .         26-Dec-2021                   : Date
UWI                .         12-113-25373-00               : Unique Well ID
APD                .ft       15                            : Elevation of Depth Reference (LMF) Above Permanent Datum
API                .         12-113-25373-00               : API NUMBER
BHS                .         OPEN                          : Borehole Status (Open or Cased Hole)
BHT                .degF     93.71                         : Bottom Hole Temperature
BLI                .ft       4052                          : Bottom Log Interval
BS                 .in       12.25                         : Bit Size
CBDR               .ft       374                           : Casing Bottom of Driller
CBLO               .ft       374                           : Logger Casing Shoe Depth
CNTY               .         McLean                        : COUNTY
CSIZ               .in       13.375                        : Current Casing Size
CWEI               .lbm/ft   54.5                          : Casing Weight
CTRY               .         United States of America - US : Nation
DCS                .         23-Dec-2021                   : Date Circulation Stopped
DFD                .lbm/gal  9.25                          : Drilling Fluid Density
DFT                .         WATER                         : Drilling Fluid Type
DLAB               .         26-Dec-2021                   : Date Logger At Bottom
EDF                .ft       840.0001                      : Elevation of Drill Floor
EGL                .ft       826                           : Elevation of Ground Level
EKB                .ft       841                           : Elevation of Kelly Bushing
EPD                .ft       826                           : Elevation of Permanent Datum (PDAT) above Mean Sea Level
GDAT               .                                       : GeoDetic Datum
LMF                .         KB                            : Logging Measured From (Name of Logging Elevation Reference)
LUL                .         Bradford                      : Logging Unit Location
LUN                .         2266                          : Logging Unit Number
LATI               .         40.485663 degrees             : Latitude
LONG               .         -88.468241 degrees            : Longitude
MCST               .degF     67.9                          : Mudcake Sample Temperature
MFST               .degF     66.3                          : Mud Filtrate Sample Temperature
MRT                .degF     93.71                         : Maximum Recorded Temperature
MST                .degF     65.4                          : Mud Sample Temperature
ORIGINALWELLNAME   .         OEE #1                        : 
PDAT               .         GL                            : Permanent Datum
PRODUCER-CODE      .         440                           : 
PRODUCER-NAME      .         Schlumberger                  : 
RMB                .ohm.m    3.533802                      : Resistivity of Mud at Bottom Hole Temperature
RMCS               .ohm.m    6.12                          : Resistivity of Mud Cake Sample
RMFS               .ohm.m    3.85                          : Resistivity of Mud Filtrate Sample
RMS                .ohm.m    4.92                          : Resistivity of Mud Sample
RUN                .         1C                            : Run Number
STAT               .         Illinois                      : State or Province
TCS                .         23_45_00                      : Time Circulation Stopped
TDD                .ft       4052                          : Driller Total Depth
TDL                .ft       4052                          : Logger Total Depth
TLAB               .         02_57_00                      : Time Logger At Bottom
TLI                .ft       379                           : Top Log Interval
~Parameter Information Block
#_______________________________________________________________________________
#
#PARAMETER_NAME    .UNIT     VALUE                         : DESCRIPTION
#_______________________________________________________________________________
SET                .         LQC_MP_043_Deliverables       : 
TLFamily_AT10      .         Resistivity - Induction Array 10: 
TLFamily_AT20      .         Resistivity - Induction Array 20: 
TLFamily_AT30      .         Resistivity - Induction Array 30: 
TLFamily_AT60      .         Resistivity - Induction Array 60: 
TLFamily_AT90      .         Resistivity - Induction Array 90: 
TLFamily_BS        .         Bit Size                      : 
TLFamily_C44       .         Elastic Modulus               : 
TLFamily_C55       .         Elastic Modulus               : 
TLFamily_C66       .         Elastic Modulus               : 
TLFamily_DTCO_MF_DDBHC .         Compressional Slowness        : 
TLFamily_DTSH_FAST .         Fast Shear Slowness           : 
TLFamily_DTSH_SLOW .         Slow Shear Slowness           : 
TLFamily_DTSH_STRVP .         Stoneley Shear Slowness       : 
TLFamily_GAMMA     .         Regularization Factor         : 
TLFamily_GR_EDTC   .         Gamma Ray                     : 
TLFamily_HCAL      .         Caliper                       : 
TLFamily_ISHE      .         Shear Strength                : 
TLFamily_MD        .         Measured Depth                : 
TLFamily_PPGI_MP_TD .         Pore Pressure Gradient        : 
TLFamily_PPGI_PorePressure .         Pore Pressure Gradient        : 
TLFamily_PR_HH     .         Poisson Ratio (Dynamic)       : 
TLFamily_PR_VH     .         Poisson Ratio (Dynamic)       : 
TLFamily_RHOZ      .         Bulk Density                  : 
TLFamily_SDEVM     .         Sonde Deviation               : 
TLFamily_SLOANI    .         Acoustic Anisotropy           : 
TLFamily_SPHI      .         Total Porosity                : 
TLFamily_TENS      .         Tension                       : 
TLFamily_TNPH      .         Thermal Neutron Porosity      : 
TLFamily_TSTR      .         Tensile Strength              : 
TLFamily_TXSG_ANISO .         Minimum Horizontal Stress Gradient: 
TLFamily_TXSG_ISO  .         Minimum Horizontal Stress Gradient: 
TLFamily_TXSP_ANISO .         Minimum Horizontal Stress     : 
TLFamily_TZSG      .         Vertical Stress Gradient      : 
TLFamily_UCS       .         Compressive Strength          : 
TLFamily_YME_H_STA .         Young's Modulus (Dynamic)     : 
TLFamily_YME_V_STA .         Young's Modulus (Dynamic)     : 
~Curve Information
#_______________________________________________________________________________
#
#LOGNAME           .UNIT     LOG_ID                        : DESCRIPTION
#_______________________________________________________________________________
MD                 .ft                                     : Measured DEPTH 
AT10               .ohm.m                                  : Array Induction Two Foot Resistivity A10 
AT20               .ohm.m                                  : Array Induction Two Foot Resistivity A20 
AT30               .ohm.m                                  : Array Induction Two Foot Resistivity A30 
AT60               .ohm.m                                  : Array Induction Two Foot Resistivity A60 
AT90               .ohm.m                                  : Array Induction Two Foot Resistivity A90 
BS                 .in                                     : Bit Size 
C44                .Mpsi                                   : C44 Modulus 
C55                .Mpsi                                   : C55 Modulus 
C66                .Mpsi                                   : C66 Modulus 
DTCO_MF_DDBHC      .us/ft                                  : Compressional slowness 
DTSH_FAST          .us/ft                                  : Shear slowness 
DTSH_SLOW          .us/ft                                  : Shear slowness 
DTSH_STRVP         .us/ft                                  : Stoneley Shear Slowness 
GAMMA              .unitless                               : Thomsens Anisotropy Parameter Gamma 
GR_EDTC            .gAPI                                   : Gamma Ray 
HCAL               .in                                     : HRCC Caliper Calibrated 
ISHE               .psi                                    : Cohesive Strength 
PPGI_MP_TD         .psi/ft                                 : Pore Pressure Gradient 
PPGI_PorePressure  .psi/ft                                 : Pore Pressure Gradient from XRP
PR_HH              .unitless                               : Poissons Ratio - Loading Horizontal - Displacement Horizontal 
PR_VH              .unitless                               : Poissons Ratio - Loading Vertical - Displacement Horizontal 
RHOZ               .g/cm3                                  : Standard Resolution Formation Density 
SDEVM              .deg                                    : Memorized Sonde Deviation 
SLOANI             .%                                      : Slowness-based Anisotropy 
SPHI               .ft3/ft3                                : Total porosity from Sonic 
TENS               .lbf                                    : Cable Tension 
TNPH               .ft3/ft3                                : Thermal Neutron Porosity (Ratio Method) in Selected Lithology 
TSTR               .psi                                    : Tensile Strength 
TXSG_ANISO         .psi/ft                                 : Anisotropic Minimum Horizontal Stress Gradient 
TXSG_ISO           .psi/ft                                 : Isotropic Minimum Horizontal Stress Gradient 
TXSP_ANISO         .psi                                    : Anisotropic Minimum Horizontal Stress 
TZSG               .psi/ft                                 : Overburden Stress Gradient 
UCS                .psi                                    : Unconfined Compressive Strength 
YME_H_STA          .Mpsi                                   :  Static Horizontal Youngs Modulus 
YME_V_STA          .Mpsi                                   : Static Vertical Youngs Modulus 
~Ascii
# ...
6644.0000  18.7267    10.7303    9.0705     7.1660     7.0437     8.5000     3.6595     3.6730     3.6634     61.8557    95.8160    95.9927    95.9421    0.0000     43.4854    8.6827     2605.9663  0.4300     -999.2500  0.1417     0.1429     2.5026     1.0664     0.1843     0.1015     2660.6667  0.0845     1068.1130  0.5264     0.5291     3497.1880  1.0500     12817.3564 6.6562     6.7124    
6644.5000  16.4980    10.5976    8.9093     7.0424     6.9864     8.5000     3.5788     3.6162     3.6559     62.8489    96.4652    96.9678    95.9403    0.0000     38.6936    8.6936     2386.1479  0.4300     -999.2500  0.1439     0.1418     2.4974     1.0697     0.5196     0.1085     2668.6001  0.0933     981.1484   0.5312     0.5141     3529.2549  1.0500     11773.7803 6.7280     6.5208    
6645.0000  14.9729    10.2622    8.5502     6.8061     6.7852     8.5000     3.4998     3.4998     3.6654     63.5833    97.7843    98.3043    95.8039    0.0236     31.4764    8.6718     2425.3899  0.4300     -999.2500  0.1549     0.1502     2.4967     1.0734     0.5303     0.1137     2670.1333  0.0951     978.3768   0.5498     0.5201     3652.9058  1.0500     11740.5225 6.9580     6.4446    
6645.5000  13.0085    9.8274     8.2254     6.6124     6.5801     8.5000     3.4053     3.4053     3.6913     63.5143    99.2058    99.6796    95.5118    0.0420     31.2538    8.6610     2605.5242  0.4300     -999.2500  0.1821     0.1730     2.4991     1.0763     0.4764     0.1132     2672.1250  0.1023     1035.3242  0.5917     0.5404     3931.5913  1.0500     12423.8906 7.2823     6.3841    
6646.0000  12.9754    10.0535    8.3365     6.6982     6.6170     8.5000     3.3842     3.3842     3.7230     63.3745    99.7478    100.0424   95.2416    0.0500     30.2608    8.6428     2725.6128  0.4300     -999.2500  0.1928     0.1816     2.5063     1.0793     0.2948     0.1122     2670.6001  0.1006     1072.5211  0.6098     0.5491     4052.4070  1.0500     12870.2539 7.4139     6.3488    
6646.5000  15.0364    10.9893    8.8932     7.0637     6.9315     8.5000     3.4582     3.4582     3.7296     62.5177    98.6850    98.8906    95.1250    0.0392     29.8648    8.6501     2822.5251  0.4300     -999.2500  0.1902     0.1812     2.5046     1.0817     0.2081     0.1061     2643.2144  0.0957     1116.8860  0.6015     0.5528     3997.3757  1.0500     13402.6309 7.3004     6.4487    
6647.0000  17.6753    11.9750    9.6275     7.5215     7.2988     8.5000     3.5735     3.5911     3.7292     61.6103    96.9370    97.1758    95.1262    0.0000     27.0610    8.6392     2681.6946  0.4300     -999.2500  0.1779     0.1728     2.5044     1.0851     0.2460     0.0997     2675.1333  0.0848     1101.3416  0.5773     0.5412     3836.6428  1.0500     13216.0986 7.0503     6.5795    
6647.5000  19.7464    12.6109    10.2238    7.9362     7.5693     8.5000     3.6842     3.7124     3.7245     61.3116    95.2293    95.5925    95.0739    0.0000     26.7891    8.6501     2713.2424  0.4300     -999.2500  0.1532     0.1519     2.4985     1.0881     0.3806     0.0976     2687.7334  0.0782     1106.9375  0.5411     0.5326     3596.6428  1.0500     13283.2500 6.8067     6.7037    
6648.0000  21.8606    13.3946    11.0589    8.4272     7.9110     8.5000     3.7676     3.8055     3.7404     60.7972    94.1566    94.6290    94.9726    0.0000     23.7258    8.6283     2838.6040  0.4300     -999.2500  0.1397     0.1429     2.5038     1.0905     0.5004     0.0940     2689.8750  0.0730     1151.3085  0.5247     0.5342     3487.8787  1.0500     13815.7012 6.6604     6.8135    
6648.5000  23.8150    14.5656    11.8641    8.9050     8.2785     8.5000     3.7730     3.8151     3.7672     60.2113    94.0133    94.5362    94.6082    0.0000     23.6025    8.6175     2977.8455  0.4300     -999.2500  0.1490     0.1528     2.5025     1.0927     0.5547     0.0898     2650.3999  0.0692     1208.5723  0.5356     0.5450     3560.8369  1.0500     14502.8682 6.7259     6.8989    
6649.0000  25.3206    15.6719    12.7394    9.3649     8.9207     8.5000     3.7776     3.8338     3.7961     59.9612    93.8104    94.5059    94.2750    0.0000     26.0099    8.6283     3033.3284  0.4300     -999.2500  0.1502     0.1553     2.5039     1.0953     0.7387     0.0881     2672.3333  0.0677     1233.9022  0.5375     0.5485     3573.4854  1.0500     14806.8262 6.7473     6.9794    
6649.5000  25.9853    16.4654    13.2499    9.8520     9.3077     8.5000     3.7734     3.8572     3.8413     60.1972    93.3829    94.4136    93.5761    0.0000     29.0735    8.6175     2929.1182  0.4300     -999.2500  0.1598     0.1575     2.4963     1.0981     1.0977     0.0897     2663.3333  0.0677     1193.3000  0.5509     0.5378     3662.8689  1.0500     14319.6006 7.0408     6.8922    
6650.0000  26.5550    17.0999    13.6666    10.2765    9.6789     8.5000     3.7546     3.8673     3.8987     60.6965    93.2125    94.6016    92.8365    0.0000     29.5210    8.6138     2785.7935  0.4300     -999.2500  0.1588     0.1542     2.4937     1.1007     1.4793     0.0933     2681.0000  0.0704     1132.6459  0.5527     0.5225     3674.8452  1.0500     13591.7510 7.1121     6.7512    
6650.5000  26.8768    17.6805    14.3248    10.8554    10.1350    8.5000     3.7789     3.7789     3.9483     60.9092    93.4421    94.9689    92.1531    0.0224     25.6019    8.6066     2940.0847  0.4300     -999.2500  0.1591     0.1541     2.4884     1.1034     1.6207     0.0948     2686.8667  0.0727     1157.4868  0.5562     0.5258     3698.5728  1.0500     13889.8428 7.1446     6.6251    
6651.0000  26.6407    17.9946    14.4806    11.1068    10.8255    8.5000     3.7496     3.7496     3.9940     60.7388    93.8914    95.1626    91.5820    0.0326     22.6006    8.5957     3087.0681  0.4300     -999.2500  0.1731     0.1655     2.4861     1.1062     1.3449     0.0936     2680.0000  0.0725     1197.7841  0.5774     0.5336     3840.1050  1.0500     14373.4082 7.2806     6.5339    
6651.5000  25.5599    16.9467    13.5922    10.6376    10.7892    8.5000     3.7464     3.7464     4.0326     60.5715    94.2231    94.9948    91.1877    0.0382     21.4079    8.6283     3190.7490  0.4300     -999.2500  0.1807     0.1715     2.4885     1.1081     0.8156     0.0924     2666.5332  0.0703     1230.0701  0.5899     0.5387     3923.5012  1.0500     14760.8408 7.4020     6.5257    
6652.0000  23.8752    15.3118    12.2630    10.0017    10.5094    8.5000     3.7969     3.7969     4.0564     60.4898    93.9933    94.2793    91.0743    0.0342     22.9483    8.6283     3173.3386  0.4300     -999.2500  0.1747     0.1665     2.4970     1.1098     0.3038     0.0918     2661.1875  0.0702     1231.2731  0.5814     0.5348     3867.1296  1.0500     14775.2764 7.4342     6.6332    
6652.5000  23.1958    14.2297    11.3705    9.4398     10.2271    8.5000     3.8650     3.9058     4.0543     59.6851    92.8788    93.3685    91.1617    0.0000     23.7906    8.6501     3030.3391  0.4300     -999.2500  0.1717     0.1656     2.5005     1.1118     0.5259     0.0861     2638.1428  0.0713     1228.1721  0.5740     0.5311     3818.3257  1.0500     14738.0654 7.4313     6.8681    
6653.0000  25.2345    15.6329    11.9446    9.5457     10.6550    8.5000     3.8922     4.0254     4.0117     59.2171    91.4898    93.0423    91.6460    0.0000     27.3874    8.6392     3137.3098  0.4300     -999.2500  0.1648     0.1606     2.5006     1.1136     1.6825     0.0828     2643.8125  0.0712     1274.3569  0.5605     0.5369     3728.8728  1.0500     15292.2842 7.3419     7.0640    
6653.5000  27.7306    16.9513    12.6879    9.8040     11.1097    8.5000     3.8737     3.9852     3.9178     59.1735    91.9294    93.2426    92.7170    0.0000     26.9886    8.6283     3166.6389  0.4300     -999.2500  0.1383     0.1475     2.4995     1.1157     1.4184     0.0825     2697.3999  0.0722     1289.9515  0.5257     0.5460     3497.5376  1.0500     15479.4180 6.7780     7.2255    
6654.0000  25.3114    16.2527    11.7957    9.1113     10.3363    8.5000     3.7481     3.8622     3.7366     59.5470    93.3267    94.7364    94.8824    0.0000     28.7021    8.6356     3140.6641  0.4300     -999.2500  0.1477     0.1581     2.4965     1.1181     1.4992     0.0851     2699.0667  0.0749     1274.2260  0.5340     0.5587     3552.7190  1.0500     15290.7119 6.5499     7.0117    
