~Version
 VERS              .         2.0                           : CWLS LOG ASCII STANDARD - VERSION 2.0
 WRAP              .         NO                            : ONE LINE PER DEPTH STEP
 DLM               .         SPACE                         : DELIMITING CHARACTER(SPACE TAB OR COMMA)
~Well Information
#_______________________________________________________________________________
#
#PARAMETER_NAME    .UNIT     VALUE                         : DESCRIPTION
#_______________________________________________________________________________
STRT               .ft       4040.0000                     : First reference value
STOP               .ft       7075.0000                     : Last reference value
STEP               .ft       0.5000                        : Step increment
NULL               .         -999.25                       : Missing value
COMP               .         One Earth Energy              : Company
WELL               .         OEE #1                        : Well name
FLD                .         OEE                           : Field
LOC                .                                       : Location
PROV               .         Illinois                      : Province
SRVC               .         Schlumberger                  : Service Company
DATE               .         26-Dec-2021                   : Date
UWI                .         12-113-25373-00               : Unique Well ID
APD                .ft       15                            : Elevation of Depth Reference (LMF) Above Permanent Datum
API                .         12-113-25373-00               : API NUMBER
BHS                .         OPEN                          : Borehole Status (Open or Cased Hole)
BHT                .degF     93.71                         : Bottom Hole Temperature
BLI                .ft       4052                          : Bottom Log Interval
BS                 .in       12.25                         : Bit Size
CBDR               .ft       374                           : Casing Bottom of Driller
CBLO               .ft       374                           : Logger Casing Shoe Depth
CNTY               .         McLean                        : COUNTY
CSIZ               .in       13.375                        : Current Casing Size
CWEI               .lbm/ft   54.5                          : Casing Weight
CTRY               .         United States of America - US : Nation
DCS                .         23-Dec-2021                   : Date Circulation Stopped
DFD                .lbm/gal  9.25                          : Drilling Fluid Density
DFT                .         WATER                         : Drilling Fluid Type
DLAB               .         26-Dec-2021                   : Date Logger At Bottom
EDF                .ft       840.0001                      : Elevation of Drill Floor
EGL                .ft       826                           : Elevation of Ground Level
EKB                .ft       841                           : Elevation of Kelly Bushing
EPD                .ft       826                           : Elevation of Permanent Datum (PDAT) above Mean Sea Level
GDAT               .                                       : GeoDetic Datum
LMF                .         KB                            : Logging Measured From (Name of Logging Elevation Reference)
LUL                .         Bradford                      : Logging Unit Location
LUN                .         2266                          : Logging Unit Number
LATI               .         40.485663 degrees             : Latitude
LONG               .         -88.468241 degrees            : Longitude
MCST               .degF     67.9                          : Mudcake Sample Temperature
MFST               .degF     66.3                          : Mud Filtrate Sample Temperature
MRT                .degF     93.71                         : Maximum Recorded Temperature
MST                .degF     65.4                          : Mud Sample Temperature
ORIGINALWELLNAME   .         OEE #1                        : 
PDAT               .         GL                            : Permanent Datum
PRODUCER-CODE      .         440                           : 
PRODUCER-NAME      .         Schlumberger                  : 
RMB                .ohm.m    3.533802                      : Resistivity of Mud at Bottom Hole Temperature
RMCS               .ohm.m    6.12                          : Resistivity of Mud Cake Sample
RMFS               .ohm.m    3.85                          : Resistivity of Mud Filtrate Sample
RMS                .ohm.m    4.92                          : Resistivity of Mud Sample
RUN                .         1C                            : Run Number
STAT               .         Illinois                      : State or Province
TCS                .         23_45_00                      : Time Circulation Stopped
TDD                .ft       4052                          : Driller Total Depth
TDL                .ft       4052                          : Logger Total Depth
TLAB               .         02_57_00                      : Time Logger At Bottom
TLI                .ft       379                           : Top Log Interval
~Parameter Information Block
#_______________________________________________________________________________
#
#PARAMETER_NAME    .UNIT     VALUE                         : DESCRIPTION
#_______________________________________________________________________________
SET                .         LQC                           : 
TLFamily_AT10      .         Resistivity - Induction Array 10: 
TLFamily_AT20      .         Resistivity - Induction Array 20: 
TLFamily_AT30      .         Resistivity - Induction Array 30: 
TLFamily_AT60      .         Resistivity - Induction Array 60: 
TLFamily_AT90      .         Resistivity - Induction Array 90: 
TLFamily_BS        .         Bit Size                      : 
TLFamily_Calcite_QE .        Calcite Volume Fraction       : 
TLFamily_HCAL      .         Caliper                       : 
TLFamily_HCGR      .         Gamma Ray Minus Uranium       : 
TLFamily_HSGR      .         Gamma Ray                     : 
TLFamily_HTHO      .         Thorium Concentration         : 
TLFamily_Illite_QE .         Illite Volume Fraction        : 
TLFamily_KINT_GEO_QE .       Permeability                  : 
TLFamily_KSDR_CMR  .         NMR Permeability              : 
TLFamily_MD        .         Measured Depth                : 
TLFamily_MRP_CMR   .         NMR Porosity                  : 
TLFamily_MRP_CMR_Edited .    NMR Porosity                  : 
TLFamily_MRP_CMR_Edited_REC_QE .NMR Porosity               : 
TLFamily_PHIT_QE   .         Total Porosity                : 
TLFamily_PIGN_QE   .         Effective Porosity            : 
TLFamily_Pyrite_QE .         Pyrite Volume Fraction        : 
TLFamily_Quartz_QE .         Quartz Volume Fraction        : 
TLFamily_RHGA_GEO_QE .       Grain Density                 : 
TLFamily_RHOZ      .         Bulk Density                  : 
TLFamily_TNPH_LIM  .         Thermal Neutron Porosity Limestone: 
TLFamily_UWater_QE .         Undisturbed Zone Water Volume Fraction: 
TLFamily_VCL_GEO_QE .        Clay Volume Fraction          : 
TLFamily_WANH_WALK2 .        Anhydrite Weight Fraction     : 
TLFamily_WCAR_WALK2 .        Carbonate Weight Fraction     : 
TLFamily_WCLA_WALK2 .        Clay Weight Fraction          : 
TLFamily_WCOA_WALK2 .        Coal Weight Fraction          : 
TLFamily_WPYR_WALK2 .        Pyrite Weight Fraction        : 
TLFamily_WQFM_WALK2 .        Quartz-Feldspar-Mica Weight Fraction: 
~Curve Information
#_______________________________________________________________________________
#
#LOGNAME           .UNIT     LOG_ID                        : DESCRIPTION
#_______________________________________________________________________________
MD                 .ft                                     : Measured DEPTH 
AT10               .ohm.m                                  : Array Induction Two Foot Resistivity A10 
AT20               .ohm.m                                  : Array Induction Two Foot Resistivity A20 
AT30               .ohm.m                                  : Array Induction Two Foot Resistivity A30 
AT60               .ohm.m                                  : Array Induction Two Foot Resistivity A60 
AT90               .ohm.m                                  : Array Induction Two Foot Resistivity A90 
BS                 .in                                     : Bit Size 
Calcite_QE         .v/v                                    : Calcite Volume Fraction 
HCAL               .in                                     : HRCC Caliper Calibrated 
HCGR               .gAPI                                   : HNGS Computed Gamma Ray 
HSGR               .gAPI                                   : HNGS Standard Gamma-Ray 
HTHO               .ppm                                    : HNGS Formation Thorium Concentration 
Illite_QE          .v/v                                    : Illite Volume Fraction 
KINT_GEO_QE        .mD                                     : Permeability (Juhasz 1979) 
KSDR_CMR           .mD                                     : SDR Permeability 
MRP_CMR            .ft3/ft3                                : Magnetic Resonance Porosity 
MRP_CMR_Edited     .ft3/ft3                                : Magnetic Resonance Porosity 
MRP_CMR_Edited_REC_QE .ft3/ft3                             : Quanti.Elan Reconstructed curve 
PHIT_QE            .v/v                                    : Total Porosity 
PIGN_QE            .v/v                                    : Effective porosity (with irreducible water) 
Pyrite_QE          .v/v                                    : Pyrite Volume Fraction 
Quartz_QE          .v/v                                    : Quartz Volume Fraction 
RHGA_GEO_QE        .g/cm3                                  : Apparent grain density 
RHOZ               .g/cm3                                  : Standard Resolution Formation Density 
TNPH_LIM           .ft3/ft3                                : Thermal Neutron Porosity (matrix Limestone) 
UWater_QE          .v/v                                    : Undisturbed Zone Water Volume Fraction 
VCL_GEO_QE         .v/v                                    : Clay fraction 
WANH_WALK2         .lbm/lbm                                : Dry Weight Fraction Anhydrite/Gypsum 
WCAR_WALK2         .lbm/lbm                                : Dry Weight Fraction Carbonate 
WCLA_WALK2         .lbm/lbm                                : Dry Weight Fraction Clay 
WCOA_WALK2         .lbm/lbm                                : Dry Weight Fraction Coal 
WPYR_WALK2         .lbm/lbm                                : Dry Weight Fraction Pyrite from WALK2 Model 
WQFM_WALK2         .lbm/lbm                                : Dry Weight Fraction Quartz+Feldspar+Mica (QFM) 
~Ascii
# ...
5650.0000  20.6974    13.9342    8.2447     5.3321     4.5678     8.5000     0.0005     8.6501     23.9951    29.4898    3.2994     0.0112     38.1529    1.5089     0.1143     0.1143     0.1147     0.1128     0.1114     0.0000     0.8212     2.6469     2.4489     0.0547     0.0949     0.0126     0.0000     0.0000     0.0142     0.0000     0.0012     0.9846    
5650.5000  17.4901    12.7877    7.7605     5.0587     4.2413     8.5000     0.0003     8.6610     26.3990    31.5902    3.6441     0.0116     39.1986    1.1061     0.1131     0.1131     0.1143     0.1129     0.1114     0.0000     0.8153     2.6465     2.4479     0.0574     0.0986     0.0131     0.0000     0.0000     0.0149     0.0000     0.0010     0.9841    
5651.0000  17.2991    11.6845    7.3602     4.8393     4.0088     8.5000     0.0001     8.6610     26.7618    30.8639    3.9159     0.0094     41.9387    1.4174     0.1102     0.1102     0.1128     0.1136     0.1124     0.0000     0.8183     2.6462     2.4506     0.0588     0.1009     0.0106     0.0000     0.0000     0.0124     0.0000     0.0000     0.9876    
5651.5000  19.2133    11.2148    7.1799     4.7508     3.8719     8.5000     0.0001     8.6283     23.8847    27.9716    3.4042     0.0102     41.2729    4.2560     0.1099     0.1099     0.1129     0.1146     0.1133     0.0000     0.8222     2.6468     2.4509     0.0545     0.1025     0.0115     0.0000     0.0000     0.0133     0.0000     0.0000     0.9867    
5652.0000  22.4115    11.3464    7.5128     4.8233     3.8798     8.5000     0.0001     8.6501     20.9058    24.5556    2.9488     0.0083     41.3381    9.9898     0.1112     0.1112     0.1136     0.1144     0.1134     0.0000     0.8303     2.6471     2.4536     0.0511     0.1022     0.0093     0.0000     0.0000     0.0107     0.0000     0.0000     0.9893    
5652.5000  24.7664    11.6366    7.4445     4.7564     3.8560     8.5000     0.0001     8.6501     19.6291    23.1923    2.8182     0.0028     44.6158    14.3266    0.1124     0.1124     0.1146     0.1135     0.1131     0.0000     0.8385     2.6464     2.4566     0.0492     0.1022     0.0031     0.0000     0.0000     0.0038     0.0000     0.0000     0.9962    
5653.0000  27.2941    11.3797    7.5664     4.7553     3.8490     8.5000     0.0001     8.6428     18.3909    22.0747    2.8713     0.0000     41.1408    12.7806    0.1125     0.1125     0.1144     0.1102     0.1102     0.0000     0.8493     2.6464     2.4606     0.0476     0.1026     0.0000     0.0000     0.0000     0.0005     0.0000     0.0000     0.9995    
5653.5000  27.6248    11.7358    7.6497     4.7425     3.8311     8.5000     0.0001     8.6501     18.5035    22.2566    2.9375     0.0002     37.3599    9.4056     0.1118     0.1118     0.1135     0.1077     0.1077     0.0000     0.8519     2.6465     2.4623     0.0445     0.1038     0.0003     0.0000     0.0000     0.0009     0.0000     0.0000     0.9991    
5654.0000  26.3133    11.6471    7.5785     4.6403     3.7822     8.5000     0.0002     8.6610     18.7893    21.5794    3.1739     0.0011     38.6518    10.7617    0.1083     0.1083     0.1102     0.1095     0.1094     0.0000     0.8514     2.6468     2.4588     0.0446     0.1045     0.0012     0.0000     0.0000     0.0019     0.0000     0.0000     0.9981    
5654.5000  24.8062    11.4009    7.3691     4.5396     3.6736     8.5000     0.0001     8.6718     19.1178    21.3605    3.2444     0.0034     43.2858    18.8032    0.1053     0.1053     0.1077     0.1143     0.1139     0.0000     0.8451     2.6472     2.4588     0.0479     0.1046     0.0038     0.0000     0.0000     0.0045     0.0000     0.0000     0.9955    
5655.0000  22.9936    11.0027    7.1642     4.4595     3.5809     8.5000     0.0000     8.6501     19.5588    21.5868    3.3493     0.0021     53.0868    31.5636    0.1069     0.1069     0.1095     0.1195     0.1192     0.0000     0.8405     2.6469     2.4539     0.0513     0.1045     0.0024     0.0000     0.0000     0.0027     0.0000     0.0000     0.9973    
5655.5000  21.4583    10.7237    7.0119     4.3583     3.4630     8.5000     0.0000     8.6573     19.5151    21.7890    3.3412     0.0018     57.4208    41.1704    0.1130     0.1130     0.1143     0.1217     0.1215     0.0000     0.8386     2.6468     2.4512     0.0548     0.1057     0.0020     0.0000     0.0000     0.0023     0.0000     0.0000     0.9977    
5656.0000  19.9528    10.4327    6.8476     4.2847     3.3898     8.5000     0.0000     8.6718     19.4567    22.0461    3.3128     0.0116     48.5795    43.3863    0.1189     0.1189     0.1195     0.1236     0.1222     0.0000     0.8303     2.6487     2.4477     0.0565     0.1075     0.0130     0.0000     0.0000     0.0145     0.0000     0.0000     0.9855    
5656.5000  19.9704    10.1768    6.7463     4.2351     3.3329     8.5000     0.0006     8.6646     17.9727    21.8195    3.0280     0.0250     37.2341    39.9403    0.1213     0.1213     0.1217     0.1264     0.1233     0.0006     0.8200     2.6532     2.4433     0.0587     0.1091     0.0282     0.0000     0.0000     0.0306     0.0000     0.0034     0.9660    
5657.0000  19.8230    9.9208     6.7021     4.2069     3.2967     8.5000     0.0005     8.6646     17.9945    21.8984    3.0379     0.0356     30.5007    36.1849    0.1229     0.1229     0.1236     0.1291     0.1245     0.0017     0.8097     2.6582     2.4445     0.0570     0.1098     0.0401     0.0000     0.0000     0.0436     0.0000     0.0055     0.9509    
5657.5000  19.5471    9.6755     6.6899     4.2039     3.2885     8.5000     0.0004     8.6718     17.1570    21.5620    2.9238     0.0323     33.8182    34.0418    0.1251     0.1251     0.1264     0.1304     0.1263     0.0018     0.8126     2.6580     2.4441     0.0572     0.1094     0.0365     0.0000     0.0000     0.0397     0.0000     0.0052     0.9551    
5658.0000  19.0912    9.5671     6.7219     4.2215     3.2982     8.5000     0.0002     8.6501     17.1865    21.4570    3.0412     0.0239     38.8653    31.8850    0.1279     0.1279     0.1291     0.1282     0.1252     0.0014     0.8223     2.6553     2.4482     0.0576     0.1090     0.0269     0.0000     0.0000     0.0294     0.0000     0.0036     0.9670    
5658.5000  18.7612    9.4703     6.7931     4.2841     3.3458     8.5000     0.0000     8.6646     17.7185    21.5621    3.1095     0.0108     50.6846    25.9047    0.1296     0.1296     0.1304     0.1257     0.1243     0.0004     0.8331     2.6501     2.4502     0.0585     0.1075     0.0122     0.0000     0.0000     0.0134     0.0000     0.0010     0.9856    
5659.0000  18.3713    9.4207     6.8418     4.3590     3.4106     8.5000     0.0000     8.6646     18.1522    22.3453    3.1271     0.0116     47.4004    19.3139    0.1279     0.1279     0.1282     0.1234     0.1220     0.0000     0.8335     2.6490     2.4482     0.0572     0.1072     0.0130     0.0000     0.0000     0.0145     0.0000     0.0000     0.9855    
5659.5000  18.1805    9.4532     6.9636     4.4696     3.5008     8.5000     0.0001     8.6791     18.9230    23.3647    3.2599     0.0160     39.7352    16.0159    0.1257     0.1257     0.1257     0.1209     0.1188     0.0000     0.8314     2.6497     2.4454     0.0543     0.1070     0.0180     0.0000     0.0000     0.0202     0.0000     0.0000     0.9798    
5660.0000  17.4495    9.5753     7.1353     4.6101     3.6211     8.5000     0.0001     8.6646     18.2081    23.4220    3.1135     0.0225     30.7618    14.9883    0.1227     0.1227     0.1234     0.1180     0.1151     0.0000     0.8312     2.6510     2.4463     0.0529     0.1071     0.0254     0.0000     0.0000     0.0281     0.0000     0.0003     0.9716    
5660.5000  16.9625    9.7581     7.3133     4.7710     3.7701     8.5000     0.0001     8.6863     18.5089    24.1393    2.9906     0.0206     28.6423    15.0182    0.1189     0.1189     0.1209     0.1140     0.1114     0.0000     0.8333     2.6504     2.4535     0.0491     0.1052     0.0232     0.0000     0.0000     0.0258     0.0000     0.0001     0.9741    
5661.0000  17.0244    9.7303     7.5264     4.9681     3.9594     8.5000     0.0001     8.6791     18.3474    23.4582    2.9306     0.0159     29.6778    14.2929    0.1153     0.1153     0.1180     0.1118     0.1098     0.0000     0.8387     2.6495     2.4641     0.0472     0.1025     0.0179     0.0000     0.0000     0.0198     0.0000     0.0000     0.9802    
