~Version
 VERS              .         2.0                           : CWLS LOG ASCII STANDARD - VERSION 2.0
 WRAP              .         NO                            : ONE LINE PER DEPTH STEP
 DLM               .         SPACE                         : DELIMITING CHARACTER(SPACE TAB OR COMMA)
~Well Information
#_______________________________________________________________________________
#
#PARAMETER_NAME    .UNIT     VALUE                         : DESCRIPTION
#_______________________________________________________________________________
STRT               .ft       4040.0000                     : First reference value
STOP               .ft       7050.0000                     : Last reference value
STEP               .ft       0.5000                        : Step increment
NULL               .         -999.25                       : Missing value
COMP               .         One Earth Energy              : Company
WELL               .         OEE #1                        : Well name
FLD                .         OEE                           : Field
LOC                .                                       : Location
PROV               .         Illinois                      : Province
SRVC               .         Schlumberger                  : Service Company
DATE               .         26-Dec-2021                   : Date
UWI                .         12-113-25373-00               : Unique Well ID
APD                .ft       15                            : Elevation of Depth Reference (LMF) Above Permanent Datum
API                .         12-113-25373-00               : API NUMBER
BHS                .         OPEN                          : Borehole Status (Open or Cased Hole)
BHT                .degF     93.71                         : Bottom Hole Temperature
BLI                .ft       4052                          : Bottom Log Interval
BS                 .in       12.25                         : Bit Size
CBDR               .ft       374                           : Casing Bottom of Driller
CBLO               .ft       374                           : Logger Casing Shoe Depth
CNTY               .         McLean                        : COUNTY
CSIZ               .in       13.375                        : Current Casing Size
CWEI               .lbm/ft   54.5                          : Casing Weight
CTRY               .         United States of America - US : Nation
DCS                .         23-Dec-2021                   : Date Circulation Stopped
DFD                .lbm/gal  9.25                          : Drilling Fluid Density
DFT                .         WATER                         : Drilling Fluid Type
DLAB               .         26-Dec-2021                   : Date Logger At Bottom
EDF                .ft       840.0001                      : Elevation of Drill Floor
EGL                .ft       826                           : Elevation of Ground Level
EKB                .ft       841                           : Elevation of Kelly Bushing
EPD                .ft       826                           : Elevation of Permanent Datum (PDAT) above Mean Sea Level
GDAT               .                                       : GeoDetic Datum
LMF                .         KB                            : Logging Measured From (Name of Logging Elevation Reference)
LUL                .         Bradford                      : Logging Unit Location
LUN                .         2266                          : Logging Unit Number
LATI               .         40.485663 degrees             : Latitude
LONG               .         -88.468241 degrees            : Longitude
MCST               .degF     67.9                          : Mudcake Sample Temperature
MFST               .degF     66.3                          : Mud Filtrate Sample Temperature
MRT                .degF     93.71                         : Maximum Recorded Temperature
MST                .degF     65.4                          : Mud Sample Temperature
ORIGINALWELLNAME   .         OEE #1                        : 
PDAT               .         GL                            : Permanent Datum
PRODUCER-CODE      .         440                           : 
PRODUCER-NAME      .         Schlumberger                  : 
RMB                .ohm.m    3.533802                      : Resistivity of Mud at Bottom Hole Temperature
RMCS               .ohm.m    6.12                          : Resistivity of Mud Cake Sample
RMFS               .ohm.m    3.85                          : Resistivity of Mud Filtrate Sample
RMS                .ohm.m    4.92                          : Resistivity of Mud Sample
RUN                .         1C                            : Run Number
STAT               .         Illinois                      : State or Province
TCS                .         23_45_00                      : Time Circulation Stopped
TDD                .ft       4052                          : Driller Total Depth
TDL                .ft       4052                          : Logger Total Depth
TLAB               .         02_57_00                      : Time Logger At Bottom
TLI                .ft       379                           : Top Log Interval
~Parameter Information Block
#_______________________________________________________________________________
#
#PARAMETER_NAME    .UNIT     VALUE                         : DESCRIPTION
#_______________________________________________________________________________
SET                .         LQC_MP_043_Deliverables       : 
TLFamily_AT10      .         Resistivity - Induction Array 10: 
TLFamily_AT20      .         Resistivity - Induction Array 20: 
TLFamily_AT30      .         Resistivity - Induction Array 30: 
TLFamily_AT60      .         Resistivity - Induction Array 60: 
TLFamily_AT90      .         Resistivity - Induction Array 90: 
TLFamily_BS        .         Bit Size                      : 
TLFamily_C44       .         Elastic Modulus               : 
TLFamily_C55       .         Elastic Modulus               : 
TLFamily_C66       .         Elastic Modulus               : 
TLFamily_DTCO_MF_DDBHC .         Compressional Slowness        : 
TLFamily_DTSH_FAST .         Fast Shear Slowness           : 
TLFamily_DTSH_SLOW .         Slow Shear Slowness           : 
TLFamily_DTSH_STRVP .         Stoneley Shear Slowness       : 
TLFamily_GAMMA     .         Regularization Factor         : 
TLFamily_GR_EDTC   .         Gamma Ray                     : 
TLFamily_HCAL      .         Caliper                       : 
TLFamily_ISHE      .         Shear Strength                : 
TLFamily_MD        .         Measured Depth                : 
TLFamily_PPGI_MP_TD .         Pore Pressure Gradient        : 
TLFamily_PPGI_PorePressure .         Pore Pressure Gradient        : 
TLFamily_PR_HH     .         Poisson Ratio (Dynamic)       : 
TLFamily_PR_VH     .         Poisson Ratio (Dynamic)       : 
TLFamily_RHOZ      .         Bulk Density                  : 
TLFamily_SDEVM     .         Sonde Deviation               : 
TLFamily_SLOANI    .         Acoustic Anisotropy           : 
TLFamily_SPHI      .         Total Porosity                : 
TLFamily_TENS      .         Tension                       : 
TLFamily_TNPH      .         Thermal Neutron Porosity      : 
TLFamily_TSTR      .         Tensile Strength              : 
TLFamily_TXSG_ANISO .         Minimum Horizontal Stress Gradient: 
TLFamily_TXSG_ISO  .         Minimum Horizontal Stress Gradient: 
TLFamily_TXSP_ANISO .         Minimum Horizontal Stress     : 
TLFamily_TZSG      .         Vertical Stress Gradient      : 
TLFamily_UCS       .         Compressive Strength          : 
TLFamily_YME_H_STA .         Young's Modulus (Dynamic)     : 
TLFamily_YME_V_STA .         Young's Modulus (Dynamic)     : 
~Curve Information
#_______________________________________________________________________________
#
#LOGNAME           .UNIT     LOG_ID                        : DESCRIPTION
#_______________________________________________________________________________
MD                 .ft                                     : Measured DEPTH 
AT10               .ohm.m                                  : Array Induction Two Foot Resistivity A10 
AT20               .ohm.m                                  : Array Induction Two Foot Resistivity A20 
AT30               .ohm.m                                  : Array Induction Two Foot Resistivity A30 
AT60               .ohm.m                                  : Array Induction Two Foot Resistivity A60 
AT90               .ohm.m                                  : Array Induction Two Foot Resistivity A90 
BS                 .in                                     : Bit Size 
C44                .Mpsi                                   : C44 Modulus 
C55                .Mpsi                                   : C55 Modulus 
C66                .Mpsi                                   : C66 Modulus 
DTCO_MF_DDBHC      .us/ft                                  : Compressional slowness 
DTSH_FAST          .us/ft                                  : Shear slowness 
DTSH_SLOW          .us/ft                                  : Shear slowness 
DTSH_STRVP         .us/ft                                  : Stoneley Shear Slowness 
GAMMA              .unitless                               : Thomsens Anisotropy Parameter Gamma 
GR_EDTC            .gAPI                                   : Gamma Ray 
HCAL               .in                                     : HRCC Caliper Calibrated 
ISHE               .psi                                    : Cohesive Strength 
PPGI_MP_TD         .psi/ft                                 : Pore Pressure Gradient 
PPGI_PorePressure  .psi/ft                                 : Pore Pressure Gradient from XRP
PR_HH              .unitless                               : Poissons Ratio - Loading Horizontal - Displacement Horizontal 
PR_VH              .unitless                               : Poissons Ratio - Loading Vertical - Displacement Horizontal 
RHOZ               .g/cm3                                  : Standard Resolution Formation Density 
SDEVM              .deg                                    : Memorized Sonde Deviation 
SLOANI             .%                                      : Slowness-based Anisotropy 
SPHI               .ft3/ft3                                : Total porosity from Sonic 
TENS               .lbf                                    : Cable Tension 
TNPH               .ft3/ft3                                : Thermal Neutron Porosity (Ratio Method) in Selected Lithology 
TSTR               .psi                                    : Tensile Strength 
TXSG_ANISO         .psi/ft                                 : Anisotropic Minimum Horizontal Stress Gradient 
TXSG_ISO           .psi/ft                                 : Isotropic Minimum Horizontal Stress Gradient 
TXSP_ANISO         .psi                                    : Anisotropic Minimum Horizontal Stress 
TZSG               .psi/ft                                 : Overburden Stress Gradient 
UCS                .psi                                    : Unconfined Compressive Strength 
YME_H_STA          .Mpsi                                   :  Static Horizontal Youngs Modulus 
YME_V_STA          .Mpsi                                   : Static Vertical Youngs Modulus 
~Ascii
# ...
5436.5000  9.8239     9.3762     8.2194     6.9809     6.2243     8.5000     2.8501     2.8501     3.9001     62.9981    107.7359   108.3054   92.3411    0.1842     21.3547    8.5957     4176.2085  0.4300     -999.2500  0.2791     0.2394     2.4680     1.8989     0.5272     0.1095     2377.7334  0.0981     1353.2761  0.8312     0.6447     4518.2949  1.0500     16239.3135 7.2817     4.5645    
5437.0000  9.9674     9.0510     7.9977     6.9414     6.3060     8.5000     2.8759     2.8759     3.7439     63.0719    107.1314   107.8849   94.2236    0.1509     29.5188    8.6066     3821.3936  0.4300     -999.2500  0.2715     0.2384     2.4668     1.8963     0.7009     0.1100     2389.2000  0.1077     1288.9875  0.7961     0.6409     4328.1724  1.0500     15467.8516 7.1511     4.8237    
5437.5000  12.9437    10.5833    9.3362     8.1243     7.4108     8.5000     3.1230     3.1230     3.7239     61.6975    103.3137   104.1451   94.9898    0.0962     33.0919    8.6066     3676.7402  0.4300     -999.2500  0.2571     0.2334     2.4937     1.8923     0.8015     0.1003     2387.4001  0.0951     1331.9451  0.7446     0.6349     4048.4209  1.0500     15983.3408 7.3309     5.5808    
5438.0000  18.4257    12.8408    11.4836    9.7542     9.2397     8.5000     3.4440     3.4440     3.7396     59.7435    98.7026    100.0790   95.3749    0.0429     34.6571    8.5994     3654.7961  0.4300     -999.2500  0.2365     0.2247     2.5246     1.8901     1.3848     0.0865     2393.3125  0.0766     1432.6530  0.6895     0.6342     3749.4351  1.0500     17191.8359 7.5309     6.5878    
5438.5000  26.2307    14.1685    13.4121    11.8426    11.5201    8.5000     3.6849     3.6849     3.7838     58.6833    95.1261    97.8797    95.2042    0.0134     31.9280    8.5957     3607.0378  0.4300     -999.2500  0.2141     0.2103     2.5452     1.8862     2.8533     0.0790     2409.2666  0.0609     1485.5237  0.6469     0.6281     3517.9604  1.0500     17826.2832 7.6581     7.3242    
5439.0000  32.6043    16.8351    16.4646    14.4704    15.1831    8.5000     3.8218     3.8218     3.8448     59.2025    92.6130    97.0007    94.4464    0.0030     30.3667    8.5740     3286.5002  0.4300     -999.2500  0.1818     0.1810     2.5453     1.8817     4.6280     0.0827     2388.5000  0.0541     1377.9661  0.6007     0.5963     3266.9192  1.0500     16535.5938 7.6304     7.5518    
5439.5000  38.5723    20.6331    20.4348    17.6045    20.4186    8.5000     3.8717     3.8717     3.9349     59.5682    91.5306    96.7311    93.2649    0.0082     32.9454    8.5776     3192.6321  0.4300     -999.2500  0.1712     0.1691     2.5402     1.8755     5.5248     0.0853     2406.6001  0.0563     1328.4324  0.5904     0.5783     3211.3613  1.0500     15941.1885 7.7287     7.5143    
5440.0000  47.2461    26.6079    25.7398    20.5169    26.8602    8.5000     3.8624     3.8624     3.9980     59.4171    91.7537    96.5664    92.4590    0.0176     33.4148    8.5631     3329.0525  0.4300     -999.2500  0.1813     0.1767     2.5365     1.8689     5.1112     0.0842     2417.8000  0.0640     1362.4861  0.6076     0.5816     3305.0461  1.0500     16349.8330 7.8602     7.4036    
5440.5000  55.7943    37.0302    33.5451    25.3213    32.2743    8.5000     3.8944     3.8944     4.0991     59.0597    91.7181    95.8869    91.3624    0.0263     33.9334    8.5631     3532.5349  0.4300     -999.2500  0.1900     0.1829     2.5393     1.8622     4.4442     0.0817     2409.2666  0.0651     1421.5724  0.6240     0.5848     3394.8296  1.0500     17058.8691 8.0325     7.3468    
5441.0000  56.6772    41.4617    34.4654    25.1978    33.8971    8.5000     3.9367     3.9367     4.1773     58.4589    91.2806    95.3606    90.5280    0.0306     29.5657    8.5522     3776.9626  0.4300     -999.2500  0.1981     0.1895     2.5407     1.8553     4.3721     0.0774     2402.8127  0.0609     1500.7704  0.6376     0.5916     3468.9885  1.0500     18009.2441 8.1251     7.3234    
5441.5000  49.3403    37.7991    28.7862    21.8644    27.5939    8.5000     3.9495     3.9495     4.3244     58.2138    91.1236    95.2945    89.0107    0.0475     25.5723    8.5559     4081.4785  0.4300     -999.2500  0.2115     0.1975     2.5427     1.8498     4.4748     0.0757     2406.4666  0.0596     1572.0549  0.6652     0.5939     3619.6763  1.0500     18864.6582 8.3218     7.0982    
5442.0000  39.4212    31.3258    22.8031    17.8260    19.2635    8.5000     3.9057     3.9057     4.4645     58.6936    91.5153    95.6497    87.4658    0.0715     25.7951    8.5522     4212.2876  0.4300     -999.2500  0.2208     0.1998     2.5348     1.8439     4.4179     0.0791     2405.5999  0.0593     1557.3585  0.6897     0.5843     3753.1128  1.0500     18688.3027 8.4052     6.6553    
5442.5000  31.8838    27.4613    19.5515    15.4467    16.0100    8.5000     3.7814     3.7814     4.5448     59.8613    92.8542    96.9669    86.5129    0.1009     26.8871    8.5631     4177.1763  0.4300     -999.2500  0.2285     0.2002     2.5244     1.8402     4.3333     0.0874     2393.8125  0.0702     1476.7351  0.7130     0.5710     3880.1619  1.0500     17720.8223 8.3327     6.0741    
5443.0000  27.6367    23.5423    17.0179    13.7324    13.4855    8.5000     3.5650     3.5650     4.6150     60.9358    95.2268    99.4427    85.4883    0.1473     28.8736    8.5740     4331.1201  0.4300     -999.2500  0.2472     0.2079     2.5031     1.8369     4.3313     0.0950     2414.3335  0.0831     1448.7089  0.7663     0.5741     4170.6089  1.0500     17384.5059 8.3584     5.4299    
5443.5000  29.1847    22.6386    16.6368    13.3803    12.6051    8.5000     3.3485     3.3485     4.6465     61.3825    97.8078    102.3757   84.9026    0.1938     27.0157    8.5740     4687.6777  0.4300     -999.2500  0.2673     0.2181     2.4857     1.8354     4.5637     0.0981     2431.4001  0.1000     1498.5984  0.8298     0.5950     4516.4736  1.0500     17983.1816 8.4544     4.9721    
5444.0000  32.9610    22.9515    17.3439    13.8148    12.6548    8.5000     3.2082     3.2082     4.7508     61.6017    99.5731    104.6030   83.8156    0.2404     23.8667    8.5631     5085.9644  0.4300     -999.2500  0.2811     0.2231     2.4769     1.8327     4.9270     0.0997     2413.4668  0.0999     1566.9240  0.8895     0.6119     4842.0659  1.0500     18803.0879 8.7767     4.7035    
5444.5000  34.2725    22.6013    17.8153    14.0228    12.5513    8.5000     3.1740     3.1740     4.8901     62.0432    100.1643   105.2327   82.6632    0.2703     20.0706    8.5631     5221.7461  0.4300     -999.2500  0.2843     0.2209     2.4799     1.8301     4.9352     0.1028     2409.1875  0.0940     1576.9552  0.9195     0.6105     5006.1128  1.0500     18923.4629 9.1571     4.6178    
5445.0000  35.6321    22.0747    18.0325    14.0998    12.6503    8.5000     3.2282     3.2282     5.0052     62.2686    99.7930    104.1976   81.8544    0.2752     18.7282    8.5522     5174.9355  0.4300     -999.2500  0.2820     0.2168     2.4888     1.8279     4.3185     0.1044     2403.1333  0.0857     1562.4340  0.9217     0.6000     5018.4131  1.0500     18749.2070 9.4729     4.6983    
5445.5000  35.4914    21.9384    18.2825    14.0848    12.8168    8.5000     3.3236     3.3236     5.1315     61.9331    99.0541    102.2884   80.9879    0.2720     17.8828    8.5414     5243.6934  0.4300     -999.2500  0.2812     0.2146     2.4979     1.8261     3.2128     0.1020     2401.6001  0.0837     1592.9247  0.9236     0.5940     5029.2886  1.0500     19115.0957 9.8319     4.8600    
5446.0000  31.7637    20.1609    16.6551    13.1610    12.4819    8.5000     3.4019     3.4019     5.2053     61.6859    98.7403    100.4986   80.5251    0.2651     19.5437    8.5269     5248.5225  0.4300     -999.2500  0.2795     0.2128     2.5049     1.8246     1.7651     0.1003     2386.6875  0.0811     1606.3773  0.9189     0.5884     5004.1304  1.0500     19276.5273 10.0343    4.9933    
5446.5000  25.5082    17.9122    14.8918    11.9898    11.6821    8.5000     3.4159     3.4159     5.2009     61.5235    98.8019    99.8195    80.4810    0.2613     20.4616    8.5305     5248.3179  0.4300     -999.2500  0.2791     0.2129     2.5001     1.8235     1.0247     0.0991     2382.1333  0.0799     1609.7878  0.9152     0.5880     4984.0239  1.0500     19317.4551 9.9954     5.0083    
