~Version
 VERS              .         2.0                           : CWLS LOG ASCII STANDARD - VERSION 2.0
 WRAP              .         NO                            : ONE LINE PER DEPTH STEP
 DLM               .         SPACE                         : DELIMITING CHARACTER(SPACE TAB OR COMMA)
~Well Information
#_______________________________________________________________________________
#
#PARAMETER_NAME    .UNIT     VALUE                         : DESCRIPTION
#_______________________________________________________________________________
STRT               .ft       4040.0000                     : First reference value
STOP               .ft       7075.0000                     : Last reference value
STEP               .ft       0.5000                        : Step increment
NULL               .         -999.25                       : Missing value
COMP               .         One Earth Energy              : Company
WELL               .         OEE #1                        : Well name
FLD                .         OEE                           : Field
LOC                .                                       : Location
PROV               .         Illinois                      : Province
SRVC               .         Schlumberger                  : Service Company
DATE               .         26-Dec-2021                   : Date
UWI                .         12-113-25373-00               : Unique Well ID
APD                .ft       15                            : Elevation of Depth Reference (LMF) Above Permanent Datum
API                .         12-113-25373-00               : API NUMBER
BHS                .         OPEN                          : Borehole Status (Open or Cased Hole)
BHT                .degF     93.71                         : Bottom Hole Temperature
BLI                .ft       4052                          : Bottom Log Interval
BS                 .in       12.25                         : Bit Size
CBDR               .ft       374                           : Casing Bottom of Driller
CBLO               .ft       374                           : Logger Casing Shoe Depth
CNTY               .         McLean                        : COUNTY
CSIZ               .in       13.375                        : Current Casing Size
CWEI               .lbm/ft   54.5                          : Casing Weight
CTRY               .         United States of America - US : Nation
DCS                .         23-Dec-2021                   : Date Circulation Stopped
DFD                .lbm/gal  9.25                          : Drilling Fluid Density
DFT                .         WATER                         : Drilling Fluid Type
DLAB               .         26-Dec-2021                   : Date Logger At Bottom
EDF                .ft       840.0001                      : Elevation of Drill Floor
EGL                .ft       826                           : Elevation of Ground Level
EKB                .ft       841                           : Elevation of Kelly Bushing
EPD                .ft       826                           : Elevation of Permanent Datum (PDAT) above Mean Sea Level
GDAT               .                                       : GeoDetic Datum
LMF                .         KB                            : Logging Measured From (Name of Logging Elevation Reference)
LUL                .         Bradford                      : Logging Unit Location
LUN                .         2266                          : Logging Unit Number
LATI               .         40.485663 degrees             : Latitude
LONG               .         -88.468241 degrees            : Longitude
MCST               .degF     67.9                          : Mudcake Sample Temperature
MFST               .degF     66.3                          : Mud Filtrate Sample Temperature
MRT                .degF     93.71                         : Maximum Recorded Temperature
MST                .degF     65.4                          : Mud Sample Temperature
ORIGINALWELLNAME   .         OEE #1                        : 
PDAT               .         GL                            : Permanent Datum
PRODUCER-CODE      .         440                           : 
PRODUCER-NAME      .         Schlumberger                  : 
RMB                .ohm.m    3.533802                      : Resistivity of Mud at Bottom Hole Temperature
RMCS               .ohm.m    6.12                          : Resistivity of Mud Cake Sample
RMFS               .ohm.m    3.85                          : Resistivity of Mud Filtrate Sample
RMS                .ohm.m    4.92                          : Resistivity of Mud Sample
RUN                .         1C                            : Run Number
STAT               .         Illinois                      : State or Province
TCS                .         23_45_00                      : Time Circulation Stopped
TDD                .ft       4052                          : Driller Total Depth
TDL                .ft       4052                          : Logger Total Depth
TLAB               .         02_57_00                      : Time Logger At Bottom
TLI                .ft       379                           : Top Log Interval
~Parameter Information Block
#_______________________________________________________________________________
#
#PARAMETER_NAME    .UNIT     VALUE                         : DESCRIPTION
#_______________________________________________________________________________
SET                .         LQC                           : 
TLFamily_AT10      .         Resistivity - Induction Array 10: 
TLFamily_AT20      .         Resistivity - Induction Array 20: 
TLFamily_AT30      .         Resistivity - Induction Array 30: 
TLFamily_AT60      .         Resistivity - Induction Array 60: 
TLFamily_AT90      .         Resistivity - Induction Array 90: 
TLFamily_BS        .         Bit Size                      : 
TLFamily_Calcite_QE .        Calcite Volume Fraction       : 
TLFamily_HCAL      .         Caliper                       : 
TLFamily_HCGR      .         Gamma Ray Minus Uranium       : 
TLFamily_HSGR      .         Gamma Ray                     : 
TLFamily_HTHO      .         Thorium Concentration         : 
TLFamily_Illite_QE .         Illite Volume Fraction        : 
TLFamily_KINT_GEO_QE .       Permeability                  : 
TLFamily_KSDR_CMR  .         NMR Permeability              : 
TLFamily_MD        .         Measured Depth                : 
TLFamily_MRP_CMR   .         NMR Porosity                  : 
TLFamily_MRP_CMR_Edited .    NMR Porosity                  : 
TLFamily_MRP_CMR_Edited_REC_QE .NMR Porosity               : 
TLFamily_PHIT_QE   .         Total Porosity                : 
TLFamily_PIGN_QE   .         Effective Porosity            : 
TLFamily_Pyrite_QE .         Pyrite Volume Fraction        : 
TLFamily_Quartz_QE .         Quartz Volume Fraction        : 
TLFamily_RHGA_GEO_QE .       Grain Density                 : 
TLFamily_RHOZ      .         Bulk Density                  : 
TLFamily_TNPH_LIM  .         Thermal Neutron Porosity Limestone: 
TLFamily_UWater_QE .         Undisturbed Zone Water Volume Fraction: 
TLFamily_VCL_GEO_QE .        Clay Volume Fraction          : 
TLFamily_WANH_WALK2 .        Anhydrite Weight Fraction     : 
TLFamily_WCAR_WALK2 .        Carbonate Weight Fraction     : 
TLFamily_WCLA_WALK2 .        Clay Weight Fraction          : 
TLFamily_WCOA_WALK2 .        Coal Weight Fraction          : 
TLFamily_WPYR_WALK2 .        Pyrite Weight Fraction        : 
TLFamily_WQFM_WALK2 .        Quartz-Feldspar-Mica Weight Fraction: 
~Curve Information
#_______________________________________________________________________________
#
#LOGNAME           .UNIT     LOG_ID                        : DESCRIPTION
#_______________________________________________________________________________
MD                 .ft                                     : Measured DEPTH 
AT10               .ohm.m                                  : Array Induction Two Foot Resistivity A10 
AT20               .ohm.m                                  : Array Induction Two Foot Resistivity A20 
AT30               .ohm.m                                  : Array Induction Two Foot Resistivity A30 
AT60               .ohm.m                                  : Array Induction Two Foot Resistivity A60 
AT90               .ohm.m                                  : Array Induction Two Foot Resistivity A90 
BS                 .in                                     : Bit Size 
Calcite_QE         .v/v                                    : Calcite Volume Fraction 
HCAL               .in                                     : HRCC Caliper Calibrated 
HCGR               .gAPI                                   : HNGS Computed Gamma Ray 
HSGR               .gAPI                                   : HNGS Standard Gamma-Ray 
HTHO               .ppm                                    : HNGS Formation Thorium Concentration 
Illite_QE          .v/v                                    : Illite Volume Fraction 
KINT_GEO_QE        .mD                                     : Permeability (Juhasz 1979) 
KSDR_CMR           .mD                                     : SDR Permeability 
MRP_CMR            .ft3/ft3                                : Magnetic Resonance Porosity 
MRP_CMR_Edited     .ft3/ft3                                : Magnetic Resonance Porosity 
MRP_CMR_Edited_REC_QE .ft3/ft3                             : Quanti.Elan Reconstructed curve 
PHIT_QE            .v/v                                    : Total Porosity 
PIGN_QE            .v/v                                    : Effective porosity (with irreducible water) 
Pyrite_QE          .v/v                                    : Pyrite Volume Fraction 
Quartz_QE          .v/v                                    : Quartz Volume Fraction 
RHGA_GEO_QE        .g/cm3                                  : Apparent grain density 
RHOZ               .g/cm3                                  : Standard Resolution Formation Density 
TNPH_LIM           .ft3/ft3                                : Thermal Neutron Porosity (matrix Limestone) 
UWater_QE          .v/v                                    : Undisturbed Zone Water Volume Fraction 
VCL_GEO_QE         .v/v                                    : Clay fraction 
WANH_WALK2         .lbm/lbm                                : Dry Weight Fraction Anhydrite/Gypsum 
WCAR_WALK2         .lbm/lbm                                : Dry Weight Fraction Carbonate 
WCLA_WALK2         .lbm/lbm                                : Dry Weight Fraction Clay 
WCOA_WALK2         .lbm/lbm                                : Dry Weight Fraction Coal 
WPYR_WALK2         .lbm/lbm                                : Dry Weight Fraction Pyrite from WALK2 Model 
WQFM_WALK2         .lbm/lbm                                : Dry Weight Fraction Quartz+Feldspar+Mica (QFM) 
~Ascii
# ...
6662.0000  22.6328    10.8376    7.1081     5.3009     5.1776     8.5000     0.0011     8.5305     15.4406    18.7949    3.6347     0.0247     13.0542    0.0368     0.0768     0.0768     0.0867     0.0988     0.0957     0.0003     0.8661     2.6538     2.4853     0.0523     0.0921     0.0278     0.0000     0.0000     0.0285     0.0000     0.0038     0.9676    
6662.5000  22.1783    10.2910    6.8437     5.1378     5.0807     8.5000     0.0009     8.5269     14.7376    18.0021    3.4553     0.0209     14.4426    0.0582     0.0858     0.0858     0.0916     0.0990     0.0963     0.0000     0.8693     2.6524     2.4777     0.0571     0.0929     0.0235     0.0000     0.0000     0.0245     0.0000     0.0026     0.9729    
6663.0000  20.1746    9.4986     6.3277     4.7628     4.6396     8.5000     0.0011     8.5269     14.3892    17.5441    3.4144     0.0155     14.4881    0.0836     0.0916     0.0916     0.0948     0.0959     0.0939     0.0000     0.8762     2.6515     2.4677     0.0578     0.0939     0.0175     0.0000     0.0000     0.0192     0.0000     0.0022     0.9786    
6663.5000  18.5259    8.9082     5.9962     4.5246     4.3603     8.5000     0.0011     8.5269     14.5874    18.7092    3.4208     0.0186     11.4586    0.1369     0.0967     0.0967     0.0988     0.0917     0.0894     0.0000     0.8769     2.6519     2.4663     0.0587     0.0894     0.0209     0.0000     0.0000     0.0248     0.0000     0.0000     0.9752    
6664.0000  17.0775    8.4064     5.7295     4.3308     4.1533     8.5000     0.0015     8.5414     16.0922    20.6621    3.6853     0.0639     3.3900     0.1801     0.0960     0.0960     0.0990     0.0883     0.0802     0.0000     0.8463     2.6599     2.4693     0.0550     0.0802     0.0720     0.0000     0.0000     0.0781     0.0000     0.0000     0.9219    
6664.5000  14.4658    7.2279     5.0676     3.9069     3.7268     8.5000     0.0032     8.5305     18.8061    23.6695    4.3626     0.1158     0.9372     0.0608     0.0809     0.0809     0.0920     0.0860     0.0714     0.0000     0.7949     2.6680     2.4742     0.0564     0.0714     0.1305     0.0000     0.0000     0.1407     0.0000     0.0000     0.8593    
6665.0000  11.4865    6.3379     4.6085     3.6210     3.4548     8.5000     0.0037     8.5305     20.4536    26.1916    4.6435     0.1446     0.4481     0.0192     0.0694     0.0694     0.0877     0.0845     0.0662     0.0000     0.7672     2.6724     2.4921     0.0645     0.0662     0.1629     0.0000     0.0000     0.1741     0.0000     0.0000     0.8259    
6665.5000  9.2744     5.5647     4.1753     3.2972     3.1228     8.5000     0.0036     8.5196     24.4551    30.9074    5.4301     0.1569     0.4863     0.0082     0.0650     0.0650     0.0874     0.0918     0.0719     0.0000     0.7477     2.6744     2.5011     0.0836     0.0719     0.1768     0.0000     0.0000     0.1887     0.0000     0.0000     0.8113    
6666.0000  9.1138     5.2632     3.9707     3.1582     2.9611     8.5000     0.0030     8.5196     25.0389    31.4992    5.5832     0.1407     1.0366     0.0407     0.0830     0.0830     0.1006     0.1006     0.0828     0.0000     0.7557     2.6721     2.4976     0.0986     0.0828     0.1585     0.0000     0.0000     0.1704     0.0000     0.0000     0.8296    
6666.5000  10.0783    5.5164     4.0763     3.2010     2.9603     8.5000     0.0022     8.5341     23.2299    28.8091    5.2176     0.1144     2.6357     0.1215     0.0958     0.0958     0.1095     0.1095     0.0950     0.0000     0.7739     2.6681     2.4751     0.0976     0.0950     0.1289     0.0000     0.0000     0.1397     0.0000     0.0000     0.8603    
6667.0000  10.3360    5.7655     4.2225     3.2616     3.0007     8.5000     0.0023     8.5341     17.8603    21.9777    4.0052     0.0763     7.2550     0.2139     0.1031     0.1031     0.1140     0.1147     0.1050     0.0000     0.8068     2.6622     2.4511     0.0864     0.1050     0.0859     0.0000     0.0000     0.0926     0.0000     0.0036     0.9039    
6667.5000  9.9045     5.7544     4.1714     3.2363     2.9157     8.5000     0.0024     8.5269     14.3669    18.1422    3.2403     0.0508     12.1073    0.2217     0.1035     0.1035     0.1141     0.1135     0.1071     0.0000     0.8326     2.6581     2.4425     0.0765     0.1071     0.0573     0.0000     0.0000     0.0616     0.0000     0.0055     0.9329    
6668.0000  9.2435     5.4141     4.0375     3.1711     2.8538     8.5000     0.0037     8.5305     14.0883    18.3705    3.1793     0.0424     13.0034    0.1835     0.1000     0.1000     0.1118     0.1101     0.1047     0.0000     0.8398     2.6566     2.4459     0.0775     0.1047     0.0478     0.0000     0.0000     0.0520     0.0000     0.0074     0.9406    
6668.5000  8.5210     5.1550     3.9491     3.1345     2.8153     8.5000     0.0030     8.5305     16.5658    21.8870    3.7469     0.0398     13.1901    0.1322     0.0962     0.0962     0.1091     0.1082     0.1031     0.0000     0.8413     2.6558     2.4560     0.0734     0.1031     0.0449     0.0000     0.0000     0.0502     0.0000     0.0045     0.9453    
6669.0000  8.3332     5.0657     3.9232     3.1286     2.8187     8.5000     0.0030     8.5486     19.0470    24.7964    4.3182     0.0481     11.7058    0.1141     0.0960     0.0960     0.1090     0.1098     0.1038     0.0000     0.8312     2.6571     2.4520     0.0759     0.1038     0.0542     0.0000     0.0000     0.0598     0.0000     0.0048     0.9353    
6669.5000  8.4693     5.1079     3.9725     3.1908     2.8762     8.5000     0.0027     8.5414     19.8545    25.3716    4.6704     0.0552     11.3382    0.1380     0.0990     0.0990     0.1118     0.1138     0.1068     0.0000     0.8240     2.6585     2.4358     0.0803     0.1068     0.0621     0.0000     0.0000     0.0675     0.0000     0.0051     0.9273    
6670.0000  9.0946     5.3687     4.1736     3.3453     3.0227     8.5000     0.0017     8.5522     18.1079    23.5576    4.2146     0.0527     13.3226    0.1659     0.1017     0.1017     0.1140     0.1168     0.1102     0.0000     0.8249     2.6581     2.4257     0.0823     0.1102     0.0594     0.0000     0.0000     0.0641     0.0000     0.0036     0.9323    
6670.5000  10.3262    5.8755     4.5160     3.5993     3.2435     8.5000     0.0003     8.5414     16.1130    21.7221    3.6952     0.0418     15.7165    0.2318     0.1066     0.1066     0.1166     0.1143     0.1090     0.0000     0.8385     2.6562     2.4381     0.0750     0.1090     0.0471     0.0000     0.0000     0.0520     0.0000     0.0000     0.9480    
6671.0000  11.1028    6.2617     4.8040     3.8063     3.4606     8.5000     0.0004     8.5196     15.9656    21.8266    3.6723     0.0285     18.3979    0.2932     0.1069     0.1069     0.1156     0.1098     0.1062     0.0000     0.8514     2.6536     2.4558     0.0695     0.1062     0.0321     0.0000     0.0000     0.0355     0.0000     0.0000     0.9645    
6671.5000  10.8898    6.2225     4.8597     3.9269     3.5811     8.5000     0.0005     8.5414     15.7406    22.1648    3.5485     0.0253     17.3771    0.4445     0.1056     0.1056     0.1121     0.1061     0.1029     0.0000     0.8568     2.6530     2.4649     0.0719     0.1029     0.0285     0.0000     0.0000     0.0317     0.0000     0.0000     0.9683    
6672.0000  11.5422    6.5196     5.0631     4.0808     3.7491     8.5000     0.0006     8.5269     15.6580    22.3461    3.4336     0.0300     13.9828    0.7082     0.1024     0.1024     0.1080     0.1031     0.0993     0.0000     0.8554     2.6537     2.4600     0.0696     0.0993     0.0338     0.0000     0.0000     0.0376     0.0000     0.0000     0.9624    
6672.5000  14.1354    7.4697     5.6853     4.4810     4.1283     8.5000     0.0006     8.5124     14.5525    20.4676    3.1752     0.0341     10.9626    1.1272     0.0979     0.0979     0.1046     0.0993     0.0950     0.0000     0.8566     2.6545     2.4580     0.0642     0.0950     0.0384     0.0000     0.0000     0.0423     0.0000     0.0000     0.9577    
6673.0000  17.1708    8.5114     6.2672     4.8250     4.4485     8.5000     0.0006     8.5269     13.8897    19.2898    3.0158     0.0359     10.0335    1.5600     0.0928     0.0928     0.1012     0.0983     0.0938     0.0000     0.8576     2.6550     2.4589     0.0557     0.0938     0.0405     0.0000     0.0000     0.0444     0.0000     0.0000     0.9556    
