~Version
 VERS              .         2.0                           : CWLS LOG ASCII STANDARD - VERSION 2.0
 WRAP              .         NO                            : ONE LINE PER DEPTH STEP
 DLM               .         SPACE                         : DELIMITING CHARACTER(SPACE TAB OR COMMA)
~Well Information
#_______________________________________________________________________________
#
#PARAMETER_NAME    .UNIT     VALUE                         : DESCRIPTION
#_______________________________________________________________________________
STRT               .ft       4040.0000                     : First reference value
STOP               .ft       7050.0000                     : Last reference value
STEP               .ft       0.5000                        : Step increment
NULL               .         -999.25                       : Missing value
COMP               .         One Earth Energy              : Company
WELL               .         OEE #1                        : Well name
FLD                .         OEE                           : Field
LOC                .                                       : Location
PROV               .         Illinois                      : Province
SRVC               .         Schlumberger                  : Service Company
DATE               .         26-Dec-2021                   : Date
UWI                .         12-113-25373-00               : Unique Well ID
APD                .ft       15                            : Elevation of Depth Reference (LMF) Above Permanent Datum
API                .         12-113-25373-00               : API NUMBER
BHS                .         OPEN                          : Borehole Status (Open or Cased Hole)
BHT                .degF     93.71                         : Bottom Hole Temperature
BLI                .ft       4052                          : Bottom Log Interval
BS                 .in       12.25                         : Bit Size
CBDR               .ft       374                           : Casing Bottom of Driller
CBLO               .ft       374                           : Logger Casing Shoe Depth
CNTY               .         McLean                        : COUNTY
CSIZ               .in       13.375                        : Current Casing Size
CWEI               .lbm/ft   54.5                          : Casing Weight
CTRY               .         United States of America - US : Nation
DCS                .         23-Dec-2021                   : Date Circulation Stopped
DFD                .lbm/gal  9.25                          : Drilling Fluid Density
DFT                .         WATER                         : Drilling Fluid Type
DLAB               .         26-Dec-2021                   : Date Logger At Bottom
EDF                .ft       840.0001                      : Elevation of Drill Floor
EGL                .ft       826                           : Elevation of Ground Level
EKB                .ft       841                           : Elevation of Kelly Bushing
EPD                .ft       826                           : Elevation of Permanent Datum (PDAT) above Mean Sea Level
GDAT               .                                       : GeoDetic Datum
LMF                .         KB                            : Logging Measured From (Name of Logging Elevation Reference)
LUL                .         Bradford                      : Logging Unit Location
LUN                .         2266                          : Logging Unit Number
LATI               .         40.485663 degrees             : Latitude
LONG               .         -88.468241 degrees            : Longitude
MCST               .degF     67.9                          : Mudcake Sample Temperature
MFST               .degF     66.3                          : Mud Filtrate Sample Temperature
MRT                .degF     93.71                         : Maximum Recorded Temperature
MST                .degF     65.4                          : Mud Sample Temperature
ORIGINALWELLNAME   .         OEE #1                        : 
PDAT               .         GL                            : Permanent Datum
PRODUCER-CODE      .         440                           : 
PRODUCER-NAME      .         Schlumberger                  : 
RMB                .ohm.m    3.533802                      : Resistivity of Mud at Bottom Hole Temperature
RMCS               .ohm.m    6.12                          : Resistivity of Mud Cake Sample
RMFS               .ohm.m    3.85                          : Resistivity of Mud Filtrate Sample
RMS                .ohm.m    4.92                          : Resistivity of Mud Sample
RUN                .         1C                            : Run Number
STAT               .         Illinois                      : State or Province
TCS                .         23_45_00                      : Time Circulation Stopped
TDD                .ft       4052                          : Driller Total Depth
TDL                .ft       4052                          : Logger Total Depth
TLAB               .         02_57_00                      : Time Logger At Bottom
TLI                .ft       379                           : Top Log Interval
~Parameter Information Block
#_______________________________________________________________________________
#
#PARAMETER_NAME    .UNIT     VALUE                         : DESCRIPTION
#_______________________________________________________________________________
SET                .         LQC_MP_043_Deliverables       : 
TLFamily_AT10      .         Resistivity - Induction Array 10: 
TLFamily_AT20      .         Resistivity - Induction Array 20: 
TLFamily_AT30      .         Resistivity - Induction Array 30: 
TLFamily_AT60      .         Resistivity - Induction Array 60: 
TLFamily_AT90      .         Resistivity - Induction Array 90: 
TLFamily_BS        .         Bit Size                      : 
TLFamily_C44       .         Elastic Modulus               : 
TLFamily_C55       .         Elastic Modulus               : 
TLFamily_C66       .         Elastic Modulus               : 
TLFamily_DTCO_MF_DDBHC .         Compressional Slowness        : 
TLFamily_DTSH_FAST .         Fast Shear Slowness           : 
TLFamily_DTSH_SLOW .         Slow Shear Slowness           : 
TLFamily_DTSH_STRVP .         Stoneley Shear Slowness       : 
TLFamily_GAMMA     .         Regularization Factor         : 
TLFamily_GR_EDTC   .         Gamma Ray                     : 
TLFamily_HCAL      .         Caliper                       : 
TLFamily_ISHE      .         Shear Strength                : 
TLFamily_MD        .         Measured Depth                : 
TLFamily_PPGI_MP_TD .         Pore Pressure Gradient        : 
TLFamily_PPGI_PorePressure .         Pore Pressure Gradient        : 
TLFamily_PR_HH     .         Poisson Ratio (Dynamic)       : 
TLFamily_PR_VH     .         Poisson Ratio (Dynamic)       : 
TLFamily_RHOZ      .         Bulk Density                  : 
TLFamily_SDEVM     .         Sonde Deviation               : 
TLFamily_SLOANI    .         Acoustic Anisotropy           : 
TLFamily_SPHI      .         Total Porosity                : 
TLFamily_TENS      .         Tension                       : 
TLFamily_TNPH      .         Thermal Neutron Porosity      : 
TLFamily_TSTR      .         Tensile Strength              : 
TLFamily_TXSG_ANISO .         Minimum Horizontal Stress Gradient: 
TLFamily_TXSG_ISO  .         Minimum Horizontal Stress Gradient: 
TLFamily_TXSP_ANISO .         Minimum Horizontal Stress     : 
TLFamily_TZSG      .         Vertical Stress Gradient      : 
TLFamily_UCS       .         Compressive Strength          : 
TLFamily_YME_H_STA .         Young's Modulus (Dynamic)     : 
TLFamily_YME_V_STA .         Young's Modulus (Dynamic)     : 
~Curve Information
#_______________________________________________________________________________
#
#LOGNAME           .UNIT     LOG_ID                        : DESCRIPTION
#_______________________________________________________________________________
MD                 .ft                                     : Measured DEPTH 
AT10               .ohm.m                                  : Array Induction Two Foot Resistivity A10 
AT20               .ohm.m                                  : Array Induction Two Foot Resistivity A20 
AT30               .ohm.m                                  : Array Induction Two Foot Resistivity A30 
AT60               .ohm.m                                  : Array Induction Two Foot Resistivity A60 
AT90               .ohm.m                                  : Array Induction Two Foot Resistivity A90 
BS                 .in                                     : Bit Size 
C44                .Mpsi                                   : C44 Modulus 
C55                .Mpsi                                   : C55 Modulus 
C66                .Mpsi                                   : C66 Modulus 
DTCO_MF_DDBHC      .us/ft                                  : Compressional slowness 
DTSH_FAST          .us/ft                                  : Shear slowness 
DTSH_SLOW          .us/ft                                  : Shear slowness 
DTSH_STRVP         .us/ft                                  : Stoneley Shear Slowness 
GAMMA              .unitless                               : Thomsens Anisotropy Parameter Gamma 
GR_EDTC            .gAPI                                   : Gamma Ray 
HCAL               .in                                     : HRCC Caliper Calibrated 
ISHE               .psi                                    : Cohesive Strength 
PPGI_MP_TD         .psi/ft                                 : Pore Pressure Gradient 
PPGI_PorePressure  .psi/ft                                 : Pore Pressure Gradient from XRP
PR_HH              .unitless                               : Poissons Ratio - Loading Horizontal - Displacement Horizontal 
PR_VH              .unitless                               : Poissons Ratio - Loading Vertical - Displacement Horizontal 
RHOZ               .g/cm3                                  : Standard Resolution Formation Density 
SDEVM              .deg                                    : Memorized Sonde Deviation 
SLOANI             .%                                      : Slowness-based Anisotropy 
SPHI               .ft3/ft3                                : Total porosity from Sonic 
TENS               .lbf                                    : Cable Tension 
TNPH               .ft3/ft3                                : Thermal Neutron Porosity (Ratio Method) in Selected Lithology 
TSTR               .psi                                    : Tensile Strength 
TXSG_ANISO         .psi/ft                                 : Anisotropic Minimum Horizontal Stress Gradient 
TXSG_ISO           .psi/ft                                 : Isotropic Minimum Horizontal Stress Gradient 
TXSP_ANISO         .psi                                    : Anisotropic Minimum Horizontal Stress 
TZSG               .psi/ft                                 : Overburden Stress Gradient 
UCS                .psi                                    : Unconfined Compressive Strength 
YME_H_STA          .Mpsi                                   :  Static Horizontal Youngs Modulus 
YME_V_STA          .Mpsi                                   : Static Vertical Youngs Modulus 
~Ascii
# ...
6843.5000  8.0999     4.8372     4.2687     3.5646     3.6153     8.5000     2.7703     2.8094     2.6741     67.6999    108.8687   109.6348   111.5901   0.0000     40.6962    8.6791     1897.9152  0.4300     -999.2500  0.1797     0.1857     2.4712     1.3675     0.7012     0.1428     2768.2668  0.1529     767.3782   0.5516     0.5694     3774.5549  1.0500     9208.5381  5.0182     5.1862    
6844.0000  8.5097     5.1699     4.3931     3.6809     3.8877     8.5000     2.7697     2.8143     2.6380     67.7517    108.7529   109.6246   112.3273   -0.0238    41.9369    8.6646     1878.9854  0.4300     -999.2500  0.1772     0.1839     2.4703     1.3709     0.7984     0.1431     2778.7334  0.1420     755.6595   0.5481     0.5549     3750.9460  1.0500     9067.9141  4.9430     5.1314    
6844.5000  8.8989     5.5916     4.5540     3.7968     4.0910     8.5000     2.7720     2.8192     2.5858     67.8635    108.5329   109.4528   113.3261   -0.0336    43.7116    8.6791     1853.6918  0.4300     -999.2500  0.1731     0.1801     2.4646     1.3740     0.8440     0.1439     2752.0000  0.1401     744.3679   0.5432     0.5503     3717.8359  1.0500     8932.4141  4.9107     5.1080    
6845.0000  8.6324     5.8803     4.7120     3.8829     4.2570     8.5000     2.7487     2.7865     2.5284     68.4487    108.9830   109.7282   114.4084   -0.0401    40.7420    8.6573     1768.2758  0.4300     -999.2500  0.1696     0.1751     2.4562     1.3773     0.6814     0.1480     2727.2002  0.1399     710.8492   0.5386     0.5442     3686.6770  1.0500     8530.1904  4.8812     5.0386    
6845.5000  8.6332     5.9197     4.6305     3.8535     4.0506     8.5000     2.7098     2.7422     2.4875     68.9037    109.7568   110.4106   115.2403   -0.0410    35.3346    8.6573     1708.2090  0.4300     -999.2500  0.1707     0.1755     2.4516     1.3816     0.5939     0.1513     2738.8000  0.1419     690.0449   0.5396     0.5444     3693.3809  1.0500     8280.5391  4.8725     5.0094    
6846.0000  8.8001     5.7289     4.4582     3.7236     3.8129     8.5000     2.6886     2.7246     2.4748     68.9060    110.1121   110.8476   115.5357   -0.0398    32.9944    8.6501     1708.2017  0.4300     -999.2500  0.1735     0.1790     2.4517     1.3853     0.6658     0.1513     2732.6667  0.1442     692.4233   0.5429     0.5485     3716.6216  1.0500     8309.0791  4.8726     5.0266    
6846.5000  8.5761     5.6777     4.4447     3.7019     3.7516     8.5000     2.7103     2.7433     2.4878     68.6915    109.7637   110.4284   115.2610   -0.0410    39.6357    8.6718     1728.9628  0.4300     -999.2500  0.1739     0.1789     2.4529     1.3902     0.6038     0.1498     2714.1431  0.1482     701.7661   0.5439     0.5489     3723.1387  1.0500     8421.1934  4.9325     5.0738    
6847.0000  8.4257     5.5788     4.3855     3.6597     3.6642     8.5000     2.7794     2.8018     2.5229     68.1487    108.8040   109.2415   114.6616   -0.0462    47.3942    8.6718     1793.4427  0.4300     -999.2500  0.1744     0.1777     2.4616     1.3939     0.4014     0.1459     2728.0000  0.1471     728.8902   0.5457     0.5490     3735.9370  1.0500     8746.6816  5.0937     5.1904    
6847.5000  8.3510     5.3890     4.3398     3.6252     3.6065     8.5000     2.8717     2.8931     2.5678     66.9556    107.4624   107.8615   114.0655   -0.0529    53.0829    8.6827     1951.4828  0.4300     -999.2500  0.1801     0.1832     2.4795     1.3985     0.3708     0.1375     2710.3999  0.1431     798.1005   0.5548     0.5581     3798.6936  1.0500     9577.2051  5.3564     5.4507    
6848.0000  8.5433     5.4967     4.4343     3.7121     3.6586     8.5000     2.9505     2.9817     2.5993     65.8039    106.1517   106.7103   113.6919   -0.0595    52.1195    8.7153     2124.1074  0.4300     -999.2500  0.1841     0.1887     2.4935     1.4021     0.5249     0.1294     2719.3333  0.1370     869.4686   0.5615     0.5662     3844.6045  1.0500     10433.6240 5.5147     5.6531    
6848.5000  8.8171     5.6123     4.5334     3.7875     3.7451     8.5000     2.9639     3.0218     2.6096     65.8430    105.5321   106.5580   113.5611   -0.0598    50.0689    8.7081     2122.4150  0.4300     -999.2500  0.1745     0.1826     2.4976     1.4067     0.9674     0.1296     2731.5713  0.1319     864.7137   0.5501     0.5584     3766.6565  1.0500     10376.5645 5.3987     5.6481    
6849.0000  9.0403     5.7015     4.5804     3.8207     3.8072     8.5000     2.8823     2.9659     2.5986     66.9204    106.2750   107.8056   113.5379   -0.0492    47.8071    8.7008     1964.8895  0.4300     -999.2500  0.1621     0.1731     2.4861     1.4103     1.4299     0.1372     2724.8669  0.1333     794.7227   0.5334     0.5448     3653.1343  1.0500     9536.6729  5.0752     5.4207    
6849.5000  9.1721     5.8844     4.7143     3.8687     3.8583     8.5000     2.7821     2.8593     2.5843     68.2775    107.8516   109.3379   113.4446   -0.0355    43.0444    8.6936     1785.9674  0.4300     -999.2500  0.1569     0.1670     2.4683     1.4145     1.3687     0.1468     2730.8667  0.1317     718.2968   0.5250     0.5354     3595.7278  1.0500     8619.5615  4.8272     5.1399    
6850.0000  9.5642     5.9604     4.7549     3.8861     3.9654     8.5000     2.7490     2.8158     2.5917     68.5452    108.5862   109.8978   113.1845   -0.0286    42.6035    8.6827     1755.7322  0.4300     -999.2500  0.1610     0.1701     2.4640     1.4181     1.2007     0.1487     2708.9333  0.1326     707.1881   0.5292     0.5385     3624.3225  1.0500     8486.2578  4.8165     5.0905    
6850.5000  9.5376     6.0340     4.7768     3.9944     4.0977     8.5000     2.7825     2.8570     2.6220     67.7101    108.0874   109.5252   112.8280   -0.0288    46.5446    8.6718     1868.6592  0.4300     -999.2500  0.1681     0.1787     2.4772     1.4216     1.3214     0.1428     2711.2144  0.1358     757.3229   0.5388     0.5496     3690.5562  1.0500     9087.8750  4.9547     5.2675    
6851.0000  9.9157     5.8832     4.6841     3.9732     4.1467     8.5000     2.8694     2.9376     2.6508     67.0545    106.9348   108.1987   112.5720   -0.0381    51.1810    8.6863     1970.9224  0.4300     -999.2500  0.1680     0.1774     2.4930     1.4256     1.1750     0.1382     2799.0667  0.1382     796.5972   0.5399     0.5495     3698.3987  1.0500     9559.1660  5.0957     5.3810    
6851.5000  10.3658    5.6842     4.6131     3.8965     4.1032     8.5000     2.9152     2.9789     2.6484     67.0159    106.1521   107.3065   112.5819   -0.0458    51.2945    8.6718     1959.5626  0.4300     -999.2500  0.1616     0.1699     2.4912     1.4289     1.0816     0.1379     2791.7334  0.1427     791.0271   0.5330     0.5415     3651.1355  1.0500     9492.3252  5.1449     5.4081    
6852.0000  11.8133    5.9471     4.7537     3.9444     4.1950     8.5000     2.9152     2.9612     2.6247     67.0701    106.2635   107.0991   112.8689   -0.0498    45.3383    8.6791     1935.5601  0.4300     -999.2500  0.1637     0.1698     2.4816     1.4330     0.7832     0.1383     2732.0667  0.1408     782.6183   0.5354     0.5417     3668.2390  1.0500     9391.4199  5.2013     5.3934    
6852.5000  13.9232    6.3491     4.8943     3.9777     4.2534     8.5000     2.9121     2.9327     2.6043     66.8163    106.7584   107.1358   113.2890   -0.0528    42.8584    8.6718     1988.7830  0.4300     -999.2500  0.1755     0.1785     2.4806     1.4362     0.3529     0.1365     2718.0669  0.1352     801.6993   0.5485     0.5515     3758.5461  1.0500     9620.3916  5.2605     5.3483    
6853.0000  13.7529    6.2348     4.7621     3.8545     4.0922     8.5000     2.8953     2.9014     2.5895     66.8904    107.3538   107.4676   113.6352   -0.0528    40.1326    8.6501     1983.2205  0.4300     -999.2500  0.1819     0.1828     2.4816     1.4393     0.1059     0.1370     2726.2666  0.1305     802.5488   0.5560     0.5570     3810.1716  1.0500     9630.5859  5.3256     5.3523    
6853.5000  11.2037    5.7139     4.5524     3.6367     3.8247     8.5000     2.8221     2.8314     2.5832     67.5807    108.6262   108.8056   113.7242   -0.0423    38.6227    8.6610     1921.5167  0.4300     -999.2500  0.1831     0.1845     2.4795     1.4431     0.1650     0.1419     2721.2856  0.1373     770.1069   0.5550     0.5565     3803.5188  1.0500     9241.2832  5.0888     5.1287    
