~Version
 VERS              .         2.0                           : CWLS LOG ASCII STANDARD - VERSION 2.0
 WRAP              .         NO                            : ONE LINE PER DEPTH STEP
 DLM               .         SPACE                         : DELIMITING CHARACTER(SPACE TAB OR COMMA)
~Well Information
#_______________________________________________________________________________
#
#PARAMETER_NAME    .UNIT     VALUE                         : DESCRIPTION
#_______________________________________________________________________________
STRT               .ft       4040.0000                     : First reference value
STOP               .ft       7075.0000                     : Last reference value
STEP               .ft       0.5000                        : Step increment
NULL               .         -999.25                       : Missing value
COMP               .         One Earth Energy              : Company
WELL               .         OEE #1                        : Well name
FLD                .         OEE                           : Field
LOC                .                                       : Location
PROV               .         Illinois                      : Province
SRVC               .         Schlumberger                  : Service Company
DATE               .         26-Dec-2021                   : Date
UWI                .         12-113-25373-00               : Unique Well ID
APD                .ft       15                            : Elevation of Depth Reference (LMF) Above Permanent Datum
API                .         12-113-25373-00               : API NUMBER
BHS                .         OPEN                          : Borehole Status (Open or Cased Hole)
BHT                .degF     93.71                         : Bottom Hole Temperature
BLI                .ft       4052                          : Bottom Log Interval
BS                 .in       12.25                         : Bit Size
CBDR               .ft       374                           : Casing Bottom of Driller
CBLO               .ft       374                           : Logger Casing Shoe Depth
CNTY               .         McLean                        : COUNTY
CSIZ               .in       13.375                        : Current Casing Size
CWEI               .lbm/ft   54.5                          : Casing Weight
CTRY               .         United States of America - US : Nation
DCS                .         23-Dec-2021                   : Date Circulation Stopped
DFD                .lbm/gal  9.25                          : Drilling Fluid Density
DFT                .         WATER                         : Drilling Fluid Type
DLAB               .         26-Dec-2021                   : Date Logger At Bottom
EDF                .ft       840.0001                      : Elevation of Drill Floor
EGL                .ft       826                           : Elevation of Ground Level
EKB                .ft       841                           : Elevation of Kelly Bushing
EPD                .ft       826                           : Elevation of Permanent Datum (PDAT) above Mean Sea Level
GDAT               .                                       : GeoDetic Datum
LMF                .         KB                            : Logging Measured From (Name of Logging Elevation Reference)
LUL                .         Bradford                      : Logging Unit Location
LUN                .         2266                          : Logging Unit Number
LATI               .         40.485663 degrees             : Latitude
LONG               .         -88.468241 degrees            : Longitude
MCST               .degF     67.9                          : Mudcake Sample Temperature
MFST               .degF     66.3                          : Mud Filtrate Sample Temperature
MRT                .degF     93.71                         : Maximum Recorded Temperature
MST                .degF     65.4                          : Mud Sample Temperature
ORIGINALWELLNAME   .         OEE #1                        : 
PDAT               .         GL                            : Permanent Datum
PRODUCER-CODE      .         440                           : 
PRODUCER-NAME      .         Schlumberger                  : 
RMB                .ohm.m    3.533802                      : Resistivity of Mud at Bottom Hole Temperature
RMCS               .ohm.m    6.12                          : Resistivity of Mud Cake Sample
RMFS               .ohm.m    3.85                          : Resistivity of Mud Filtrate Sample
RMS                .ohm.m    4.92                          : Resistivity of Mud Sample
RUN                .         1C                            : Run Number
STAT               .         Illinois                      : State or Province
TCS                .         23_45_00                      : Time Circulation Stopped
TDD                .ft       4052                          : Driller Total Depth
TDL                .ft       4052                          : Logger Total Depth
TLAB               .         02_57_00                      : Time Logger At Bottom
TLI                .ft       379                           : Top Log Interval
~Parameter Information Block
#_______________________________________________________________________________
#
#PARAMETER_NAME    .UNIT     VALUE                         : DESCRIPTION
#_______________________________________________________________________________
SET                .         LQC                           : 
TLFamily_AT10      .         Resistivity - Induction Array 10: 
TLFamily_AT20      .         Resistivity - Induction Array 20: 
TLFamily_AT30      .         Resistivity - Induction Array 30: 
TLFamily_AT60      .         Resistivity - Induction Array 60: 
TLFamily_AT90      .         Resistivity - Induction Array 90: 
TLFamily_BS        .         Bit Size                      : 
TLFamily_Calcite_QE .        Calcite Volume Fraction       : 
TLFamily_HCAL      .         Caliper                       : 
TLFamily_HCGR      .         Gamma Ray Minus Uranium       : 
TLFamily_HSGR      .         Gamma Ray                     : 
TLFamily_HTHO      .         Thorium Concentration         : 
TLFamily_Illite_QE .         Illite Volume Fraction        : 
TLFamily_KINT_GEO_QE .       Permeability                  : 
TLFamily_KSDR_CMR  .         NMR Permeability              : 
TLFamily_MD        .         Measured Depth                : 
TLFamily_MRP_CMR   .         NMR Porosity                  : 
TLFamily_MRP_CMR_Edited .    NMR Porosity                  : 
TLFamily_MRP_CMR_Edited_REC_QE .NMR Porosity               : 
TLFamily_PHIT_QE   .         Total Porosity                : 
TLFamily_PIGN_QE   .         Effective Porosity            : 
TLFamily_Pyrite_QE .         Pyrite Volume Fraction        : 
TLFamily_Quartz_QE .         Quartz Volume Fraction        : 
TLFamily_RHGA_GEO_QE .       Grain Density                 : 
TLFamily_RHOZ      .         Bulk Density                  : 
TLFamily_TNPH_LIM  .         Thermal Neutron Porosity Limestone: 
TLFamily_UWater_QE .         Undisturbed Zone Water Volume Fraction: 
TLFamily_VCL_GEO_QE .        Clay Volume Fraction          : 
TLFamily_WANH_WALK2 .        Anhydrite Weight Fraction     : 
TLFamily_WCAR_WALK2 .        Carbonate Weight Fraction     : 
TLFamily_WCLA_WALK2 .        Clay Weight Fraction          : 
TLFamily_WCOA_WALK2 .        Coal Weight Fraction          : 
TLFamily_WPYR_WALK2 .        Pyrite Weight Fraction        : 
TLFamily_WQFM_WALK2 .        Quartz-Feldspar-Mica Weight Fraction: 
~Curve Information
#_______________________________________________________________________________
#
#LOGNAME           .UNIT     LOG_ID                        : DESCRIPTION
#_______________________________________________________________________________
MD                 .ft                                     : Measured DEPTH 
AT10               .ohm.m                                  : Array Induction Two Foot Resistivity A10 
AT20               .ohm.m                                  : Array Induction Two Foot Resistivity A20 
AT30               .ohm.m                                  : Array Induction Two Foot Resistivity A30 
AT60               .ohm.m                                  : Array Induction Two Foot Resistivity A60 
AT90               .ohm.m                                  : Array Induction Two Foot Resistivity A90 
BS                 .in                                     : Bit Size 
Calcite_QE         .v/v                                    : Calcite Volume Fraction 
HCAL               .in                                     : HRCC Caliper Calibrated 
HCGR               .gAPI                                   : HNGS Computed Gamma Ray 
HSGR               .gAPI                                   : HNGS Standard Gamma-Ray 
HTHO               .ppm                                    : HNGS Formation Thorium Concentration 
Illite_QE          .v/v                                    : Illite Volume Fraction 
KINT_GEO_QE        .mD                                     : Permeability (Juhasz 1979) 
KSDR_CMR           .mD                                     : SDR Permeability 
MRP_CMR            .ft3/ft3                                : Magnetic Resonance Porosity 
MRP_CMR_Edited     .ft3/ft3                                : Magnetic Resonance Porosity 
MRP_CMR_Edited_REC_QE .ft3/ft3                             : Quanti.Elan Reconstructed curve 
PHIT_QE            .v/v                                    : Total Porosity 
PIGN_QE            .v/v                                    : Effective porosity (with irreducible water) 
Pyrite_QE          .v/v                                    : Pyrite Volume Fraction 
Quartz_QE          .v/v                                    : Quartz Volume Fraction 
RHGA_GEO_QE        .g/cm3                                  : Apparent grain density 
RHOZ               .g/cm3                                  : Standard Resolution Formation Density 
TNPH_LIM           .ft3/ft3                                : Thermal Neutron Porosity (matrix Limestone) 
UWater_QE          .v/v                                    : Undisturbed Zone Water Volume Fraction 
VCL_GEO_QE         .v/v                                    : Clay fraction 
WANH_WALK2         .lbm/lbm                                : Dry Weight Fraction Anhydrite/Gypsum 
WCAR_WALK2         .lbm/lbm                                : Dry Weight Fraction Carbonate 
WCLA_WALK2         .lbm/lbm                                : Dry Weight Fraction Clay 
WCOA_WALK2         .lbm/lbm                                : Dry Weight Fraction Coal 
WPYR_WALK2         .lbm/lbm                                : Dry Weight Fraction Pyrite from WALK2 Model 
WQFM_WALK2         .lbm/lbm                                : Dry Weight Fraction Quartz+Feldspar+Mica (QFM) 
~Ascii
# ...
5857.0000  36.8071    22.4191    14.3020    8.5445     7.1637     8.5000     0.0001     8.9183     19.6148    20.8468    3.4547     0.0269     11.6397    1.2323     0.0865     0.0865     0.0879     0.0942     0.0908     0.0000     0.8507     2.6517     2.4925     0.0317     0.0799     0.0303     0.0000     0.0000     0.0324     0.0000     0.0000     0.9676    
5857.5000  34.1629    21.0606    13.6047    8.1940     6.8047     8.5000     0.0002     8.8893     20.3881    21.6581    3.6433     0.0339     12.1327    1.1654     0.0907     0.0907     0.0921     0.0993     0.0950     0.0000     0.8404     2.6529     2.4870     0.0334     0.0811     0.0382     0.0000     0.0000     0.0406     0.0000     0.0005     0.9589    
5858.0000  31.9698    19.9822    13.0471    7.9085     6.5186     8.5000     0.0003     8.9002     19.2452    20.6562    3.5038     0.0392     11.4103    1.1320     0.0956     0.0956     0.0968     0.1016     0.0966     0.0002     0.8374     2.6548     2.4873     0.0369     0.0826     0.0442     0.0000     0.0000     0.0466     0.0000     0.0015     0.9518    
5858.5000  30.6398    19.2580    12.6838    7.6921     6.3005     8.5000     0.0006     8.8966     18.8581    20.1890    3.5020     0.0414     11.2676    1.2184     0.0996     0.0996     0.1005     0.1033     0.0981     0.0008     0.8349     2.6568     2.4817     0.0388     0.0838     0.0467     0.0000     0.0000     0.0490     0.0000     0.0037     0.9473    
5859.0000  29.8675    18.4752    12.3339    7.5267     6.1468     8.5000     0.0008     8.9002     17.7085    19.4983    3.2255     0.0348     12.9145    1.3728     0.1015     0.1015     0.1025     0.1035     0.0990     0.0014     0.8393     2.6572     2.4801     0.0409     0.0847     0.0393     0.0000     0.0000     0.0412     0.0000     0.0054     0.9534    
5859.5000  29.2754    17.6813    12.0278    7.3812     6.0204     8.5000     0.0008     8.8821     17.4179    19.7624    3.1021     0.0259     15.6817    1.5896     0.1019     0.1019     0.1034     0.1025     0.0992     0.0008     0.8463     2.6540     2.4794     0.0413     0.0854     0.0292     0.0000     0.0000     0.0306     0.0000     0.0041     0.9654    
5860.0000  29.7080    17.1534    11.8378    7.2833     5.9434     8.5000     0.0002     8.8821     17.0653    19.3282    2.9806     0.0127     21.2184    1.9197     0.1014     0.1014     0.1030     0.1015     0.0999     0.0000     0.8569     2.6495     2.4773     0.0376     0.0853     0.0144     0.0000     0.0000     0.0155     0.0000     0.0006     0.9839    
5860.5000  29.9714    17.1051    11.8672    7.2824     5.9024     8.5000     0.0001     8.8676     17.1378    19.3771    2.9251     0.0129     19.7077    2.3822     0.1005     0.1005     0.1020     0.0995     0.0979     0.0000     0.8577     2.6494     2.4783     0.0364     0.0861     0.0146     0.0000     0.0000     0.0160     0.0000     0.0000     0.9840    
5861.0000  30.0220    17.2163    11.9974    7.2888     5.9344     8.5000     0.0001     8.8676     16.3293    19.0058    2.7630     0.0189     18.4400    3.0707     0.0988     0.0988     0.1005     0.1016     0.0992     0.0000     0.8531     2.6506     2.4760     0.0368     0.0858     0.0213     0.0000     0.0000     0.0231     0.0000     0.0000     0.9769    
5861.5000  30.3392    17.2600    11.9216    7.2447     5.9014     8.5000     0.0009     8.8531     16.0061    18.4496    2.6739     0.0294     14.4063    3.5574     0.0987     0.0987     0.1006     0.1022     0.0984     0.0003     0.8448     2.6535     2.4779     0.0406     0.0866     0.0332     0.0000     0.0000     0.0347     0.0000     0.0036     0.9617    
5862.0000  30.0574    17.2620    11.9467    7.2343     5.8914     8.5000     0.0013     8.8676     16.3720    18.6249    2.7173     0.0381     10.9155    3.4234     0.1000     0.1000     0.1019     0.0999     0.0951     0.0000     0.8401     2.6542     2.4706     0.0385     0.0879     0.0429     0.0000     0.0000     0.0448     0.0000     0.0041     0.9512    
5862.5000  29.4368    17.4198    11.9558    7.2201     5.8747     8.5000     0.0020     8.8603     16.3947    18.4398    2.7491     0.0440     7.4677     2.8925     0.0983     0.0983     0.1011     0.0942     0.0886     0.0000     0.8412     2.6553     2.4727     0.0351     0.0886     0.0496     0.0000     0.0000     0.0512     0.0000     0.0060     0.9428    
5863.0000  28.8247    17.4263    11.8805    7.2052     5.8417     8.5000     0.0019     8.8458     17.0695    19.2983    2.8210     0.0449     7.1665     2.1510     0.0924     0.0924     0.0970     0.0934     0.0877     0.0000     0.8397     2.6553     2.4762     0.0321     0.0877     0.0506     0.0000     0.0000     0.0526     0.0000     0.0052     0.9422    
5863.5000  28.4453    17.4684    11.8822    7.1954     5.8175     8.5000     0.0015     8.8603     17.3904    19.2998    2.7430     0.0404     8.4541     1.4009     0.0881     0.0881     0.0938     0.0944     0.0893     0.0000     0.8398     2.6542     2.4854     0.0321     0.0893     0.0455     0.0000     0.0000     0.0474     0.0000     0.0045     0.9481    
5864.0000  28.8013    17.5313    11.8409    7.1907     5.7989     8.5000     0.0001     8.8567     16.9978    19.4942    2.6259     0.0312     13.3043    0.9404     0.0893     0.0893     0.0939     0.1001     0.0961     0.0000     0.8421     2.6525     2.4803     0.0336     0.0880     0.0351     0.0000     0.0000     0.0378     0.0000     0.0000     0.9622    
5864.5000  29.1963    17.4884    11.8379    7.1947     5.7908     8.5000     0.0001     8.8458     17.9428    20.2215    2.8266     0.0303     17.8223    0.8021     0.0945     0.0945     0.0973     0.1071     0.1033     0.0000     0.8346     2.6523     2.4717     0.0365     0.0862     0.0342     0.0000     0.0000     0.0370     0.0000     0.0000     0.9630    
5865.0000  30.1712    17.5403    11.9091    7.2290     5.8036     8.5000     0.0000     8.8458     17.6028    19.5389    2.7685     0.0365     17.2468    0.8082     0.1020     0.1020     0.1036     0.1104     0.1058     0.0000     0.8281     2.6535     2.4667     0.0392     0.0857     0.0411     0.0000     0.0000     0.0444     0.0000     0.0000     0.9556    
5865.5000  31.2554    17.7163    12.0149    7.2556     5.8202     8.5000     0.0001     8.8241     17.9020    19.9701    2.8921     0.0432     13.0832    0.8753     0.1076     0.1076     0.1088     0.1072     0.1017     0.0000     0.8273     2.6548     2.4737     0.0409     0.0865     0.0487     0.0000     0.0000     0.0522     0.0000     0.0000     0.9478    
5866.0000  32.3602    17.7382    12.1317    7.2800     5.8314     8.5000     0.0003     8.8458     16.4035    18.6248    2.6967     0.0438     10.8928    0.9836     0.1076     0.1076     0.1088     0.1033     0.0977     0.0000     0.8342     2.6552     2.4800     0.0400     0.0875     0.0494     0.0000     0.0000     0.0524     0.0000     0.0007     0.9470    
5866.5000  33.5663    17.9885    12.2313    7.2875     5.8249     8.5000     0.0001     8.8132     16.2521    18.6010    2.6992     0.0354     11.6192    1.1819     0.1038     0.1038     0.1052     0.0998     0.0953     0.0000     0.8440     2.6537     2.4851     0.0358     0.0880     0.0399     0.0000     0.0000     0.0425     0.0000     0.0000     0.9575    
5867.0000  33.9741    18.0305    12.2796    7.2707     5.7946     8.5000     0.0001     8.8132     15.1576    17.6071    2.4155     0.0282     12.8832    1.4688     0.0999     0.0999     0.1015     0.0982     0.0946     0.0000     0.8508     2.6524     2.4828     0.0347     0.0883     0.0318     0.0000     0.0000     0.0341     0.0000     0.0000     0.9659    
5867.5000  33.9705    18.0186    12.2512    7.2151     5.7181     8.5000     0.0001     8.8023     14.6731    17.1566    2.3914     0.0262     13.0791    1.8071     0.0970     0.0970     0.0990     0.0976     0.0942     0.0000     0.8544     2.6521     2.4801     0.0361     0.0890     0.0295     0.0000     0.0000     0.0318     0.0000     0.0000     0.9682    
5868.0000  33.5017    17.8680    12.1355    7.1274     5.6225     8.5000     0.0009     8.7951     13.9819    16.5054    2.2855     0.0315     11.6400    2.2833     0.0954     0.0954     0.0979     0.0981     0.0941     0.0000     0.8511     2.6533     2.4768     0.0388     0.0901     0.0355     0.0000     0.0000     0.0373     0.0000     0.0024     0.9603    
