~Version
 VERS              .         2.0                           : CWLS LOG ASCII STANDARD - VERSION 2.0
 WRAP              .         NO                            : ONE LINE PER DEPTH STEP
 DLM               .         SPACE                         : DELIMITING CHARACTER(SPACE TAB OR COMMA)
~Well Information
#_______________________________________________________________________________
#
#PARAMETER_NAME    .UNIT     VALUE                         : DESCRIPTION
#_______________________________________________________________________________
STRT               .ft       4040.0000                     : First reference value
STOP               .ft       7075.0000                     : Last reference value
STEP               .ft       0.5000                        : Step increment
NULL               .         -999.25                       : Missing value
COMP               .         One Earth Energy              : Company
WELL               .         OEE #1                        : Well name
FLD                .         OEE                           : Field
LOC                .                                       : Location
PROV               .         Illinois                      : Province
SRVC               .         Schlumberger                  : Service Company
DATE               .         26-Dec-2021                   : Date
UWI                .         12-113-25373-00               : Unique Well ID
APD                .ft       15                            : Elevation of Depth Reference (LMF) Above Permanent Datum
API                .         12-113-25373-00               : API NUMBER
BHS                .         OPEN                          : Borehole Status (Open or Cased Hole)
BHT                .degF     93.71                         : Bottom Hole Temperature
BLI                .ft       4052                          : Bottom Log Interval
BS                 .in       12.25                         : Bit Size
CBDR               .ft       374                           : Casing Bottom of Driller
CBLO               .ft       374                           : Logger Casing Shoe Depth
CNTY               .         McLean                        : COUNTY
CSIZ               .in       13.375                        : Current Casing Size
CWEI               .lbm/ft   54.5                          : Casing Weight
CTRY               .         United States of America - US : Nation
DCS                .         23-Dec-2021                   : Date Circulation Stopped
DFD                .lbm/gal  9.25                          : Drilling Fluid Density
DFT                .         WATER                         : Drilling Fluid Type
DLAB               .         26-Dec-2021                   : Date Logger At Bottom
EDF                .ft       840.0001                      : Elevation of Drill Floor
EGL                .ft       826                           : Elevation of Ground Level
EKB                .ft       841                           : Elevation of Kelly Bushing
EPD                .ft       826                           : Elevation of Permanent Datum (PDAT) above Mean Sea Level
GDAT               .                                       : GeoDetic Datum
LMF                .         KB                            : Logging Measured From (Name of Logging Elevation Reference)
LUL                .         Bradford                      : Logging Unit Location
LUN                .         2266                          : Logging Unit Number
LATI               .         40.485663 degrees             : Latitude
LONG               .         -88.468241 degrees            : Longitude
MCST               .degF     67.9                          : Mudcake Sample Temperature
MFST               .degF     66.3                          : Mud Filtrate Sample Temperature
MRT                .degF     93.71                         : Maximum Recorded Temperature
MST                .degF     65.4                          : Mud Sample Temperature
ORIGINALWELLNAME   .         OEE #1                        : 
PDAT               .         GL                            : Permanent Datum
PRODUCER-CODE      .         440                           : 
PRODUCER-NAME      .         Schlumberger                  : 
RMB                .ohm.m    3.533802                      : Resistivity of Mud at Bottom Hole Temperature
RMCS               .ohm.m    6.12                          : Resistivity of Mud Cake Sample
RMFS               .ohm.m    3.85                          : Resistivity of Mud Filtrate Sample
RMS                .ohm.m    4.92                          : Resistivity of Mud Sample
RUN                .         1C                            : Run Number
STAT               .         Illinois                      : State or Province
TCS                .         23_45_00                      : Time Circulation Stopped
TDD                .ft       4052                          : Driller Total Depth
TDL                .ft       4052                          : Logger Total Depth
TLAB               .         02_57_00                      : Time Logger At Bottom
TLI                .ft       379                           : Top Log Interval
~Parameter Information Block
#_______________________________________________________________________________
#
#PARAMETER_NAME    .UNIT     VALUE                         : DESCRIPTION
#_______________________________________________________________________________
SET                .         LQC                           : 
TLFamily_AT10      .         Resistivity - Induction Array 10: 
TLFamily_AT20      .         Resistivity - Induction Array 20: 
TLFamily_AT30      .         Resistivity - Induction Array 30: 
TLFamily_AT60      .         Resistivity - Induction Array 60: 
TLFamily_AT90      .         Resistivity - Induction Array 90: 
TLFamily_BS        .         Bit Size                      : 
TLFamily_Calcite_QE .        Calcite Volume Fraction       : 
TLFamily_HCAL      .         Caliper                       : 
TLFamily_HCGR      .         Gamma Ray Minus Uranium       : 
TLFamily_HSGR      .         Gamma Ray                     : 
TLFamily_HTHO      .         Thorium Concentration         : 
TLFamily_Illite_QE .         Illite Volume Fraction        : 
TLFamily_KINT_GEO_QE .       Permeability                  : 
TLFamily_KSDR_CMR  .         NMR Permeability              : 
TLFamily_MD        .         Measured Depth                : 
TLFamily_MRP_CMR   .         NMR Porosity                  : 
TLFamily_MRP_CMR_Edited .    NMR Porosity                  : 
TLFamily_MRP_CMR_Edited_REC_QE .NMR Porosity               : 
TLFamily_PHIT_QE   .         Total Porosity                : 
TLFamily_PIGN_QE   .         Effective Porosity            : 
TLFamily_Pyrite_QE .         Pyrite Volume Fraction        : 
TLFamily_Quartz_QE .         Quartz Volume Fraction        : 
TLFamily_RHGA_GEO_QE .       Grain Density                 : 
TLFamily_RHOZ      .         Bulk Density                  : 
TLFamily_TNPH_LIM  .         Thermal Neutron Porosity Limestone: 
TLFamily_UWater_QE .         Undisturbed Zone Water Volume Fraction: 
TLFamily_VCL_GEO_QE .        Clay Volume Fraction          : 
TLFamily_WANH_WALK2 .        Anhydrite Weight Fraction     : 
TLFamily_WCAR_WALK2 .        Carbonate Weight Fraction     : 
TLFamily_WCLA_WALK2 .        Clay Weight Fraction          : 
TLFamily_WCOA_WALK2 .        Coal Weight Fraction          : 
TLFamily_WPYR_WALK2 .        Pyrite Weight Fraction        : 
TLFamily_WQFM_WALK2 .        Quartz-Feldspar-Mica Weight Fraction: 
~Curve Information
#_______________________________________________________________________________
#
#LOGNAME           .UNIT     LOG_ID                        : DESCRIPTION
#_______________________________________________________________________________
MD                 .ft                                     : Measured DEPTH 
AT10               .ohm.m                                  : Array Induction Two Foot Resistivity A10 
AT20               .ohm.m                                  : Array Induction Two Foot Resistivity A20 
AT30               .ohm.m                                  : Array Induction Two Foot Resistivity A30 
AT60               .ohm.m                                  : Array Induction Two Foot Resistivity A60 
AT90               .ohm.m                                  : Array Induction Two Foot Resistivity A90 
BS                 .in                                     : Bit Size 
Calcite_QE         .v/v                                    : Calcite Volume Fraction 
HCAL               .in                                     : HRCC Caliper Calibrated 
HCGR               .gAPI                                   : HNGS Computed Gamma Ray 
HSGR               .gAPI                                   : HNGS Standard Gamma-Ray 
HTHO               .ppm                                    : HNGS Formation Thorium Concentration 
Illite_QE          .v/v                                    : Illite Volume Fraction 
KINT_GEO_QE        .mD                                     : Permeability (Juhasz 1979) 
KSDR_CMR           .mD                                     : SDR Permeability 
MRP_CMR            .ft3/ft3                                : Magnetic Resonance Porosity 
MRP_CMR_Edited     .ft3/ft3                                : Magnetic Resonance Porosity 
MRP_CMR_Edited_REC_QE .ft3/ft3                             : Quanti.Elan Reconstructed curve 
PHIT_QE            .v/v                                    : Total Porosity 
PIGN_QE            .v/v                                    : Effective porosity (with irreducible water) 
Pyrite_QE          .v/v                                    : Pyrite Volume Fraction 
Quartz_QE          .v/v                                    : Quartz Volume Fraction 
RHGA_GEO_QE        .g/cm3                                  : Apparent grain density 
RHOZ               .g/cm3                                  : Standard Resolution Formation Density 
TNPH_LIM           .ft3/ft3                                : Thermal Neutron Porosity (matrix Limestone) 
UWater_QE          .v/v                                    : Undisturbed Zone Water Volume Fraction 
VCL_GEO_QE         .v/v                                    : Clay fraction 
WANH_WALK2         .lbm/lbm                                : Dry Weight Fraction Anhydrite/Gypsum 
WCAR_WALK2         .lbm/lbm                                : Dry Weight Fraction Carbonate 
WCLA_WALK2         .lbm/lbm                                : Dry Weight Fraction Clay 
WCOA_WALK2         .lbm/lbm                                : Dry Weight Fraction Coal 
WPYR_WALK2         .lbm/lbm                                : Dry Weight Fraction Pyrite from WALK2 Model 
WQFM_WALK2         .lbm/lbm                                : Dry Weight Fraction Quartz+Feldspar+Mica (QFM) 
~Ascii
# ...
6857.5000  10.0221    4.9810     3.6871     2.7881     2.5418     8.5000     0.0028     8.5631     19.6615    26.1177    4.6472     0.0272     22.3660    0.1619     0.1010     0.1010     0.1144     0.1144     0.1110     0.0000     0.8418     2.6532     2.4303     0.0913     0.1110     0.0307     0.0000     0.0000     0.0359     0.0000     0.0041     0.9600    
6858.0000  9.3727     4.8779     3.6513     2.7717     2.5108     8.5000     0.0028     8.5486     18.4134    24.1890    4.3389     0.0272     22.8561    0.1710     0.1011     0.1011     0.1153     0.1153     0.1118     0.0000     0.8420     2.6534     2.4226     0.0898     0.1118     0.0307     0.0000     0.0000     0.0362     0.0000     0.0042     0.9596    
6858.5000  9.1776     4.8018     3.6305     2.7600     2.4891     8.5000     0.0039     8.5486     18.4180    24.4649    4.2416     0.0431     16.6052    0.1745     0.1002     0.1002     0.1168     0.1168     0.1113     0.0000     0.8274     2.6563     2.4105     0.0952     0.1113     0.0486     0.0000     0.0000     0.0543     0.0000     0.0075     0.9383    
6859.0000  9.4579     4.8608     3.6947     2.8023     2.5243     8.5000     0.0047     8.5522     17.9708    23.8038    4.0505     0.0557     12.6290    0.1776     0.0998     0.0998     0.1175     0.1175     0.1105     0.0000     0.8167     2.6587     2.4040     0.0996     0.1105     0.0628     0.0000     0.0000     0.0681     0.0000     0.0106     0.9212    
6859.5000  9.7503     4.9630     3.7895     2.8687     2.5835     8.5000     0.0043     8.5414     17.8611    23.2529    4.1283     0.0645     9.8269     0.1654     0.0980     0.0980     0.1164     0.1164     0.1083     0.0000     0.8142     2.6605     2.4022     0.1036     0.1083     0.0727     0.0000     0.0000     0.0782     0.0000     0.0101     0.9118    
6860.0000  10.6932    5.1367     3.9319     2.9658     2.6531     8.5000     0.0041     8.5631     16.9635    23.5722    3.9952     0.0589     8.7305     0.1151     0.0887     0.0887     0.1095     0.1095     0.1020     0.0000     0.8270     2.6595     2.4113     0.0967     0.1020     0.0663     0.0000     0.0000     0.0725     0.0000     0.0081     0.9194    
6860.5000  11.5492    5.2527     3.9950     3.0198     2.7405     8.5000     0.0034     8.5486     19.1500    25.9810    4.4959     0.0509     8.3717     0.0786     0.0810     0.0810     0.1027     0.1027     0.0963     0.0000     0.8368     2.6576     2.4296     0.0856     0.0963     0.0574     0.0000     0.0000     0.0653     0.0000     0.0035     0.9312    
6861.0000  11.1228    5.3096     4.0760     3.0777     2.8157     8.5000     0.0029     8.5631     23.8910    32.2093    5.5835     0.0447     8.1046     0.0860     0.0768     0.0768     0.0973     0.0973     0.0917     0.0000     0.8416     2.6559     2.4574     0.0736     0.0917     0.0504     0.0000     0.0000     0.0589     0.0000     0.0013     0.9399    
6861.5000  11.0423    5.4438     4.1464     3.1335     2.9076     8.5000     0.0022     8.5414     26.0422    35.4041    6.1609     0.0501     7.5875     0.1155     0.0796     0.0796     0.0988     0.0988     0.0925     0.0000     0.8373     2.6569     2.4595     0.0721     0.0925     0.0565     0.0000     0.0000     0.0642     0.0000     0.0006     0.9351    
6862.0000  10.7469    5.5260     4.2064     3.2059     2.9894     8.5000     0.0032     8.5559     25.0002    34.2702    6.0301     0.0628     6.9905     0.1470     0.0873     0.0873     0.1048     0.1048     0.0968     0.0000     0.8232     2.6595     2.4424     0.0724     0.0968     0.0708     0.0000     0.0000     0.0775     0.0000     0.0047     0.9178    
6862.5000  11.0678    5.7394     4.3425     3.3246     3.1084     8.5000     0.0034     8.5559     21.7913    30.0802    5.3323     0.0649     7.4339     0.1393     0.0924     0.0924     0.1086     0.1086     0.1003     0.0000     0.8226     2.6604     2.4246     0.0740     0.1003     0.0732     0.0000     0.0000     0.0782     0.0000     0.0076     0.9141    
6863.0000  12.1044    5.8838     4.3899     3.3719     3.1953     8.5000     0.0042     8.5414     21.0520    28.1791    5.2569     0.0635     7.3686     0.0958     0.0919     0.0919     0.1077     0.1077     0.0996     0.0000     0.8246     2.6602     2.4269     0.0721     0.0996     0.0716     0.0000     0.0000     0.0758     0.0000     0.0096     0.9146    
6863.5000  13.1448    6.0839     4.5998     3.4618     3.3289     8.5000     0.0031     8.5631     21.3861    28.2863    5.3099     0.0519     9.2764     0.0851     0.0926     0.0926     0.1064     0.1064     0.0998     0.0000     0.8352     2.6580     2.4356     0.0706     0.0998     0.0585     0.0000     0.0000     0.0636     0.0000     0.0061     0.9303    
6864.0000  14.2825    6.1696     4.6863     3.5634     3.4409     8.5000     0.0015     8.5740     20.7599    27.1852    5.2007     0.0521     9.2547     0.0993     0.0949     0.0949     0.1065     0.1065     0.0999     0.0000     0.8386     2.6582     2.4432     0.0694     0.0999     0.0587     0.0000     0.0000     0.0634     0.0000     0.0034     0.9331    
6864.5000  14.5751    5.8801     4.5632     3.4885     3.3899     8.5000     0.0014     8.5740     22.6098    29.4284    5.6744     0.0467     11.2060    0.1443     0.0980     0.0980     0.1079     0.1079     0.1020     0.0000     0.8387     2.6569     2.4508     0.0676     0.1020     0.0527     0.0000     0.0000     0.0577     0.0000     0.0014     0.9409    
6865.0000  13.1972    5.6236     4.3767     3.3842     3.2961     8.5000     0.0015     8.5849     24.8058    32.1481    6.2010     0.0410     13.3236    0.2321     0.0997     0.0997     0.1086     0.1086     0.1034     0.0000     0.8393     2.6557     2.4561     0.0654     0.1034     0.0462     0.0000     0.0000     0.0509     0.0000     0.0019     0.9472    
6865.5000  11.8081    5.2778     4.1136     3.1771     3.0923     8.5000     0.0023     8.6066     31.3512    39.9888    7.6869     0.0327     16.3021    0.2818     0.0981     0.0981     0.1077     0.1077     0.1035     0.0000     0.8368     2.6534     2.4616     0.0627     0.1035     0.0368     0.0000     0.0000     0.0413     0.0000     0.0039     0.9549    
6866.0000  10.9619    5.3071     4.1785     3.1726     3.0968     8.5000     0.0024     8.6066     33.3118    42.2802    8.3387     0.0289     18.6179    0.2701     0.1001     0.1001     0.1089     0.1089     0.1052     0.0000     0.8382     2.6528     2.4574     0.0665     0.1052     0.0325     0.0000     0.0000     0.0361     0.0000     0.0047     0.9591    
6866.5000  9.9213     5.2932     4.1409     3.0885     3.0470     8.5000     0.0024     8.5994     33.0320    40.2526    8.2634     0.0347     19.2585    0.2252     0.1049     0.1049     0.1137     0.1137     0.1093     0.0000     0.8296     2.6539     2.4377     0.0770     0.1093     0.0391     0.0000     0.0000     0.0426     0.0000     0.0055     0.9519    
6867.0000  9.1951     4.9543     3.8144     2.8974     2.7833     8.5000     0.0023     8.6066     28.3066    33.7733    7.1122     0.0366     23.3863    0.1820     0.1124     0.1124     0.1217     0.1217     0.1171     0.0000     0.8250     2.6547     2.4143     0.0884     0.1171     0.0413     0.0000     0.0000     0.0449     0.0000     0.0060     0.9491    
6867.5000  7.8811     4.4905     3.5415     2.7882     2.5958     8.5000     0.0023     8.6283     24.9880    29.1020    6.2357     0.0426     26.8168    0.1608     0.1234     0.1234     0.1311     0.1311     0.1257     0.0000     0.8145     2.6561     2.4000     0.0925     0.1253     0.0480     0.0000     0.0000     0.0513     0.0000     0.0071     0.9416    
6868.0000  6.9137     4.2862     3.3315     2.6679     2.4466     8.5000     0.0021     8.6283     25.0379    29.3212    6.2191     0.0452     25.3256    0.1817     0.1236     0.1236     0.1312     0.1312     0.1254     0.0000     0.8125     2.6566     2.4077     0.0949     0.1254     0.0510     0.0000     0.0000     0.0552     0.0000     0.0056     0.9392    
6868.5000  6.0326     4.0097     3.2096     2.6045     2.3617     8.5000     0.0020     8.6501     26.1425    31.0233    6.4677     0.0478     20.9309    0.1745     0.1167     0.1167     0.1266     0.1266     0.1206     0.0000     0.8141     2.6569     2.4214     0.0900     0.1206     0.0539     0.0000     0.0000     0.0600     0.0000     0.0034     0.9367    
