~Version
 VERS              .         2.0                           : CWLS LOG ASCII STANDARD - VERSION 2.0
 WRAP              .         NO                            : ONE LINE PER DEPTH STEP
 DLM               .         SPACE                         : DELIMITING CHARACTER(SPACE TAB OR COMMA)
~Well Information
#_______________________________________________________________________________
#
#PARAMETER_NAME    .UNIT     VALUE                         : DESCRIPTION
#_______________________________________________________________________________
STRT               .ft       4040.0000                     : First reference value
STOP               .ft       7050.0000                     : Last reference value
STEP               .ft       0.5000                        : Step increment
NULL               .         -999.25                       : Missing value
COMP               .         One Earth Energy              : Company
WELL               .         OEE #1                        : Well name
FLD                .         OEE                           : Field
LOC                .                                       : Location
PROV               .         Illinois                      : Province
SRVC               .         Schlumberger                  : Service Company
DATE               .         26-Dec-2021                   : Date
UWI                .         12-113-25373-00               : Unique Well ID
APD                .ft       15                            : Elevation of Depth Reference (LMF) Above Permanent Datum
API                .         12-113-25373-00               : API NUMBER
BHS                .         OPEN                          : Borehole Status (Open or Cased Hole)
BHT                .degF     93.71                         : Bottom Hole Temperature
BLI                .ft       4052                          : Bottom Log Interval
BS                 .in       12.25                         : Bit Size
CBDR               .ft       374                           : Casing Bottom of Driller
CBLO               .ft       374                           : Logger Casing Shoe Depth
CNTY               .         McLean                        : COUNTY
CSIZ               .in       13.375                        : Current Casing Size
CWEI               .lbm/ft   54.5                          : Casing Weight
CTRY               .         United States of America - US : Nation
DCS                .         23-Dec-2021                   : Date Circulation Stopped
DFD                .lbm/gal  9.25                          : Drilling Fluid Density
DFT                .         WATER                         : Drilling Fluid Type
DLAB               .         26-Dec-2021                   : Date Logger At Bottom
EDF                .ft       840.0001                      : Elevation of Drill Floor
EGL                .ft       826                           : Elevation of Ground Level
EKB                .ft       841                           : Elevation of Kelly Bushing
EPD                .ft       826                           : Elevation of Permanent Datum (PDAT) above Mean Sea Level
GDAT               .                                       : GeoDetic Datum
LMF                .         KB                            : Logging Measured From (Name of Logging Elevation Reference)
LUL                .         Bradford                      : Logging Unit Location
LUN                .         2266                          : Logging Unit Number
LATI               .         40.485663 degrees             : Latitude
LONG               .         -88.468241 degrees            : Longitude
MCST               .degF     67.9                          : Mudcake Sample Temperature
MFST               .degF     66.3                          : Mud Filtrate Sample Temperature
MRT                .degF     93.71                         : Maximum Recorded Temperature
MST                .degF     65.4                          : Mud Sample Temperature
ORIGINALWELLNAME   .         OEE #1                        : 
PDAT               .         GL                            : Permanent Datum
PRODUCER-CODE      .         440                           : 
PRODUCER-NAME      .         Schlumberger                  : 
RMB                .ohm.m    3.533802                      : Resistivity of Mud at Bottom Hole Temperature
RMCS               .ohm.m    6.12                          : Resistivity of Mud Cake Sample
RMFS               .ohm.m    3.85                          : Resistivity of Mud Filtrate Sample
RMS                .ohm.m    4.92                          : Resistivity of Mud Sample
RUN                .         1C                            : Run Number
STAT               .         Illinois                      : State or Province
TCS                .         23_45_00                      : Time Circulation Stopped
TDD                .ft       4052                          : Driller Total Depth
TDL                .ft       4052                          : Logger Total Depth
TLAB               .         02_57_00                      : Time Logger At Bottom
TLI                .ft       379                           : Top Log Interval
~Parameter Information Block
#_______________________________________________________________________________
#
#PARAMETER_NAME    .UNIT     VALUE                         : DESCRIPTION
#_______________________________________________________________________________
SET                .         LQC_MP_043_Deliverables       : 
TLFamily_AT10      .         Resistivity - Induction Array 10: 
TLFamily_AT20      .         Resistivity - Induction Array 20: 
TLFamily_AT30      .         Resistivity - Induction Array 30: 
TLFamily_AT60      .         Resistivity - Induction Array 60: 
TLFamily_AT90      .         Resistivity - Induction Array 90: 
TLFamily_BS        .         Bit Size                      : 
TLFamily_C44       .         Elastic Modulus               : 
TLFamily_C55       .         Elastic Modulus               : 
TLFamily_C66       .         Elastic Modulus               : 
TLFamily_DTCO_MF_DDBHC .         Compressional Slowness        : 
TLFamily_DTSH_FAST .         Fast Shear Slowness           : 
TLFamily_DTSH_SLOW .         Slow Shear Slowness           : 
TLFamily_DTSH_STRVP .         Stoneley Shear Slowness       : 
TLFamily_GAMMA     .         Regularization Factor         : 
TLFamily_GR_EDTC   .         Gamma Ray                     : 
TLFamily_HCAL      .         Caliper                       : 
TLFamily_ISHE      .         Shear Strength                : 
TLFamily_MD        .         Measured Depth                : 
TLFamily_PPGI_MP_TD .         Pore Pressure Gradient        : 
TLFamily_PPGI_PorePressure .         Pore Pressure Gradient        : 
TLFamily_PR_HH     .         Poisson Ratio (Dynamic)       : 
TLFamily_PR_VH     .         Poisson Ratio (Dynamic)       : 
TLFamily_RHOZ      .         Bulk Density                  : 
TLFamily_SDEVM     .         Sonde Deviation               : 
TLFamily_SLOANI    .         Acoustic Anisotropy           : 
TLFamily_SPHI      .         Total Porosity                : 
TLFamily_TENS      .         Tension                       : 
TLFamily_TNPH      .         Thermal Neutron Porosity      : 
TLFamily_TSTR      .         Tensile Strength              : 
TLFamily_TXSG_ANISO .         Minimum Horizontal Stress Gradient: 
TLFamily_TXSG_ISO  .         Minimum Horizontal Stress Gradient: 
TLFamily_TXSP_ANISO .         Minimum Horizontal Stress     : 
TLFamily_TZSG      .         Vertical Stress Gradient      : 
TLFamily_UCS       .         Compressive Strength          : 
TLFamily_YME_H_STA .         Young's Modulus (Dynamic)     : 
TLFamily_YME_V_STA .         Young's Modulus (Dynamic)     : 
~Curve Information
#_______________________________________________________________________________
#
#LOGNAME           .UNIT     LOG_ID                        : DESCRIPTION
#_______________________________________________________________________________
MD                 .ft                                     : Measured DEPTH 
AT10               .ohm.m                                  : Array Induction Two Foot Resistivity A10 
AT20               .ohm.m                                  : Array Induction Two Foot Resistivity A20 
AT30               .ohm.m                                  : Array Induction Two Foot Resistivity A30 
AT60               .ohm.m                                  : Array Induction Two Foot Resistivity A60 
AT90               .ohm.m                                  : Array Induction Two Foot Resistivity A90 
BS                 .in                                     : Bit Size 
C44                .Mpsi                                   : C44 Modulus 
C55                .Mpsi                                   : C55 Modulus 
C66                .Mpsi                                   : C66 Modulus 
DTCO_MF_DDBHC      .us/ft                                  : Compressional slowness 
DTSH_FAST          .us/ft                                  : Shear slowness 
DTSH_SLOW          .us/ft                                  : Shear slowness 
DTSH_STRVP         .us/ft                                  : Stoneley Shear Slowness 
GAMMA              .unitless                               : Thomsens Anisotropy Parameter Gamma 
GR_EDTC            .gAPI                                   : Gamma Ray 
HCAL               .in                                     : HRCC Caliper Calibrated 
ISHE               .psi                                    : Cohesive Strength 
PPGI_MP_TD         .psi/ft                                 : Pore Pressure Gradient 
PPGI_PorePressure  .psi/ft                                 : Pore Pressure Gradient from XRP
PR_HH              .unitless                               : Poissons Ratio - Loading Horizontal - Displacement Horizontal 
PR_VH              .unitless                               : Poissons Ratio - Loading Vertical - Displacement Horizontal 
RHOZ               .g/cm3                                  : Standard Resolution Formation Density 
SDEVM              .deg                                    : Memorized Sonde Deviation 
SLOANI             .%                                      : Slowness-based Anisotropy 
SPHI               .ft3/ft3                                : Total porosity from Sonic 
TENS               .lbf                                    : Cable Tension 
TNPH               .ft3/ft3                                : Thermal Neutron Porosity (Ratio Method) in Selected Lithology 
TSTR               .psi                                    : Tensile Strength 
TXSG_ANISO         .psi/ft                                 : Anisotropic Minimum Horizontal Stress Gradient 
TXSG_ISO           .psi/ft                                 : Isotropic Minimum Horizontal Stress Gradient 
TXSP_ANISO         .psi                                    : Anisotropic Minimum Horizontal Stress 
TZSG               .psi/ft                                 : Overburden Stress Gradient 
UCS                .psi                                    : Unconfined Compressive Strength 
YME_H_STA          .Mpsi                                   :  Static Horizontal Youngs Modulus 
YME_V_STA          .Mpsi                                   : Static Vertical Youngs Modulus 
~Ascii
# ...
5237.0000  21.0992    10.4743    6.9873     4.4175     3.6993     8.5000     2.9059     3.0935     2.8881     64.4902    103.2293   106.5089   106.8360   -0.0031    25.9919    8.3891     2334.0369  0.4300     -999.2500  0.1594     0.1837     2.4465     2.2143     3.1273     0.1201     2223.2942  0.1003     900.2593   0.5412     0.5677     2834.1655  1.0500     10803.1113 4.4609     5.1426    
5237.5000  17.6239    9.5424     6.5661     4.2359     3.5184     8.5000     2.8686     2.8686     2.8891     64.6713    105.3205   108.9224   106.6941   0.0036     25.2488    8.3891     2393.4189  0.4300     -999.2500  0.2142     0.2135     2.4408     2.2135     3.3624     0.1214     2220.6250  0.0995     916.7629   0.6078     0.6041     3183.1106  1.0500     11001.1553 4.8943     4.8427    
5238.0000  15.1545    8.7481     6.0866     4.0270     3.3305     8.5000     2.8095     2.8095     2.8978     63.8040    105.9987   110.7069   106.6130   0.0157     23.8569    8.3891     2651.9971  0.4300     -999.2500  0.2386     0.2352     2.4444     2.2128     4.3453     0.1152     2232.5293  0.0972     1001.1879  0.6470     0.6313     3388.6638  1.0500     12014.2539 5.0025     4.7812    
5238.5000  12.8446    7.9736     5.7057     3.8585     3.1822     8.5000     2.8294     2.8294     2.9006     62.6897    105.3114   110.6534   106.5512   0.0126     24.0694    8.4036     2832.5505  0.4300     -999.2500  0.2485     0.2456     2.4440     2.2123     4.9471     0.1073     2226.1875  0.0970     1073.5554  0.6602     0.6476     3458.2651  1.0500     12882.6650 5.0511     4.8710    
5239.0000  11.4604    7.4004     5.4694     3.8468     3.1186     8.5000     2.9078     2.9078     2.9121     62.2352    103.9172   109.4402   106.4929   0.0007     23.1187    8.3891     2831.4478  0.4300     -999.2500  0.2415     0.2413     2.4510     2.2130     5.1772     0.1041     2231.2354  0.0989     1090.0372  0.6452     0.6444     3380.0471  1.0500     13080.4473 5.0648     5.0538    
5239.5000  10.8633    7.2152     5.5262     3.8758     3.1516     8.5000     2.8604     3.1392     2.9189     62.6373    102.6325   107.5178   106.4341   0.0102     20.9045    8.3891     2775.8752  0.4300     -999.2500  0.1701     0.2102     2.4540     2.2141     4.6494     0.1070     2236.5000  0.1017     1056.1340  0.5551     0.5980     2908.4907  1.0500     12673.6084 4.2995     5.3138    
5240.0000  11.7948    7.4467     5.7253     4.0688     3.2873     8.5000     2.9861     3.1970     2.9265     63.4492    101.7502   105.2827   106.3494   -0.0100    20.8141    8.4036     2525.9319  0.4300     -999.2500  0.1594     0.1861     2.4564     2.2153     3.4125     0.1127     2220.0588  0.1002     970.5061   0.5425     0.5717     2842.5093  1.0500     11646.0732 4.5186     5.2758    
5240.5000  13.9316    8.6607     6.5525     4.5042     3.6061     8.5000     3.0890     3.2890     2.9312     64.1894    100.2282   103.4226   106.1701   -0.0255    21.5109    8.3964     2328.8887  0.4300     -999.2500  0.1349     0.1550     2.4521     2.2170     3.1371     0.1179     2227.8750  0.0962     893.4755   0.5148     0.5378     2697.7173  1.0500     10721.7061 4.5813     5.2667    
5241.0000  16.2243    9.3917     7.3308     5.0149     3.9878     8.5000     3.2482     3.4078     2.9467     64.4183    98.3894    100.7766   105.8070   -0.0464    22.9057    8.4254     2201.6387  0.4300     -999.2500  0.1137     0.1263     2.4482     2.2198     2.3971     0.1196     2233.8823  0.0937     847.0344   0.4942     0.5095     2589.9456  1.0500     10164.4131 4.8236     5.3573    
5241.5000  18.8714    9.9114     7.7345     5.2741     4.2958     8.5000     3.4042     3.4713     2.9836     63.6458    97.5403    98.4959    105.2098   -0.0618    21.8822    8.4109     2311.8103  0.4300     -999.2500  0.1244     0.1299     2.4510     2.2230     0.9749     0.1141     2232.5625  0.0876     896.4011   0.5101     0.5169     2673.4456  1.0500     10756.8135 5.3398     5.5774    
5242.0000  22.8567    10.7072    8.3806     5.7572     4.6683     8.5000     3.4460     3.5016     3.0421     62.0228    97.3378    98.1190    104.4299   -0.0586    23.8586    8.4254     2651.5293  0.4300     -999.2500  0.1533     0.1590     2.4622     2.2264     0.7994     0.1026     2245.0588  0.0796     1040.7935  0.5463     0.5531     2863.5298  1.0500     12489.5205 5.7211     5.9348    
5242.5000  27.0058    11.9187    9.5564     6.3384     5.3196     8.5000     3.4697     3.5372     3.1147     60.6421    97.2674    98.2092    103.6544   -0.0512    26.1852    8.4109     2995.1897  0.4300     -999.2500  0.1753     0.1833     2.4836     2.2299     0.9636     0.0929     2243.8752  0.0726     1189.2019  0.5761     0.5855     3019.8950  1.0500     14270.4229 5.9994     6.2757    
5243.0000  31.5126    13.6724    10.5424    6.8324     5.8830     8.5000     3.4035     3.5398     3.1564     60.0413    97.3959    99.3274    103.1414   -0.0363    31.4642    8.4218     3150.5256  0.4300     -999.2500  0.1792     0.1963     2.4920     2.2330     1.9637     0.0886     2243.0000  0.0689     1259.4358  0.5818     0.6017     3049.9822  1.0500     15113.2285 5.8782     6.4415    
5243.5000  32.2335    14.9433    11.0874    7.0937     6.2889     8.5000     3.2447     3.5169     3.1529     60.4274    97.5763    101.5855   103.0541   -0.0141    32.0001    8.4218     3040.4963  0.4300     -999.2500  0.1618     0.1942     2.4850     2.2359     4.0261     0.0914     2235.1765  0.0742     1215.6041  0.5576     0.5952     2923.8113  1.0500     14587.2490 5.3238     6.3902    
5244.0000  29.9895    15.8583    11.2372    7.1628     6.4503     8.5000     3.1020     3.4732     3.1145     61.4058    97.8581    103.5476   103.3402   0.0020     30.7903    8.4109     2811.1807  0.4300     -999.2500  0.1414     0.1814     2.4684     2.2389     5.6498     0.0983     2235.1875  0.0813     1113.0519  0.5290     0.5753     2773.8091  1.0500     13356.6230 4.7931     6.1483    
5244.5000  25.4744    15.1576    10.6352    7.0067     6.3539     8.5000     3.0711     3.4635     3.0801     61.8037    97.9032    103.9710   103.8177   0.0015     29.2805    8.3891     2735.5122  0.4300     -999.2500  0.1344     0.1747     2.4638     2.2415     6.0114     0.1011     2242.8823  0.0890     1072.1984  0.5185     0.5651     2719.0178  1.0500     12866.3809 4.5795     5.9545    
5245.0000  20.7331    14.0148    9.7485     6.5393     5.9222     8.5000     3.0794     3.5105     3.0532     62.1162    97.3504    103.9411   104.3851   -0.0042    26.3265    8.3456     2676.5283  0.4300     -999.2500  0.1224     0.1622     2.4690     2.2430     6.5484     0.1033     2247.6875  0.0924     1038.3826  0.5029     0.5493     2637.6265  1.0500     12460.5918 4.3828     5.8089    
5245.5000  18.0452    13.0561    9.0582     6.2263     5.5813     8.5000     3.0631     3.4938     3.0118     62.5100    97.5856    104.2208   105.1057   -0.0084    27.2587    8.3529     2624.5601  0.4300     -999.2500  0.1187     0.1573     2.4692     2.2442     6.5758     0.1061     2232.1875  0.0946     1007.0695  0.4969     0.5417     2606.1575  1.0500     12084.8340 4.2309     5.6079    
5246.0000  18.2020    13.1049    9.0470     6.1906     5.4605     8.5000     3.0716     3.3534     2.9477     62.6010    99.4427    103.9045   106.0653   -0.0202    24.3037    8.3529     2672.0325  0.4300     -999.2500  0.1451     0.1765     2.4611     2.2456     4.3884     0.1067     2233.2942  0.0952     1017.3978  0.5262     0.5610     2760.1157  1.0500     12208.7725 4.4149     5.3680    
5246.5000  20.6664    13.5628    9.2602     6.2811     5.4438     8.5000     3.1317     3.2510     2.8790     62.3107    100.8592   102.7628   107.1779   -0.0403    26.1177    8.3601     2751.2532  0.4300     -999.2500  0.1778     0.1940     2.4543     2.2468     1.8697     0.1047     2258.8127  0.0940     1051.1140  0.5661     0.5838     2970.0835  1.0500     12613.3682 4.8821     5.3263    
5247.0000  23.4149    13.9124    9.5948     6.4000     5.4699     8.5000     3.1953     3.2615     2.8185     62.0005    100.5665   101.6037   108.1808   -0.0589    24.1404    8.3384     2781.2363  0.4300     -999.2500  0.1857     0.1949     2.4480     2.2479     1.0261     0.1025     2256.5295  0.0920     1068.7869  0.5776     0.5877     3030.5667  1.0500     12825.4424 5.1687     5.4248    
