~Version
 VERS              .         2.0                           : CWLS LOG ASCII STANDARD - VERSION 2.0
 WRAP              .         NO                            : ONE LINE PER DEPTH STEP
 DLM               .         SPACE                         : DELIMITING CHARACTER(SPACE TAB OR COMMA)
~Well Information
#_______________________________________________________________________________
#
#PARAMETER_NAME    .UNIT     VALUE                         : DESCRIPTION
#_______________________________________________________________________________
STRT               .ft       4040.0000                     : First reference value
STOP               .ft       7075.0000                     : Last reference value
STEP               .ft       0.5000                        : Step increment
NULL               .         -999.25                       : Missing value
COMP               .         One Earth Energy              : Company
WELL               .         OEE #1                        : Well name
FLD                .         OEE                           : Field
LOC                .                                       : Location
PROV               .         Illinois                      : Province
SRVC               .         Schlumberger                  : Service Company
DATE               .         26-Dec-2021                   : Date
UWI                .         12-113-25373-00               : Unique Well ID
APD                .ft       15                            : Elevation of Depth Reference (LMF) Above Permanent Datum
API                .         12-113-25373-00               : API NUMBER
BHS                .         OPEN                          : Borehole Status (Open or Cased Hole)
BHT                .degF     93.71                         : Bottom Hole Temperature
BLI                .ft       4052                          : Bottom Log Interval
BS                 .in       12.25                         : Bit Size
CBDR               .ft       374                           : Casing Bottom of Driller
CBLO               .ft       374                           : Logger Casing Shoe Depth
CNTY               .         McLean                        : COUNTY
CSIZ               .in       13.375                        : Current Casing Size
CWEI               .lbm/ft   54.5                          : Casing Weight
CTRY               .         United States of America - US : Nation
DCS                .         23-Dec-2021                   : Date Circulation Stopped
DFD                .lbm/gal  9.25                          : Drilling Fluid Density
DFT                .         WATER                         : Drilling Fluid Type
DLAB               .         26-Dec-2021                   : Date Logger At Bottom
EDF                .ft       840.0001                      : Elevation of Drill Floor
EGL                .ft       826                           : Elevation of Ground Level
EKB                .ft       841                           : Elevation of Kelly Bushing
EPD                .ft       826                           : Elevation of Permanent Datum (PDAT) above Mean Sea Level
GDAT               .                                       : GeoDetic Datum
LMF                .         KB                            : Logging Measured From (Name of Logging Elevation Reference)
LUL                .         Bradford                      : Logging Unit Location
LUN                .         2266                          : Logging Unit Number
LATI               .         40.485663 degrees             : Latitude
LONG               .         -88.468241 degrees            : Longitude
MCST               .degF     67.9                          : Mudcake Sample Temperature
MFST               .degF     66.3                          : Mud Filtrate Sample Temperature
MRT                .degF     93.71                         : Maximum Recorded Temperature
MST                .degF     65.4                          : Mud Sample Temperature
ORIGINALWELLNAME   .         OEE #1                        : 
PDAT               .         GL                            : Permanent Datum
PRODUCER-CODE      .         440                           : 
PRODUCER-NAME      .         Schlumberger                  : 
RMB                .ohm.m    3.533802                      : Resistivity of Mud at Bottom Hole Temperature
RMCS               .ohm.m    6.12                          : Resistivity of Mud Cake Sample
RMFS               .ohm.m    3.85                          : Resistivity of Mud Filtrate Sample
RMS                .ohm.m    4.92                          : Resistivity of Mud Sample
RUN                .         1C                            : Run Number
STAT               .         Illinois                      : State or Province
TCS                .         23_45_00                      : Time Circulation Stopped
TDD                .ft       4052                          : Driller Total Depth
TDL                .ft       4052                          : Logger Total Depth
TLAB               .         02_57_00                      : Time Logger At Bottom
TLI                .ft       379                           : Top Log Interval
~Parameter Information Block
#_______________________________________________________________________________
#
#PARAMETER_NAME    .UNIT     VALUE                         : DESCRIPTION
#_______________________________________________________________________________
SET                .         LQC                           : 
TLFamily_AT10      .         Resistivity - Induction Array 10: 
TLFamily_AT20      .         Resistivity - Induction Array 20: 
TLFamily_AT30      .         Resistivity - Induction Array 30: 
TLFamily_AT60      .         Resistivity - Induction Array 60: 
TLFamily_AT90      .         Resistivity - Induction Array 90: 
TLFamily_BS        .         Bit Size                      : 
TLFamily_Calcite_QE .        Calcite Volume Fraction       : 
TLFamily_HCAL      .         Caliper                       : 
TLFamily_HCGR      .         Gamma Ray Minus Uranium       : 
TLFamily_HSGR      .         Gamma Ray                     : 
TLFamily_HTHO      .         Thorium Concentration         : 
TLFamily_Illite_QE .         Illite Volume Fraction        : 
TLFamily_KINT_GEO_QE .       Permeability                  : 
TLFamily_KSDR_CMR  .         NMR Permeability              : 
TLFamily_MD        .         Measured Depth                : 
TLFamily_MRP_CMR   .         NMR Porosity                  : 
TLFamily_MRP_CMR_Edited .    NMR Porosity                  : 
TLFamily_MRP_CMR_Edited_REC_QE .NMR Porosity               : 
TLFamily_PHIT_QE   .         Total Porosity                : 
TLFamily_PIGN_QE   .         Effective Porosity            : 
TLFamily_Pyrite_QE .         Pyrite Volume Fraction        : 
TLFamily_Quartz_QE .         Quartz Volume Fraction        : 
TLFamily_RHGA_GEO_QE .       Grain Density                 : 
TLFamily_RHOZ      .         Bulk Density                  : 
TLFamily_TNPH_LIM  .         Thermal Neutron Porosity Limestone: 
TLFamily_UWater_QE .         Undisturbed Zone Water Volume Fraction: 
TLFamily_VCL_GEO_QE .        Clay Volume Fraction          : 
TLFamily_WANH_WALK2 .        Anhydrite Weight Fraction     : 
TLFamily_WCAR_WALK2 .        Carbonate Weight Fraction     : 
TLFamily_WCLA_WALK2 .        Clay Weight Fraction          : 
TLFamily_WCOA_WALK2 .        Coal Weight Fraction          : 
TLFamily_WPYR_WALK2 .        Pyrite Weight Fraction        : 
TLFamily_WQFM_WALK2 .        Quartz-Feldspar-Mica Weight Fraction: 
~Curve Information
#_______________________________________________________________________________
#
#LOGNAME           .UNIT     LOG_ID                        : DESCRIPTION
#_______________________________________________________________________________
MD                 .ft                                     : Measured DEPTH 
AT10               .ohm.m                                  : Array Induction Two Foot Resistivity A10 
AT20               .ohm.m                                  : Array Induction Two Foot Resistivity A20 
AT30               .ohm.m                                  : Array Induction Two Foot Resistivity A30 
AT60               .ohm.m                                  : Array Induction Two Foot Resistivity A60 
AT90               .ohm.m                                  : Array Induction Two Foot Resistivity A90 
BS                 .in                                     : Bit Size 
Calcite_QE         .v/v                                    : Calcite Volume Fraction 
HCAL               .in                                     : HRCC Caliper Calibrated 
HCGR               .gAPI                                   : HNGS Computed Gamma Ray 
HSGR               .gAPI                                   : HNGS Standard Gamma-Ray 
HTHO               .ppm                                    : HNGS Formation Thorium Concentration 
Illite_QE          .v/v                                    : Illite Volume Fraction 
KINT_GEO_QE        .mD                                     : Permeability (Juhasz 1979) 
KSDR_CMR           .mD                                     : SDR Permeability 
MRP_CMR            .ft3/ft3                                : Magnetic Resonance Porosity 
MRP_CMR_Edited     .ft3/ft3                                : Magnetic Resonance Porosity 
MRP_CMR_Edited_REC_QE .ft3/ft3                             : Quanti.Elan Reconstructed curve 
PHIT_QE            .v/v                                    : Total Porosity 
PIGN_QE            .v/v                                    : Effective porosity (with irreducible water) 
Pyrite_QE          .v/v                                    : Pyrite Volume Fraction 
Quartz_QE          .v/v                                    : Quartz Volume Fraction 
RHGA_GEO_QE        .g/cm3                                  : Apparent grain density 
RHOZ               .g/cm3                                  : Standard Resolution Formation Density 
TNPH_LIM           .ft3/ft3                                : Thermal Neutron Porosity (matrix Limestone) 
UWater_QE          .v/v                                    : Undisturbed Zone Water Volume Fraction 
VCL_GEO_QE         .v/v                                    : Clay fraction 
WANH_WALK2         .lbm/lbm                                : Dry Weight Fraction Anhydrite/Gypsum 
WCAR_WALK2         .lbm/lbm                                : Dry Weight Fraction Carbonate 
WCLA_WALK2         .lbm/lbm                                : Dry Weight Fraction Clay 
WCOA_WALK2         .lbm/lbm                                : Dry Weight Fraction Coal 
WPYR_WALK2         .lbm/lbm                                : Dry Weight Fraction Pyrite from WALK2 Model 
WQFM_WALK2         .lbm/lbm                                : Dry Weight Fraction Quartz+Feldspar+Mica (QFM) 
~Ascii
# ...
4442.5000  24.9543    15.2410    11.5031    8.1548     6.4875     8.5000     0.0000     8.7733     27.5891    32.5008    3.6567     0.0159     13.2433    3.5486     0.0974     0.0974     0.0970     0.0953     0.0932     0.0000     0.8888     2.6525     2.4746     0.0435     0.0932     0.0179     0.0000     0.0000     0.0170     0.0000     0.0020     0.9810    
4443.0000  26.2958    15.5532    12.4283    8.5840     6.7073     8.5000     0.0000     8.8023     24.9316    29.7791    3.1981     0.0099     13.4061    2.8804     0.0922     0.0922     0.0953     0.0924     0.0911     0.0000     0.8977     2.6515     2.4783     0.0424     0.0911     0.0112     0.0000     0.0000     0.0112     0.0000     0.0000     0.9888    
4443.5000  27.7992    15.8808    12.4990    8.7692     7.0519     8.5000     0.0000     8.8023     23.1792    27.7157    2.9251     0.0156     10.9549    3.2998     0.0873     0.0873     0.0924     0.0905     0.0885     0.0000     0.8939     2.6524     2.4882     0.0357     0.0885     0.0176     0.0000     0.0000     0.0178     0.0000     0.0000     0.9822    
4444.0000  27.4819    15.8537    13.0838    9.1432     7.3680     8.5000     -999.2500  8.8241     23.8758    27.5473    3.0818     -999.2500  -999.2500  2.8356     0.0865     0.0865     0.0905     -999.2500  -999.2500  -999.2500  -999.2500  -999.2500  2.4987     0.0301     -999.2500  -999.2500  0.0000     0.0000     0.0319     0.0000     0.0008     0.9673    
4444.5000  26.0026    15.8890    13.5577    9.4702     7.7177     8.5000     -999.2500  8.8023     29.9838    34.6644    3.7008     -999.2500  -999.2500  1.8984     0.0878     0.0878     -999.2500  -999.2500  -999.2500  -999.2500  -999.2500  -999.2500  2.5107     0.0264     -999.2500  -999.2500  0.0000     0.0000     0.0454     0.0000     0.0036     0.9510    
4445.0000  24.5752    16.2404    13.8760    9.7447     8.1658     8.5000     0.0000     8.8168     41.5184    47.2161    4.6757     0.0511     9.3114     1.1770     0.0905     0.0905     -999.2500  0.0947     0.0881     0.0030     0.7551     2.6571     2.5113     0.0302     0.0771     0.0577     0.0000     0.0000     0.0657     0.0000     0.0058     0.9285    
4445.5000  23.3976    16.5436    14.7041    10.3813    8.8858     8.5000     0.0003     8.8241     55.3985    61.7480    5.9359     0.0621     10.4376    0.9195     0.0955     0.0955     0.0947     0.0980     0.0900     0.0026     0.7030     2.6545     2.4909     0.0412     0.0735     0.0701     0.0000     0.0000     0.0829     0.0000     0.0072     0.9099    
4446.0000  21.1685    16.3797    14.3086    10.6171    9.0970     8.5000     0.0009     8.8168     70.6284    78.3770    7.2620     0.0740     12.0026    0.6980     0.0973     0.0973     0.0980     0.1016     0.0921     0.0018     0.6455     2.6505     2.4672     0.0558     0.0721     0.0835     0.0000     0.0000     0.1038     0.0000     0.0079     0.8883    
4446.5000  17.8042    14.6151    12.9438    9.9654     8.9470     8.5000     0.0007     8.8313     91.4273    100.1787   9.2125     0.0703     19.4891    0.4904     0.0991     0.0991     0.1016     0.1023     0.0933     0.0010     0.5867     2.6422     2.4585     0.0681     0.0726     0.0794     0.0000     0.0000     0.1073     0.0000     0.0057     0.8871    
4447.0000  14.8506    12.4468    11.0818    9.2413     8.3026     8.5000     0.0002     8.8784     114.5921   125.7113   10.9353    0.0655     30.5866    0.2755     0.0998     0.0998     0.1023     0.0995     0.0911     0.0001     0.5197     2.6325     2.4679     0.0781     0.0759     0.0739     0.0000     0.0000     0.1110     0.0000     0.0013     0.8876    
4447.5000  13.7467    11.8546    10.6181    8.9505     8.4993     8.5000     0.0000     8.9183     126.6792   140.1207   12.1088    0.0528     42.2762    0.1481     0.0986     0.0986     0.0995     0.0951     0.0883     0.0000     0.4970     2.6269     2.4785     0.0929     0.0756     0.0596     0.0000     0.0000     0.0947     0.0000     0.0000     0.9053    
4448.0000  15.6345    13.9172    12.3159    10.2138    9.9532     8.5000     0.0000     8.9002     124.5841   137.7856   11.8705    0.0486     36.2946    0.1260     0.0953     0.0953     0.0951     0.0900     0.0838     0.0000     0.5102     2.6266     2.4829     0.1027     0.0706     0.0548     0.0000     0.0000     0.0860     0.0000     0.0000     0.9140    
4448.5000  19.9512    16.5109    14.2611    11.4935    11.9898    8.5000     0.0000     8.8676     110.5827   122.9363   10.6007    0.0399     23.4648    0.1491     0.0898     0.0898     0.0900     0.0812     0.0761     0.0000     0.5656     2.6288     2.4956     0.0981     0.0657     0.0450     0.0000     0.0000     0.0660     0.0000     0.0000     0.9340    
4449.0000  25.7742    19.7731    17.4009    13.6455    14.1206    8.5000     0.0000     8.8458     96.6571    106.9067   9.3121     0.0362     12.6108    0.1524     0.0805     0.0805     0.0812     0.0720     0.0674     0.0000     0.6178     2.6320     2.5211     0.0742     0.0621     0.0409     0.0000     0.0000     0.0560     0.0000     0.0000     0.9440    
4449.5000  34.4706    26.4736    21.6766    16.1291    17.3702    8.5000     0.0000     8.7480     74.7081    82.3440    7.2107     0.0253     7.9118     0.1787     0.0721     0.0721     0.0720     0.0659     0.0627     0.0014     0.6941     2.6391     2.5429     0.0590     0.0566     0.0286     0.0000     0.0000     0.0362     0.0000     0.0025     0.9613    
4450.0000  47.0696    36.7434    29.1050    19.7842    21.4970    8.5000     0.0000     8.7371     50.6764    55.4018    4.9478     0.0159     5.4804     0.2571     0.0669     0.0669     0.0659     0.0626     0.0605     0.0019     0.7752     2.6448     2.5553     0.0380     0.0512     0.0179     0.0000     0.0000     0.0213     0.0000     0.0026     0.9761    
4450.5000  57.8169    44.5449    32.7095    21.2891    22.4497    8.5000     0.0000     8.6356     31.0256    34.1949    3.1960     0.0131     4.9803     0.3911     0.0640     0.0640     0.0626     0.0652     0.0636     0.0019     0.8350     2.6494     2.5575     0.0242     0.0492     0.0148     0.0000     0.0000     0.0169     0.0000     0.0015     0.9816    
4451.0000  58.2811    47.2353    34.3453    21.3145    21.2233    8.5000     0.0000     8.6066     29.5017    33.4572    3.1451     0.0160     5.7825     0.7833     0.0672     0.0672     0.0652     0.0695     0.0674     0.0015     0.8351     2.6494     2.5423     0.0175     0.0502     0.0181     0.0000     0.0000     0.0200     0.0000     0.0019     0.9781    
4451.5000  49.7441    41.0402    27.9749    18.3072    17.3923    8.5000     0.0003     8.6283     38.9116    44.7399    4.1764     0.0305     8.2226     0.7526     0.0705     0.0705     0.0695     0.0807     0.0768     0.0017     0.7878     2.6505     2.5125     0.0248     0.0540     0.0345     0.0000     0.0000     0.0384     0.0000     0.0048     0.9567    
4452.0000  43.4687    33.6011    22.8646    15.7961    14.2258    8.5000     0.0002     8.6646     47.5867    54.4566    4.7975     0.0325     18.1948    0.8439     0.0801     0.0801     0.0807     0.0963     0.0921     0.0019     0.7431     2.6490     2.4822     0.0399     0.0572     0.0367     0.0000     0.0000     0.0430     0.0000     0.0055     0.9515    
4452.5000  40.8176    31.0485    21.3893    14.5788    12.8134    8.5000     0.0000     8.6791     50.7754    58.0896    5.3022     0.0374     27.8161    1.3883     0.0957     0.0957     0.0963     0.1101     0.1053     0.0028     0.7197     2.6517     2.4637     0.0587     0.0581     0.0422     0.0000     0.0000     0.0507     0.0000     0.0067     0.9426    
4453.0000  37.3499    28.1766    19.6168    13.3679    11.5251    8.5000     0.0000     8.7443     50.8553    57.5214    5.3027     0.0335     43.3111    2.1752     0.1103     0.1103     0.1101     0.1208     0.1165     0.0033     0.7116     2.6522     2.4541     0.0689     0.0597     0.0379     0.0000     0.0000     0.0468     0.0000     0.0062     0.9470    
4453.5000  35.2667    26.1042    18.3503    12.6532    10.6601    8.5000     0.0003     8.7914     56.9101    63.5877    6.2165     0.0419     40.7133    2.8697     0.1224     0.1224     0.1208     0.1218     0.1164     0.0025     0.6920     2.6504     2.4352     0.0725     0.0624     0.0473     0.0000     0.0000     0.0582     0.0000     0.0072     0.9346    
