~Version
 VERS              .         2.0                           : CWLS LOG ASCII STANDARD - VERSION 2.0
 WRAP              .         NO                            : ONE LINE PER DEPTH STEP
 DLM               .         SPACE                         : DELIMITING CHARACTER(SPACE TAB OR COMMA)
~Well Information
#_______________________________________________________________________________
#
#PARAMETER_NAME    .UNIT     VALUE                         : DESCRIPTION
#_______________________________________________________________________________
STRT               .ft       4040.0000                     : First reference value
STOP               .ft       7075.0000                     : Last reference value
STEP               .ft       0.5000                        : Step increment
NULL               .         -999.25                       : Missing value
COMP               .         One Earth Energy              : Company
WELL               .         OEE #1                        : Well name
FLD                .         OEE                           : Field
LOC                .                                       : Location
PROV               .         Illinois                      : Province
SRVC               .         Schlumberger                  : Service Company
DATE               .         26-Dec-2021                   : Date
UWI                .         12-113-25373-00               : Unique Well ID
APD                .ft       15                            : Elevation of Depth Reference (LMF) Above Permanent Datum
API                .         12-113-25373-00               : API NUMBER
BHS                .         OPEN                          : Borehole Status (Open or Cased Hole)
BHT                .degF     93.71                         : Bottom Hole Temperature
BLI                .ft       4052                          : Bottom Log Interval
BS                 .in       12.25                         : Bit Size
CBDR               .ft       374                           : Casing Bottom of Driller
CBLO               .ft       374                           : Logger Casing Shoe Depth
CNTY               .         McLean                        : COUNTY
CSIZ               .in       13.375                        : Current Casing Size
CWEI               .lbm/ft   54.5                          : Casing Weight
CTRY               .         United States of America - US : Nation
DCS                .         23-Dec-2021                   : Date Circulation Stopped
DFD                .lbm/gal  9.25                          : Drilling Fluid Density
DFT                .         WATER                         : Drilling Fluid Type
DLAB               .         26-Dec-2021                   : Date Logger At Bottom
EDF                .ft       840.0001                      : Elevation of Drill Floor
EGL                .ft       826                           : Elevation of Ground Level
EKB                .ft       841                           : Elevation of Kelly Bushing
EPD                .ft       826                           : Elevation of Permanent Datum (PDAT) above Mean Sea Level
GDAT               .                                       : GeoDetic Datum
LMF                .         KB                            : Logging Measured From (Name of Logging Elevation Reference)
LUL                .         Bradford                      : Logging Unit Location
LUN                .         2266                          : Logging Unit Number
LATI               .         40.485663 degrees             : Latitude
LONG               .         -88.468241 degrees            : Longitude
MCST               .degF     67.9                          : Mudcake Sample Temperature
MFST               .degF     66.3                          : Mud Filtrate Sample Temperature
MRT                .degF     93.71                         : Maximum Recorded Temperature
MST                .degF     65.4                          : Mud Sample Temperature
ORIGINALWELLNAME   .         OEE #1                        : 
PDAT               .         GL                            : Permanent Datum
PRODUCER-CODE      .         440                           : 
PRODUCER-NAME      .         Schlumberger                  : 
RMB                .ohm.m    3.533802                      : Resistivity of Mud at Bottom Hole Temperature
RMCS               .ohm.m    6.12                          : Resistivity of Mud Cake Sample
RMFS               .ohm.m    3.85                          : Resistivity of Mud Filtrate Sample
RMS                .ohm.m    4.92                          : Resistivity of Mud Sample
RUN                .         1C                            : Run Number
STAT               .         Illinois                      : State or Province
TCS                .         23_45_00                      : Time Circulation Stopped
TDD                .ft       4052                          : Driller Total Depth
TDL                .ft       4052                          : Logger Total Depth
TLAB               .         02_57_00                      : Time Logger At Bottom
TLI                .ft       379                           : Top Log Interval
~Parameter Information Block
#_______________________________________________________________________________
#
#PARAMETER_NAME    .UNIT     VALUE                         : DESCRIPTION
#_______________________________________________________________________________
SET                .         LQC                           : 
TLFamily_AT10      .         Resistivity - Induction Array 10: 
TLFamily_AT20      .         Resistivity - Induction Array 20: 
TLFamily_AT30      .         Resistivity - Induction Array 30: 
TLFamily_AT60      .         Resistivity - Induction Array 60: 
TLFamily_AT90      .         Resistivity - Induction Array 90: 
TLFamily_BS        .         Bit Size                      : 
TLFamily_Calcite_QE .        Calcite Volume Fraction       : 
TLFamily_HCAL      .         Caliper                       : 
TLFamily_HCGR      .         Gamma Ray Minus Uranium       : 
TLFamily_HSGR      .         Gamma Ray                     : 
TLFamily_HTHO      .         Thorium Concentration         : 
TLFamily_Illite_QE .         Illite Volume Fraction        : 
TLFamily_KINT_GEO_QE .       Permeability                  : 
TLFamily_KSDR_CMR  .         NMR Permeability              : 
TLFamily_MD        .         Measured Depth                : 
TLFamily_MRP_CMR   .         NMR Porosity                  : 
TLFamily_MRP_CMR_Edited .    NMR Porosity                  : 
TLFamily_MRP_CMR_Edited_REC_QE .NMR Porosity               : 
TLFamily_PHIT_QE   .         Total Porosity                : 
TLFamily_PIGN_QE   .         Effective Porosity            : 
TLFamily_Pyrite_QE .         Pyrite Volume Fraction        : 
TLFamily_Quartz_QE .         Quartz Volume Fraction        : 
TLFamily_RHGA_GEO_QE .       Grain Density                 : 
TLFamily_RHOZ      .         Bulk Density                  : 
TLFamily_TNPH_LIM  .         Thermal Neutron Porosity Limestone: 
TLFamily_UWater_QE .         Undisturbed Zone Water Volume Fraction: 
TLFamily_VCL_GEO_QE .        Clay Volume Fraction          : 
TLFamily_WANH_WALK2 .        Anhydrite Weight Fraction     : 
TLFamily_WCAR_WALK2 .        Carbonate Weight Fraction     : 
TLFamily_WCLA_WALK2 .        Clay Weight Fraction          : 
TLFamily_WCOA_WALK2 .        Coal Weight Fraction          : 
TLFamily_WPYR_WALK2 .        Pyrite Weight Fraction        : 
TLFamily_WQFM_WALK2 .        Quartz-Feldspar-Mica Weight Fraction: 
~Curve Information
#_______________________________________________________________________________
#
#LOGNAME           .UNIT     LOG_ID                        : DESCRIPTION
#_______________________________________________________________________________
MD                 .ft                                     : Measured DEPTH 
AT10               .ohm.m                                  : Array Induction Two Foot Resistivity A10 
AT20               .ohm.m                                  : Array Induction Two Foot Resistivity A20 
AT30               .ohm.m                                  : Array Induction Two Foot Resistivity A30 
AT60               .ohm.m                                  : Array Induction Two Foot Resistivity A60 
AT90               .ohm.m                                  : Array Induction Two Foot Resistivity A90 
BS                 .in                                     : Bit Size 
Calcite_QE         .v/v                                    : Calcite Volume Fraction 
HCAL               .in                                     : HRCC Caliper Calibrated 
HCGR               .gAPI                                   : HNGS Computed Gamma Ray 
HSGR               .gAPI                                   : HNGS Standard Gamma-Ray 
HTHO               .ppm                                    : HNGS Formation Thorium Concentration 
Illite_QE          .v/v                                    : Illite Volume Fraction 
KINT_GEO_QE        .mD                                     : Permeability (Juhasz 1979) 
KSDR_CMR           .mD                                     : SDR Permeability 
MRP_CMR            .ft3/ft3                                : Magnetic Resonance Porosity 
MRP_CMR_Edited     .ft3/ft3                                : Magnetic Resonance Porosity 
MRP_CMR_Edited_REC_QE .ft3/ft3                             : Quanti.Elan Reconstructed curve 
PHIT_QE            .v/v                                    : Total Porosity 
PIGN_QE            .v/v                                    : Effective porosity (with irreducible water) 
Pyrite_QE          .v/v                                    : Pyrite Volume Fraction 
Quartz_QE          .v/v                                    : Quartz Volume Fraction 
RHGA_GEO_QE        .g/cm3                                  : Apparent grain density 
RHOZ               .g/cm3                                  : Standard Resolution Formation Density 
TNPH_LIM           .ft3/ft3                                : Thermal Neutron Porosity (matrix Limestone) 
UWater_QE          .v/v                                    : Undisturbed Zone Water Volume Fraction 
VCL_GEO_QE         .v/v                                    : Clay fraction 
WANH_WALK2         .lbm/lbm                                : Dry Weight Fraction Anhydrite/Gypsum 
WCAR_WALK2         .lbm/lbm                                : Dry Weight Fraction Carbonate 
WCLA_WALK2         .lbm/lbm                                : Dry Weight Fraction Clay 
WCOA_WALK2         .lbm/lbm                                : Dry Weight Fraction Coal 
WPYR_WALK2         .lbm/lbm                                : Dry Weight Fraction Pyrite from WALK2 Model 
WQFM_WALK2         .lbm/lbm                                : Dry Weight Fraction Quartz+Feldspar+Mica (QFM) 
~Ascii
# ...
6259.5000  14.7988    12.1621    9.6113     7.6442     8.4059     8.5000     0.0000     8.6283     99.4532    118.3109   12.7295    0.0782     9.6936     0.0750     0.0908     0.0908     0.0917     0.0910     0.0811     0.0000     0.6056     2.6422     2.4887     0.0748     0.0746     0.0882     0.0000     0.0000     0.1163     0.0000     0.0000     0.8837    
6260.0000  13.7543    11.1810    8.7078     7.4378     8.3076     8.5000     0.0000     8.6573     113.9989   135.2759   14.3258    0.0700     11.5059    0.0466     0.0895     0.0895     0.0910     0.0856     0.0767     0.0000     0.5756     2.6372     2.5035     0.0710     0.0762     0.0789     0.0000     0.0000     0.1092     0.0000     0.0000     0.8908    
6260.5000  13.1323    10.5192    8.1113     7.1280     7.9300     8.5000     0.0000     8.6791     137.5575   161.6037   17.2575    0.0596     20.7864    0.0393     0.0853     0.0853     0.0856     0.0859     0.0784     0.0005     0.5211     2.6314     2.5118     0.0730     0.0776     0.0672     0.0000     0.0000     0.1024     0.0000     0.0000     0.8976    
6261.0000  14.1127    10.9155    8.2499     7.0688     8.0647     8.5000     0.0000     8.6610     154.3334   182.9435   18.9480    0.0537     37.7658    0.1043     0.0874     0.0874     0.0859     0.0900     0.0832     0.0007     0.4737     2.6264     2.5026     0.0762     0.0754     0.0605     0.0000     0.0000     0.1002     0.0000     0.0002     0.8996    
6261.5000  19.0379    12.4660    8.9930     7.4990     8.8103     8.5000     0.0000     8.6392     147.6183   175.4795   18.2546    0.0555     42.5245    0.1818     0.0923     0.0923     0.0900     0.0965     0.0895     0.0011     0.4859     2.6295     2.4749     0.0848     0.0710     0.0625     0.0000     0.0000     0.1005     0.0000     0.0036     0.8959    
6262.0000  27.9756    15.5469    10.1203    7.8970     9.6292     8.5000     0.0006     8.6428     123.0105   145.7885   15.0780    0.0561     33.5978    0.2426     0.0965     0.0965     0.0965     0.0991     0.0920     0.0004     0.5447     2.6333     2.4558     0.0930     0.0675     0.0632     0.0000     0.0000     0.0926     0.0000     0.0038     0.9036    
6262.5000  45.5456    17.2346    10.7424    7.6953     9.4756     8.5000     0.0001     8.6138     89.3869    105.6249   10.7812    0.0529     18.3249    0.2702     0.0969     0.0969     0.0991     0.0937     0.0870     0.0000     0.6365     2.6391     2.4644     0.0861     0.0694     0.0597     0.0000     0.0000     0.0789     0.0000     0.0000     0.9211    
6263.0000  53.0545    14.5680    9.4794     6.6905     8.1170     8.5000     0.0001     8.6392     65.5300    76.8415    7.7181     0.0423     12.3632    0.2573     0.0903     0.0903     0.0937     0.0865     0.0811     0.0000     0.7098     2.6424     2.4901     0.0656     0.0766     0.0476     0.0000     0.0000     0.0582     0.0000     0.0000     0.9418    
6263.5000  50.3148    12.7569    8.5674     5.8235     6.6734     8.5000     0.0000     8.6392     55.7368    65.5591    5.9981     0.0355     15.9493    0.5361     0.0840     0.0840     0.0865     0.0908     0.0863     0.0000     0.7288     2.6427     2.4932     0.0478     0.0831     0.0400     0.0000     0.0000     0.0482     0.0000     0.0000     0.9518    
6264.0000  41.4393    12.2197    7.7348     5.0830     5.4676     8.5000     0.0000     8.6138     58.8164    67.4451    5.6910     0.0320     31.3832    2.0851     0.0895     0.0895     0.0908     0.1030     0.0990     0.0000     0.7026     2.6405     2.4713     0.0446     0.0889     0.0360     0.0000     0.0000     0.0450     0.0000     0.0000     0.9550    
6264.5000  26.7136    9.1928     6.1907     4.1194     4.1393     8.5000     0.0000     8.5994     70.1123    79.0701    5.8560     0.0346     66.7843    3.4190     0.1019     0.1019     0.1030     0.1185     0.1141     0.0000     0.6409     2.6368     2.4407     0.0537     0.0989     0.0390     0.0000     0.0000     0.0525     0.0000     0.0000     0.9475    
6265.0000  11.0354    5.9283     4.4117     3.1833     3.0597     8.5000     0.0000     8.6066     77.6230    87.0808    6.1306     0.0426     102.5150   1.9773     0.1172     0.1172     0.1185     0.1327     0.1273     0.0001     0.5945     2.6359     2.4289     0.0776     0.1122     0.0480     0.0000     0.0000     0.0679     0.0000     0.0000     0.9321    
6265.5000  7.0871     4.7493     3.5275     2.7619     2.4571     8.5000     0.0000     8.5957     76.5467    86.0221    6.1306     0.0427     138.1956   1.2502     0.1330     0.1330     0.1327     0.1439     0.1385     0.0002     0.5881     2.6366     2.4155     0.1003     0.1227     0.0481     0.0000     0.0000     0.0688     0.0000     0.0000     0.9312    
6266.0000  5.1562     4.0296     3.0741     2.3831     2.1180     8.5000     0.0000     8.5994     72.7835    81.9066    5.6833     0.0334     209.0469   1.1464     0.1429     0.1429     0.1423     0.1529     0.1487     0.0003     0.5955     2.6356     2.4003     0.1133     0.1294     0.0376     0.0000     0.0000     0.0541     0.0000     0.0000     0.9459    
6266.5000  4.1045     3.6022     2.8040     2.2250     1.9350     8.5000     0.0001     8.6066     74.0087    82.1753    5.8999     0.0130     397.2863   1.5122     0.1491     0.1491     0.1484     0.1579     0.1562     0.0000     0.6016     2.6305     2.3656     0.1216     0.1329     0.0146     0.0000     0.0000     0.0218     0.0000     0.0000     0.9782    
6267.0000  3.8941     3.5055     2.7404     2.1914     1.8879     8.5000     0.0001     8.6066     74.8799    82.9436    5.9647     0.0051     464.2724   2.8739     0.1546     0.1546     0.1554     0.1559     0.1553     0.0000     0.6050     2.6287     2.3391     0.1324     0.1345     0.0058     0.0000     0.0000     0.0097     0.0000     0.0000     0.9903    
6267.5000  3.7398     3.1614     2.5934     2.1304     1.8323     8.5000     0.0003     8.6066     77.8027    85.9685    6.3835     0.0096     354.8375   5.7233     0.1526     0.1526     0.1569     0.1482     0.1470     0.0000     0.6012     2.6290     2.3407     0.1275     0.1399     0.0108     0.0000     0.0000     0.0173     0.0000     0.0000     0.9827    
6268.0000  3.8882     2.8712     2.4086     2.0449     1.7897     8.5000     0.0010     8.5849     82.6639    92.3081    7.0913     0.0164     212.0895   10.9349    0.1446     0.1446     0.1521     0.1340     0.1319     0.0000     0.5975     2.6295     2.3721     0.1075     0.1319     0.0185     0.0000     0.0000     0.0310     0.0000     0.0000     0.9690    
6268.5000  6.7724     3.7049     3.1115     2.6185     2.2005     8.5000     0.0011     8.5957     86.8769    96.6707    7.5514     0.0165     132.4753   13.3512    0.1369     0.1369     0.1462     0.1176     0.1155     0.0000     0.6017     2.6289     2.4084     0.0936     0.1155     0.0186     0.0000     0.0000     0.0310     0.0000     0.0000     0.9690    
6269.0000  11.7015    5.4569     4.5283     3.5661     3.2045     8.5000     0.0007     8.5921     80.1125    88.8581    6.9730     0.0189     62.1404    7.8032     0.1204     0.1204     0.1340     0.1019     0.0995     0.0000     0.6374     2.6315     2.4392     0.0848     0.0995     0.0213     0.0000     0.0000     0.0320     0.0000     0.0000     0.9680    
6269.5000  29.1055    7.6157     6.1619     4.7673     4.4169     8.5000     0.0007     8.5921     65.7147    72.7791    5.8502     0.0170     31.0867    3.0886     0.1032     0.1032     0.1176     0.0902     0.0880     0.0000     0.6955     2.6354     2.4650     0.0635     0.0880     0.0191     0.0000     0.0000     0.0269     0.0000     0.0000     0.9731    
6270.0000  45.0964    10.1232    8.0977     6.0864     6.3252     8.5000     0.0006     8.5994     56.2951    61.5935    5.2383     0.0168     14.3305    1.4348     0.0854     0.0854     0.0961     0.0773     0.0752     0.0000     0.7402     2.6383     2.4962     0.0445     0.0752     0.0190     0.0000     0.0000     0.0249     0.0000     0.0000     0.9751    
6270.5000  57.6385    15.0026    10.5774    7.5161     8.9546     8.5000     0.0003     8.5849     54.0533    58.9824    5.0177     0.0118     10.2945    0.9470     0.0751     0.0751     0.0838     0.0694     0.0679     0.0000     0.7584     2.6380     2.5143     0.0350     0.0679     0.0133     0.0000     0.0000     0.0169     0.0000     0.0000     0.9831    
