~Version
 VERS              .         2.0                           : CWLS LOG ASCII STANDARD - VERSION 2.0
 WRAP              .         NO                            : ONE LINE PER DEPTH STEP
 DLM               .         SPACE                         : DELIMITING CHARACTER(SPACE TAB OR COMMA)
~Well Information
#_______________________________________________________________________________
#
#PARAMETER_NAME    .UNIT     VALUE                         : DESCRIPTION
#_______________________________________________________________________________
STRT               .ft       4040.0000                     : First reference value
STOP               .ft       7050.0000                     : Last reference value
STEP               .ft       0.5000                        : Step increment
NULL               .         -999.25                       : Missing value
COMP               .         One Earth Energy              : Company
WELL               .         OEE #1                        : Well name
FLD                .         OEE                           : Field
LOC                .                                       : Location
PROV               .         Illinois                      : Province
SRVC               .         Schlumberger                  : Service Company
DATE               .         26-Dec-2021                   : Date
UWI                .         12-113-25373-00               : Unique Well ID
APD                .ft       15                            : Elevation of Depth Reference (LMF) Above Permanent Datum
API                .         12-113-25373-00               : API NUMBER
BHS                .         OPEN                          : Borehole Status (Open or Cased Hole)
BHT                .degF     93.71                         : Bottom Hole Temperature
BLI                .ft       4052                          : Bottom Log Interval
BS                 .in       12.25                         : Bit Size
CBDR               .ft       374                           : Casing Bottom of Driller
CBLO               .ft       374                           : Logger Casing Shoe Depth
CNTY               .         McLean                        : COUNTY
CSIZ               .in       13.375                        : Current Casing Size
CWEI               .lbm/ft   54.5                          : Casing Weight
CTRY               .         United States of America - US : Nation
DCS                .         23-Dec-2021                   : Date Circulation Stopped
DFD                .lbm/gal  9.25                          : Drilling Fluid Density
DFT                .         WATER                         : Drilling Fluid Type
DLAB               .         26-Dec-2021                   : Date Logger At Bottom
EDF                .ft       840.0001                      : Elevation of Drill Floor
EGL                .ft       826                           : Elevation of Ground Level
EKB                .ft       841                           : Elevation of Kelly Bushing
EPD                .ft       826                           : Elevation of Permanent Datum (PDAT) above Mean Sea Level
GDAT               .                                       : GeoDetic Datum
LMF                .         KB                            : Logging Measured From (Name of Logging Elevation Reference)
LUL                .         Bradford                      : Logging Unit Location
LUN                .         2266                          : Logging Unit Number
LATI               .         40.485663 degrees             : Latitude
LONG               .         -88.468241 degrees            : Longitude
MCST               .degF     67.9                          : Mudcake Sample Temperature
MFST               .degF     66.3                          : Mud Filtrate Sample Temperature
MRT                .degF     93.71                         : Maximum Recorded Temperature
MST                .degF     65.4                          : Mud Sample Temperature
ORIGINALWELLNAME   .         OEE #1                        : 
PDAT               .         GL                            : Permanent Datum
PRODUCER-CODE      .         440                           : 
PRODUCER-NAME      .         Schlumberger                  : 
RMB                .ohm.m    3.533802                      : Resistivity of Mud at Bottom Hole Temperature
RMCS               .ohm.m    6.12                          : Resistivity of Mud Cake Sample
RMFS               .ohm.m    3.85                          : Resistivity of Mud Filtrate Sample
RMS                .ohm.m    4.92                          : Resistivity of Mud Sample
RUN                .         1C                            : Run Number
STAT               .         Illinois                      : State or Province
TCS                .         23_45_00                      : Time Circulation Stopped
TDD                .ft       4052                          : Driller Total Depth
TDL                .ft       4052                          : Logger Total Depth
TLAB               .         02_57_00                      : Time Logger At Bottom
TLI                .ft       379                           : Top Log Interval
~Parameter Information Block
#_______________________________________________________________________________
#
#PARAMETER_NAME    .UNIT     VALUE                         : DESCRIPTION
#_______________________________________________________________________________
SET                .         LQC_MP_043_Deliverables       : 
TLFamily_AT10      .         Resistivity - Induction Array 10: 
TLFamily_AT20      .         Resistivity - Induction Array 20: 
TLFamily_AT30      .         Resistivity - Induction Array 30: 
TLFamily_AT60      .         Resistivity - Induction Array 60: 
TLFamily_AT90      .         Resistivity - Induction Array 90: 
TLFamily_BS        .         Bit Size                      : 
TLFamily_C44       .         Elastic Modulus               : 
TLFamily_C55       .         Elastic Modulus               : 
TLFamily_C66       .         Elastic Modulus               : 
TLFamily_DTCO_MF_DDBHC .         Compressional Slowness        : 
TLFamily_DTSH_FAST .         Fast Shear Slowness           : 
TLFamily_DTSH_SLOW .         Slow Shear Slowness           : 
TLFamily_DTSH_STRVP .         Stoneley Shear Slowness       : 
TLFamily_GAMMA     .         Regularization Factor         : 
TLFamily_GR_EDTC   .         Gamma Ray                     : 
TLFamily_HCAL      .         Caliper                       : 
TLFamily_ISHE      .         Shear Strength                : 
TLFamily_MD        .         Measured Depth                : 
TLFamily_PPGI_MP_TD .         Pore Pressure Gradient        : 
TLFamily_PPGI_PorePressure .         Pore Pressure Gradient        : 
TLFamily_PR_HH     .         Poisson Ratio (Dynamic)       : 
TLFamily_PR_VH     .         Poisson Ratio (Dynamic)       : 
TLFamily_RHOZ      .         Bulk Density                  : 
TLFamily_SDEVM     .         Sonde Deviation               : 
TLFamily_SLOANI    .         Acoustic Anisotropy           : 
TLFamily_SPHI      .         Total Porosity                : 
TLFamily_TENS      .         Tension                       : 
TLFamily_TNPH      .         Thermal Neutron Porosity      : 
TLFamily_TSTR      .         Tensile Strength              : 
TLFamily_TXSG_ANISO .         Minimum Horizontal Stress Gradient: 
TLFamily_TXSG_ISO  .         Minimum Horizontal Stress Gradient: 
TLFamily_TXSP_ANISO .         Minimum Horizontal Stress     : 
TLFamily_TZSG      .         Vertical Stress Gradient      : 
TLFamily_UCS       .         Compressive Strength          : 
TLFamily_YME_H_STA .         Young's Modulus (Dynamic)     : 
TLFamily_YME_V_STA .         Young's Modulus (Dynamic)     : 
~Curve Information
#_______________________________________________________________________________
#
#LOGNAME           .UNIT     LOG_ID                        : DESCRIPTION
#_______________________________________________________________________________
MD                 .ft                                     : Measured DEPTH 
AT10               .ohm.m                                  : Array Induction Two Foot Resistivity A10 
AT20               .ohm.m                                  : Array Induction Two Foot Resistivity A20 
AT30               .ohm.m                                  : Array Induction Two Foot Resistivity A30 
AT60               .ohm.m                                  : Array Induction Two Foot Resistivity A60 
AT90               .ohm.m                                  : Array Induction Two Foot Resistivity A90 
BS                 .in                                     : Bit Size 
C44                .Mpsi                                   : C44 Modulus 
C55                .Mpsi                                   : C55 Modulus 
C66                .Mpsi                                   : C66 Modulus 
DTCO_MF_DDBHC      .us/ft                                  : Compressional slowness 
DTSH_FAST          .us/ft                                  : Shear slowness 
DTSH_SLOW          .us/ft                                  : Shear slowness 
DTSH_STRVP         .us/ft                                  : Stoneley Shear Slowness 
GAMMA              .unitless                               : Thomsens Anisotropy Parameter Gamma 
GR_EDTC            .gAPI                                   : Gamma Ray 
HCAL               .in                                     : HRCC Caliper Calibrated 
ISHE               .psi                                    : Cohesive Strength 
PPGI_MP_TD         .psi/ft                                 : Pore Pressure Gradient 
PPGI_PorePressure  .psi/ft                                 : Pore Pressure Gradient from XRP
PR_HH              .unitless                               : Poissons Ratio - Loading Horizontal - Displacement Horizontal 
PR_VH              .unitless                               : Poissons Ratio - Loading Vertical - Displacement Horizontal 
RHOZ               .g/cm3                                  : Standard Resolution Formation Density 
SDEVM              .deg                                    : Memorized Sonde Deviation 
SLOANI             .%                                      : Slowness-based Anisotropy 
SPHI               .ft3/ft3                                : Total porosity from Sonic 
TENS               .lbf                                    : Cable Tension 
TNPH               .ft3/ft3                                : Thermal Neutron Porosity (Ratio Method) in Selected Lithology 
TSTR               .psi                                    : Tensile Strength 
TXSG_ANISO         .psi/ft                                 : Anisotropic Minimum Horizontal Stress Gradient 
TXSG_ISO           .psi/ft                                 : Isotropic Minimum Horizontal Stress Gradient 
TXSP_ANISO         .psi                                    : Anisotropic Minimum Horizontal Stress 
TZSG               .psi/ft                                 : Overburden Stress Gradient 
UCS                .psi                                    : Unconfined Compressive Strength 
YME_H_STA          .Mpsi                                   :  Static Horizontal Youngs Modulus 
YME_V_STA          .Mpsi                                   : Static Vertical Youngs Modulus 
~Ascii
# ...
7043.0000  130.0874   247.8014   334.7523   319.8125   301.4648   8.5000     4.2976     4.2976     9.5176     55.4730    89.4354    91.5505    60.7959    0.6073     373.5435   8.4326     13311.3271 0.4300     -999.2500  0.3604     0.1875     2.6107     5.3026     2.3373     0.0563     2868.7500  0.0657     3388.0430  1.5518     0.6148     10927.6201 1.0500     40656.5156 23.2580    5.4623    
7043.5000  141.1010   260.3325   319.7363   297.3093   271.0171   8.5000     4.3893     4.3893     10.0079    54.4453    88.9869    89.8615    59.2198    0.6400     354.2091   8.4399     14561.7656 0.4300     -999.2500  0.3557     0.1872     2.6047     5.3105     0.9781     0.0491     2877.6667  0.0545     3654.1135  1.5745     0.6268     11088.2422 1.0500     43849.3633 24.5836    5.6736    
7044.0000  155.2553   267.1431   301.9019   280.3549   260.5619   8.5000     4.4071     4.4071     10.4612    53.1711    88.8142    89.1564    57.7569    0.6868     329.9429   8.4761     16303.9912 0.4300     -999.2500  0.3514     0.1880     2.5899     5.3163     0.3846     0.0401     2874.4375  0.0452     4018.3765  1.6061     0.6515     11311.6143 1.0500     48220.5156 25.6864    5.7908    
7044.5000  167.7087   257.6234   285.9055   261.8916   240.4329   8.5000     4.3712     4.3712     11.0054    52.1278    88.9946    89.3683    56.2042    0.7589     315.9318   8.4399     18077.8203 0.4300     -999.2500  0.3434     0.1884     2.5801     5.3207     0.4190     0.0327     2870.4377  0.0388     4356.5967  1.6356     0.6767     11520.0586 1.0500     52279.1563 26.6679    5.8127    
7045.0000  185.9950   252.3449   297.8968   284.4202   254.0225   8.5000     4.3507     4.3507     11.6756    51.8079    89.2688    89.5767    54.5866    0.8418     309.7173   8.4544     18941.2383 0.4300     -999.2500  0.3312     0.1867     2.5819     5.3230     0.3443     0.0304     2868.6250  0.0338     4482.1719  1.6512     0.6860     11630.6855 1.0500     53786.0664 27.8525    5.8517    
7045.5000  200.2166   232.9378   259.8119   243.6247   217.7996   8.5000     4.3477     4.3477     12.3053    51.9192    89.3879    89.5908    53.1926    0.9152     314.2235   8.4652     18981.3691 0.4300     -999.2500  0.3192     0.1840     2.5840     5.3207     0.2268     0.0312     2876.3125  0.0310     4449.4688  1.6582     0.6845     11681.0098 1.0500     53393.6289 29.1550    5.9372    
7046.0000  200.5537   208.7161   232.5166   212.4290   189.2112   8.5000     4.3469     4.3469     12.7207    51.7618    89.4691    89.6410    52.3508    0.9632     320.9171   8.4544     19333.9355 0.4300     -999.2500  0.3128     0.1829     2.5873     5.3195     0.1919     0.0301     2878.5334  0.0283     4519.3970  1.6687     0.6891     11755.7549 1.0500     54232.7617 30.0597    6.0061    
7046.5000  239.9756   221.4054   248.5727   235.4696   209.9391   8.5000     4.3160     4.3160     12.7709    51.6336    89.6619    89.8233    52.1709    0.9795     311.6370   8.4544     19435.5977 0.4300     -999.2500  0.3114     0.1830     2.5797     5.3184     0.1798     0.0292     2866.5625  0.0279     4541.5718  1.6756     0.6944     11805.0488 1.0500     54498.8594 30.3455    6.0276    
7047.0000  317.5236   253.0165   284.4894   283.9361   249.5591   8.5000     4.2884     4.2884     12.6536    51.6357    90.0189    90.2057    52.4596    0.9753     304.8546   8.4761     19513.8086 0.4300     -999.2500  0.3128     0.1837     2.5844     5.3166     0.2073     0.0292     2852.0625  0.0277     4560.1221  1.6798     0.6990     11835.7930 1.0500     54721.4648 30.2980    6.0309    
7047.5000  422.1035   287.0226   311.2159   296.3622   267.0743   8.5000     4.2598     4.2598     12.5181    52.0128    90.5097    90.7682    52.8733    0.9693     292.7260   8.4834     19136.1719 0.4300     -999.2500  0.3134     0.1837     2.5972     5.3145     0.2852     0.0319     2858.0000  0.0278     4472.4170  1.6804     0.6982     11840.8535 1.0500     53669.0039 30.4191    6.0682    
7048.0000  544.6699   352.3960   381.1994   344.4679   322.2911   8.5000     4.2140     4.2140     12.4302    52.6712    91.0938    91.4398    53.1396    0.9749     308.2184   8.4834     18290.5859 0.4300     -999.2500  0.3114     0.1827     2.6050     5.3124     0.3791     0.0365     2884.0625  0.0295     4274.3042  1.6741     0.6916     11797.4150 1.0500     51291.6523 30.4631    6.0597    
7048.5000  706.9161   397.9283   408.3437   322.3805   309.5911   8.5000     4.1684     4.1684     12.4459    53.5356    91.7310    92.1227    53.1999    0.9929     326.5548   8.4834     17224.4688 0.4300     -999.2500  0.3068     0.1808     2.6142     5.3105     0.4262     0.0427     2891.8750  0.0327     4024.6345  1.6618     0.6799     11711.1523 1.0500     48295.6133 30.4363    6.0051    
7049.0000  719.0942   399.5135   373.2860   328.4507   308.8437   8.5000     4.1246     4.1246     12.4945    54.2487    92.3930    92.7403    53.1842    1.0146     341.0045   8.4834     16413.4590 0.4300     -999.2500  0.3024     0.1791     2.6228     5.3085     0.3752     0.0477     2886.5627  0.0349     3835.1355  1.6484     0.6701     11617.9277 1.0500     46021.6289 30.1179    5.8873    
7049.5000  688.4932   331.7086   305.2684   278.0145   267.8336   8.5000     4.0940     4.0940     12.4900    54.4809    92.9839    93.1762    53.2906    1.0254     344.8753   8.4834     16259.9063 0.4300     -999.2500  0.3012     0.1789     2.6324     5.3027     0.2067     0.0493     2891.5332  0.0347     3799.2568  1.6457     0.6701     11599.3779 1.0500     45591.0820 29.8721    5.8161    
7050.0000  633.7313   286.2504   260.7198   260.3592   238.8766   8.5000     4.0685     4.0685     12.3032    54.7348    93.1005    93.5242    53.6590    1.0120     337.4301   8.5051     15907.7070 0.4300     -999.2500  0.3026     0.1790     2.6290     5.2972     0.4541     0.0511     2883.1250  0.0330     3716.9626  1.6387     0.6667     11551.0000 1.0500     44603.5508 29.4060    5.7533    
