~Version
 VERS              .         2.0                           : CWLS LOG ASCII STANDARD - VERSION 2.0
 WRAP              .         NO                            : ONE LINE PER DEPTH STEP
 DLM               .         SPACE                         : DELIMITING CHARACTER(SPACE TAB OR COMMA)
~Well Information
#_______________________________________________________________________________
#
#PARAMETER_NAME    .UNIT     VALUE                         : DESCRIPTION
#_______________________________________________________________________________
STRT               .ft       4040.0000                     : First reference value
STOP               .ft       7075.0000                     : Last reference value
STEP               .ft       0.5000                        : Step increment
NULL               .         -999.25                       : Missing value
COMP               .         One Earth Energy              : Company
WELL               .         OEE #1                        : Well name
FLD                .         OEE                           : Field
LOC                .                                       : Location
PROV               .         Illinois                      : Province
SRVC               .         Schlumberger                  : Service Company
DATE               .         26-Dec-2021                   : Date
UWI                .         12-113-25373-00               : Unique Well ID
APD                .ft       15                            : Elevation of Depth Reference (LMF) Above Permanent Datum
API                .         12-113-25373-00               : API NUMBER
BHS                .         OPEN                          : Borehole Status (Open or Cased Hole)
BHT                .degF     93.71                         : Bottom Hole Temperature
BLI                .ft       4052                          : Bottom Log Interval
BS                 .in       12.25                         : Bit Size
CBDR               .ft       374                           : Casing Bottom of Driller
CBLO               .ft       374                           : Logger Casing Shoe Depth
CNTY               .         McLean                        : COUNTY
CSIZ               .in       13.375                        : Current Casing Size
CWEI               .lbm/ft   54.5                          : Casing Weight
CTRY               .         United States of America - US : Nation
DCS                .         23-Dec-2021                   : Date Circulation Stopped
DFD                .lbm/gal  9.25                          : Drilling Fluid Density
DFT                .         WATER                         : Drilling Fluid Type
DLAB               .         26-Dec-2021                   : Date Logger At Bottom
EDF                .ft       840.0001                      : Elevation of Drill Floor
EGL                .ft       826                           : Elevation of Ground Level
EKB                .ft       841                           : Elevation of Kelly Bushing
EPD                .ft       826                           : Elevation of Permanent Datum (PDAT) above Mean Sea Level
GDAT               .                                       : GeoDetic Datum
LMF                .         KB                            : Logging Measured From (Name of Logging Elevation Reference)
LUL                .         Bradford                      : Logging Unit Location
LUN                .         2266                          : Logging Unit Number
LATI               .         40.485663 degrees             : Latitude
LONG               .         -88.468241 degrees            : Longitude
MCST               .degF     67.9                          : Mudcake Sample Temperature
MFST               .degF     66.3                          : Mud Filtrate Sample Temperature
MRT                .degF     93.71                         : Maximum Recorded Temperature
MST                .degF     65.4                          : Mud Sample Temperature
ORIGINALWELLNAME   .         OEE #1                        : 
PDAT               .         GL                            : Permanent Datum
PRODUCER-CODE      .         440                           : 
PRODUCER-NAME      .         Schlumberger                  : 
RMB                .ohm.m    3.533802                      : Resistivity of Mud at Bottom Hole Temperature
RMCS               .ohm.m    6.12                          : Resistivity of Mud Cake Sample
RMFS               .ohm.m    3.85                          : Resistivity of Mud Filtrate Sample
RMS                .ohm.m    4.92                          : Resistivity of Mud Sample
RUN                .         1C                            : Run Number
STAT               .         Illinois                      : State or Province
TCS                .         23_45_00                      : Time Circulation Stopped
TDD                .ft       4052                          : Driller Total Depth
TDL                .ft       4052                          : Logger Total Depth
TLAB               .         02_57_00                      : Time Logger At Bottom
TLI                .ft       379                           : Top Log Interval
~Parameter Information Block
#_______________________________________________________________________________
#
#PARAMETER_NAME    .UNIT     VALUE                         : DESCRIPTION
#_______________________________________________________________________________
SET                .         LQC                           : 
TLFamily_AT10      .         Resistivity - Induction Array 10: 
TLFamily_AT20      .         Resistivity - Induction Array 20: 
TLFamily_AT30      .         Resistivity - Induction Array 30: 
TLFamily_AT60      .         Resistivity - Induction Array 60: 
TLFamily_AT90      .         Resistivity - Induction Array 90: 
TLFamily_BS        .         Bit Size                      : 
TLFamily_Calcite_QE .        Calcite Volume Fraction       : 
TLFamily_HCAL      .         Caliper                       : 
TLFamily_HCGR      .         Gamma Ray Minus Uranium       : 
TLFamily_HSGR      .         Gamma Ray                     : 
TLFamily_HTHO      .         Thorium Concentration         : 
TLFamily_Illite_QE .         Illite Volume Fraction        : 
TLFamily_KINT_GEO_QE .       Permeability                  : 
TLFamily_KSDR_CMR  .         NMR Permeability              : 
TLFamily_MD        .         Measured Depth                : 
TLFamily_MRP_CMR   .         NMR Porosity                  : 
TLFamily_MRP_CMR_Edited .    NMR Porosity                  : 
TLFamily_MRP_CMR_Edited_REC_QE .NMR Porosity               : 
TLFamily_PHIT_QE   .         Total Porosity                : 
TLFamily_PIGN_QE   .         Effective Porosity            : 
TLFamily_Pyrite_QE .         Pyrite Volume Fraction        : 
TLFamily_Quartz_QE .         Quartz Volume Fraction        : 
TLFamily_RHGA_GEO_QE .       Grain Density                 : 
TLFamily_RHOZ      .         Bulk Density                  : 
TLFamily_TNPH_LIM  .         Thermal Neutron Porosity Limestone: 
TLFamily_UWater_QE .         Undisturbed Zone Water Volume Fraction: 
TLFamily_VCL_GEO_QE .        Clay Volume Fraction          : 
TLFamily_WANH_WALK2 .        Anhydrite Weight Fraction     : 
TLFamily_WCAR_WALK2 .        Carbonate Weight Fraction     : 
TLFamily_WCLA_WALK2 .        Clay Weight Fraction          : 
TLFamily_WCOA_WALK2 .        Coal Weight Fraction          : 
TLFamily_WPYR_WALK2 .        Pyrite Weight Fraction        : 
TLFamily_WQFM_WALK2 .        Quartz-Feldspar-Mica Weight Fraction: 
~Curve Information
#_______________________________________________________________________________
#
#LOGNAME           .UNIT     LOG_ID                        : DESCRIPTION
#_______________________________________________________________________________
MD                 .ft                                     : Measured DEPTH 
AT10               .ohm.m                                  : Array Induction Two Foot Resistivity A10 
AT20               .ohm.m                                  : Array Induction Two Foot Resistivity A20 
AT30               .ohm.m                                  : Array Induction Two Foot Resistivity A30 
AT60               .ohm.m                                  : Array Induction Two Foot Resistivity A60 
AT90               .ohm.m                                  : Array Induction Two Foot Resistivity A90 
BS                 .in                                     : Bit Size 
Calcite_QE         .v/v                                    : Calcite Volume Fraction 
HCAL               .in                                     : HRCC Caliper Calibrated 
HCGR               .gAPI                                   : HNGS Computed Gamma Ray 
HSGR               .gAPI                                   : HNGS Standard Gamma-Ray 
HTHO               .ppm                                    : HNGS Formation Thorium Concentration 
Illite_QE          .v/v                                    : Illite Volume Fraction 
KINT_GEO_QE        .mD                                     : Permeability (Juhasz 1979) 
KSDR_CMR           .mD                                     : SDR Permeability 
MRP_CMR            .ft3/ft3                                : Magnetic Resonance Porosity 
MRP_CMR_Edited     .ft3/ft3                                : Magnetic Resonance Porosity 
MRP_CMR_Edited_REC_QE .ft3/ft3                             : Quanti.Elan Reconstructed curve 
PHIT_QE            .v/v                                    : Total Porosity 
PIGN_QE            .v/v                                    : Effective porosity (with irreducible water) 
Pyrite_QE          .v/v                                    : Pyrite Volume Fraction 
Quartz_QE          .v/v                                    : Quartz Volume Fraction 
RHGA_GEO_QE        .g/cm3                                  : Apparent grain density 
RHOZ               .g/cm3                                  : Standard Resolution Formation Density 
TNPH_LIM           .ft3/ft3                                : Thermal Neutron Porosity (matrix Limestone) 
UWater_QE          .v/v                                    : Undisturbed Zone Water Volume Fraction 
VCL_GEO_QE         .v/v                                    : Clay fraction 
WANH_WALK2         .lbm/lbm                                : Dry Weight Fraction Anhydrite/Gypsum 
WCAR_WALK2         .lbm/lbm                                : Dry Weight Fraction Carbonate 
WCLA_WALK2         .lbm/lbm                                : Dry Weight Fraction Clay 
WCOA_WALK2         .lbm/lbm                                : Dry Weight Fraction Coal 
WPYR_WALK2         .lbm/lbm                                : Dry Weight Fraction Pyrite from WALK2 Model 
WQFM_WALK2         .lbm/lbm                                : Dry Weight Fraction Quartz+Feldspar+Mica (QFM) 
~Ascii
# ...
5454.5000  43.7524    23.3308    14.0217    9.6034     8.7846     8.5000     0.0001     8.5269     26.2183    29.2366    4.3975     0.0009     20.0648    3.3630     0.0878     0.0878     0.0903     0.0903     0.0901     0.0000     0.8557     2.6455     2.4861     0.0445     0.0721     0.0010     0.0000     0.0000     0.0015     0.0000     0.0000     0.9985    
5455.0000  43.5425    23.9004    14.1995    9.3540     8.4517     8.5000     0.0001     8.5341     24.2957    27.3524    4.0349     0.0025     19.0536    4.1569     0.0882     0.0882     0.0904     0.0904     0.0901     0.0000     0.8580     2.6461     2.4915     0.0436     0.0735     0.0028     0.0000     0.0000     0.0033     0.0000     0.0000     0.9967    
5455.5000  42.4248    21.8861    13.3228    8.7709     7.7779     8.5000     0.0000     8.5196     22.1726    25.2409    3.6728     0.0056     19.8721    4.8703     0.0887     0.0887     0.0903     0.0938     0.0931     0.0000     0.8571     2.6470     2.4942     0.0414     0.0760     0.0063     0.0000     0.0000     0.0069     0.0000     0.0000     0.9931    
5456.0000  38.8072    18.7397    11.6367    7.8377     6.8865     8.5000     0.0000     8.5269     20.9147    23.9623    3.3977     0.0047     26.4032    5.6602     0.0913     0.0913     0.0921     0.1007     0.1001     0.0000     0.8526     2.6470     2.4821     0.0400     0.0793     0.0053     0.0000     0.0000     0.0058     0.0000     0.0000     0.9942    
5456.5000  34.9866    16.6695    10.7814    7.3513     6.4368     8.5000     0.0000     8.5196     19.5867    23.0791    3.1299     0.0036     33.5849    6.7149     0.0969     0.0969     0.0972     0.1067     0.1063     0.0000     0.8495     2.6470     2.4721     0.0419     0.0808     0.0040     0.0000     0.0000     0.0044     0.0000     0.0000     0.9956    
5457.0000  32.5245    16.5903    10.7108    7.1346     6.0658     8.5000     0.0000     8.5305     19.4951    22.8512    3.0257     0.0016     40.2686    7.4310     0.1035     0.1035     0.1037     0.1103     0.1101     0.0000     0.8462     2.6465     2.4649     0.0454     0.0824     0.0018     0.0000     0.0000     0.0020     0.0000     0.0000     0.9980    
5457.5000  29.3427    15.6072    10.4637    6.8750     5.8965     8.5000     0.0000     8.5522     19.0552    22.8795    2.9646     0.0064     36.1843    7.3172     0.1084     0.1084     0.1085     0.1107     0.1099     0.0000     0.8436     2.6475     2.4622     0.0479     0.0839     0.0073     0.0000     0.0000     0.0081     0.0000     0.0000     0.9919    
5458.0000  27.3754    14.7826    9.9668     6.6669     5.5768     8.5000     0.0000     8.5559     19.1578    22.6168    2.9452     0.0089     34.1818    6.8552     0.1101     0.1101     0.1105     0.1106     0.1095     0.0000     0.8413     2.6479     2.4608     0.0507     0.0865     0.0100     0.0000     0.0000     0.0112     0.0000     0.0000     0.9888    
5458.5000  25.7113    13.8744    9.5427     6.4744     5.3239     8.5000     0.0001     8.5559     20.0468    23.1034    3.1208     0.0118     32.2467    6.5945     0.1098     0.1098     0.1107     0.1107     0.1092     0.0000     0.8379     2.6483     2.4611     0.0510     0.0888     0.0133     0.0000     0.0000     0.0148     0.0000     0.0000     0.9852    
5459.0000  24.7589    13.3583    9.4153     6.4156     5.2193     8.5000     0.0001     8.5341     19.1320    22.9560    2.8576     0.0065     37.1638    7.0610     0.1094     0.1094     0.1106     0.1112     0.1104     0.0000     0.8411     2.6473     2.4555     0.0512     0.0893     0.0073     0.0000     0.0000     0.0084     0.0000     0.0000     0.9916    
5459.5000  23.6652    13.0065    9.3413     6.4055     5.1706     8.5000     0.0001     8.5414     19.9455    23.4825    2.9382     0.0036     42.2727    8.8056     0.1094     0.1094     0.1109     0.1125     0.1121     0.0000     0.8391     2.6465     2.4455     0.0507     0.0894     0.0040     0.0000     0.0000     0.0050     0.0000     0.0000     0.9950    
5460.0000  22.8050    12.7778    9.3496     6.4579     5.1894     8.5000     0.0002     8.5631     18.8550    22.5917    2.7004     0.0001     48.7587    11.6041    0.1096     0.1096     0.1119     0.1145     0.1145     0.0000     0.8406     2.6460     2.4366     0.0530     0.0887     0.0001     0.0000     0.0000     0.0009     0.0000     0.0000     0.9991    
5460.5000  22.2130    12.6586    9.4312     6.5267     5.2704     8.5000     0.0002     8.5414     19.6538    23.3216    2.7155     0.0006     40.5959    13.6972    0.1105     0.1105     0.1135     0.1090     0.1089     0.0000     0.8423     2.6458     2.4343     0.0575     0.0894     0.0006     0.0000     0.0000     0.0018     0.0000     0.0000     0.9982    
5461.0000  21.8150    12.4439    9.5466     6.6320     5.4062     8.5000     0.0003     8.5776     20.9466    24.9625    2.8953     0.0043     27.4696    11.1314    0.1075     0.1075     0.1118     0.1003     0.0998     0.0000     0.8448     2.6462     2.4377     0.0621     0.0908     0.0049     0.0000     0.0000     0.0069     0.0000     0.0000     0.9931    
5461.5000  22.2325    12.4266    9.7279     6.7773     5.5885     8.5000     0.0003     8.5994     31.1533    37.4460    4.3032     0.0150     16.7479    5.1440     0.0985     0.0985     0.1047     0.0909     0.0890     0.0000     0.8222     2.6460     2.4594     0.0671     0.0890     0.0169     0.0000     0.0000     0.0204     0.0000     0.0000     0.9796    
5462.0000  22.9489    12.8201    10.1645    7.0557     5.8587     8.5000     0.0006     8.6066     61.8531    74.0143    8.6407     0.0455     9.6934     1.3855     0.0884     0.0884     0.0956     0.0863     0.0805     0.0000     0.7351     2.6454     2.5054     0.0763     0.0805     0.0513     0.0000     0.0000     0.0617     0.0000     0.0000     0.9383    
5462.5000  24.2438    13.3450    10.4176    7.2512     6.1280     8.5000     0.0000     8.6066     96.5131    115.1116   13.7991    0.0574     11.8806    0.4047     0.0823     0.0823     0.0886     0.0895     0.0822     0.0029     0.6446     2.6482     2.5509     0.1012     0.0822     0.0648     0.0000     0.0000     0.0864     0.0000     0.0000     0.9136    
5463.0000  24.0948    13.4742    10.8083    7.5474     6.3877     8.5000     0.0000     8.6066     101.9717   122.1000   14.6839    0.0537     18.6498    0.4787     0.0864     0.0864     0.0879     0.0971     0.0902     0.0038     0.6283     2.6489     2.5587     0.1427     0.0841     0.0605     0.0000     0.0000     0.0830     0.0000     0.0000     0.9170    
5463.5000  23.7068    13.7442    10.9703    7.6443     6.6218     8.5000     0.0000     8.5957     76.2202    91.6538    11.1216    0.0281     34.1093    1.6803     0.0986     0.0986     0.0933     0.1054     0.1018     0.0033     0.6993     2.6485     2.5290     0.1268     0.0799     0.0317     0.0000     0.0000     0.0423     0.0000     0.0000     0.9577    
5464.0000  23.3771    14.2889    11.5888    8.1478     7.0613     8.5000     0.0000     8.5631     41.7145    50.2502    6.0631     0.0062     46.1858    4.9188     0.1090     0.1090     0.1012     0.1105     0.1097     0.0020     0.7883     2.6478     2.4905     0.0881     0.0760     0.0070     0.0000     0.0000     0.0097     0.0000     0.0000     0.9903    
5464.5000  23.3280    15.0993    12.0463    8.5728     7.4834     8.5000     0.0000     8.5740     26.2768    31.1864    3.9134     0.0017     44.1378    9.3492     0.1134     0.1134     0.1079     0.1107     0.1105     0.0005     0.8287     2.6463     2.4676     0.0683     0.0739     0.0019     0.0000     0.0000     0.0025     0.0000     0.0000     0.9975    
5465.0000  23.7866    15.8480    12.6743    9.0861     7.8497     8.5000     0.0000     8.5559     20.9415    25.1979    3.0862     0.0052     36.3761    11.5387    0.1129     0.1129     0.1106     0.1091     0.1084     0.0000     0.8398     2.6467     2.4603     0.0623     0.0728     0.0059     0.0000     0.0000     0.0066     0.0000     0.0000     0.9934    
5465.5000  25.3215    16.5990    13.3913    9.7166     8.4002     8.5000     0.0001     8.5559     21.4910    25.8283    3.2285     0.0046     31.9559    10.3392    0.1100     0.1100     0.1099     0.1049     0.1044     0.0000     0.8437     2.6465     2.4602     0.0539     0.0712     0.0051     0.0000     0.0000     0.0060     0.0000     0.0000     0.9940    
