~Version
 VERS              .         2.0                           : CWLS LOG ASCII STANDARD - VERSION 2.0
 WRAP              .         NO                            : ONE LINE PER DEPTH STEP
 DLM               .         SPACE                         : DELIMITING CHARACTER(SPACE TAB OR COMMA)
~Well Information
#_______________________________________________________________________________
#
#PARAMETER_NAME    .UNIT     VALUE                         : DESCRIPTION
#_______________________________________________________________________________
STRT               .ft       4040.0000                     : First reference value
STOP               .ft       7050.0000                     : Last reference value
STEP               .ft       0.5000                        : Step increment
NULL               .         -999.25                       : Missing value
COMP               .         One Earth Energy              : Company
WELL               .         OEE #1                        : Well name
FLD                .         OEE                           : Field
LOC                .                                       : Location
PROV               .         Illinois                      : Province
SRVC               .         Schlumberger                  : Service Company
DATE               .         26-Dec-2021                   : Date
UWI                .         12-113-25373-00               : Unique Well ID
APD                .ft       15                            : Elevation of Depth Reference (LMF) Above Permanent Datum
API                .         12-113-25373-00               : API NUMBER
BHS                .         OPEN                          : Borehole Status (Open or Cased Hole)
BHT                .degF     93.71                         : Bottom Hole Temperature
BLI                .ft       4052                          : Bottom Log Interval
BS                 .in       12.25                         : Bit Size
CBDR               .ft       374                           : Casing Bottom of Driller
CBLO               .ft       374                           : Logger Casing Shoe Depth
CNTY               .         McLean                        : COUNTY
CSIZ               .in       13.375                        : Current Casing Size
CWEI               .lbm/ft   54.5                          : Casing Weight
CTRY               .         United States of America - US : Nation
DCS                .         23-Dec-2021                   : Date Circulation Stopped
DFD                .lbm/gal  9.25                          : Drilling Fluid Density
DFT                .         WATER                         : Drilling Fluid Type
DLAB               .         26-Dec-2021                   : Date Logger At Bottom
EDF                .ft       840.0001                      : Elevation of Drill Floor
EGL                .ft       826                           : Elevation of Ground Level
EKB                .ft       841                           : Elevation of Kelly Bushing
EPD                .ft       826                           : Elevation of Permanent Datum (PDAT) above Mean Sea Level
GDAT               .                                       : GeoDetic Datum
LMF                .         KB                            : Logging Measured From (Name of Logging Elevation Reference)
LUL                .         Bradford                      : Logging Unit Location
LUN                .         2266                          : Logging Unit Number
LATI               .         40.485663 degrees             : Latitude
LONG               .         -88.468241 degrees            : Longitude
MCST               .degF     67.9                          : Mudcake Sample Temperature
MFST               .degF     66.3                          : Mud Filtrate Sample Temperature
MRT                .degF     93.71                         : Maximum Recorded Temperature
MST                .degF     65.4                          : Mud Sample Temperature
ORIGINALWELLNAME   .         OEE #1                        : 
PDAT               .         GL                            : Permanent Datum
PRODUCER-CODE      .         440                           : 
PRODUCER-NAME      .         Schlumberger                  : 
RMB                .ohm.m    3.533802                      : Resistivity of Mud at Bottom Hole Temperature
RMCS               .ohm.m    6.12                          : Resistivity of Mud Cake Sample
RMFS               .ohm.m    3.85                          : Resistivity of Mud Filtrate Sample
RMS                .ohm.m    4.92                          : Resistivity of Mud Sample
RUN                .         1C                            : Run Number
STAT               .         Illinois                      : State or Province
TCS                .         23_45_00                      : Time Circulation Stopped
TDD                .ft       4052                          : Driller Total Depth
TDL                .ft       4052                          : Logger Total Depth
TLAB               .         02_57_00                      : Time Logger At Bottom
TLI                .ft       379                           : Top Log Interval
~Parameter Information Block
#_______________________________________________________________________________
#
#PARAMETER_NAME    .UNIT     VALUE                         : DESCRIPTION
#_______________________________________________________________________________
SET                .         LQC_MP_043_Deliverables       : 
TLFamily_AT10      .         Resistivity - Induction Array 10: 
TLFamily_AT20      .         Resistivity - Induction Array 20: 
TLFamily_AT30      .         Resistivity - Induction Array 30: 
TLFamily_AT60      .         Resistivity - Induction Array 60: 
TLFamily_AT90      .         Resistivity - Induction Array 90: 
TLFamily_BS        .         Bit Size                      : 
TLFamily_C44       .         Elastic Modulus               : 
TLFamily_C55       .         Elastic Modulus               : 
TLFamily_C66       .         Elastic Modulus               : 
TLFamily_DTCO_MF_DDBHC .         Compressional Slowness        : 
TLFamily_DTSH_FAST .         Fast Shear Slowness           : 
TLFamily_DTSH_SLOW .         Slow Shear Slowness           : 
TLFamily_DTSH_STRVP .         Stoneley Shear Slowness       : 
TLFamily_GAMMA     .         Regularization Factor         : 
TLFamily_GR_EDTC   .         Gamma Ray                     : 
TLFamily_HCAL      .         Caliper                       : 
TLFamily_ISHE      .         Shear Strength                : 
TLFamily_MD        .         Measured Depth                : 
TLFamily_PPGI_MP_TD .         Pore Pressure Gradient        : 
TLFamily_PPGI_PorePressure .         Pore Pressure Gradient        : 
TLFamily_PR_HH     .         Poisson Ratio (Dynamic)       : 
TLFamily_PR_VH     .         Poisson Ratio (Dynamic)       : 
TLFamily_RHOZ      .         Bulk Density                  : 
TLFamily_SDEVM     .         Sonde Deviation               : 
TLFamily_SLOANI    .         Acoustic Anisotropy           : 
TLFamily_SPHI      .         Total Porosity                : 
TLFamily_TENS      .         Tension                       : 
TLFamily_TNPH      .         Thermal Neutron Porosity      : 
TLFamily_TSTR      .         Tensile Strength              : 
TLFamily_TXSG_ANISO .         Minimum Horizontal Stress Gradient: 
TLFamily_TXSG_ISO  .         Minimum Horizontal Stress Gradient: 
TLFamily_TXSP_ANISO .         Minimum Horizontal Stress     : 
TLFamily_TZSG      .         Vertical Stress Gradient      : 
TLFamily_UCS       .         Compressive Strength          : 
TLFamily_YME_H_STA .         Young's Modulus (Dynamic)     : 
TLFamily_YME_V_STA .         Young's Modulus (Dynamic)     : 
~Curve Information
#_______________________________________________________________________________
#
#LOGNAME           .UNIT     LOG_ID                        : DESCRIPTION
#_______________________________________________________________________________
MD                 .ft                                     : Measured DEPTH 
AT10               .ohm.m                                  : Array Induction Two Foot Resistivity A10 
AT20               .ohm.m                                  : Array Induction Two Foot Resistivity A20 
AT30               .ohm.m                                  : Array Induction Two Foot Resistivity A30 
AT60               .ohm.m                                  : Array Induction Two Foot Resistivity A60 
AT90               .ohm.m                                  : Array Induction Two Foot Resistivity A90 
BS                 .in                                     : Bit Size 
C44                .Mpsi                                   : C44 Modulus 
C55                .Mpsi                                   : C55 Modulus 
C66                .Mpsi                                   : C66 Modulus 
DTCO_MF_DDBHC      .us/ft                                  : Compressional slowness 
DTSH_FAST          .us/ft                                  : Shear slowness 
DTSH_SLOW          .us/ft                                  : Shear slowness 
DTSH_STRVP         .us/ft                                  : Stoneley Shear Slowness 
GAMMA              .unitless                               : Thomsens Anisotropy Parameter Gamma 
GR_EDTC            .gAPI                                   : Gamma Ray 
HCAL               .in                                     : HRCC Caliper Calibrated 
ISHE               .psi                                    : Cohesive Strength 
PPGI_MP_TD         .psi/ft                                 : Pore Pressure Gradient 
PPGI_PorePressure  .psi/ft                                 : Pore Pressure Gradient from XRP
PR_HH              .unitless                               : Poissons Ratio - Loading Horizontal - Displacement Horizontal 
PR_VH              .unitless                               : Poissons Ratio - Loading Vertical - Displacement Horizontal 
RHOZ               .g/cm3                                  : Standard Resolution Formation Density 
SDEVM              .deg                                    : Memorized Sonde Deviation 
SLOANI             .%                                      : Slowness-based Anisotropy 
SPHI               .ft3/ft3                                : Total porosity from Sonic 
TENS               .lbf                                    : Cable Tension 
TNPH               .ft3/ft3                                : Thermal Neutron Porosity (Ratio Method) in Selected Lithology 
TSTR               .psi                                    : Tensile Strength 
TXSG_ANISO         .psi/ft                                 : Anisotropic Minimum Horizontal Stress Gradient 
TXSG_ISO           .psi/ft                                 : Isotropic Minimum Horizontal Stress Gradient 
TXSP_ANISO         .psi                                    : Anisotropic Minimum Horizontal Stress 
TZSG               .psi/ft                                 : Overburden Stress Gradient 
UCS                .psi                                    : Unconfined Compressive Strength 
YME_H_STA          .Mpsi                                   :  Static Horizontal Youngs Modulus 
YME_V_STA          .Mpsi                                   : Static Vertical Youngs Modulus 
~Ascii
4040.0000  1949.9996  1.4657     1949.9996  69.1469    240.5035   12.2500    -999.2500  -999.2500  -999.2500  74.6398    -999.2500  -999.2500  139.4965   -999.2500  68.4653    8.8313     -999.2500  -999.2500  -999.2500  -999.2500  -999.2500  3.9835     0.4670     -999.2500  0.1918     1969.1876  0.2933     -999.2500  -999.2500  -999.2500  -999.2500  -999.2500  -999.2500  -999.2500  -999.2500 
4040.5000  1949.9996  1.4490     1927.3126  70.9634    220.7181   12.2500    2.8901     2.9304     2.7827     75.1192    135.0796   136.0178   138.6196   -0.0186    69.7954    8.8313     3175.7634  0.4300     -999.2500  0.2687     0.2782     3.9683     0.4644     0.6921     0.1952     1956.3333  0.3065     1351.0140  0.7348     0.7463     2968.8025  1.0500     16212.1680 6.1845     6.4049    
4041.0000  1949.9996  1.4323     1789.4523  75.8887    202.9203   12.2500    2.8544     2.8678     2.7318     75.7710    136.4606   136.7816   139.8168   0.0000     71.3067    8.8458     3067.7778  0.4300     -999.2500  0.2745     0.2778     3.9633     0.4624     0.2349     0.1998     1967.3334  0.2948     1300.1907  0.7403     0.7515     2991.7078  1.0500     15602.2871 6.1522     6.2262    
4041.5000  1949.9996  1.4141     1555.3052  87.4278    180.6558   12.2500    2.7821     2.8078     2.6115     75.4490    137.9380   138.5726   143.0280   -0.0307    72.3944    8.8386     3125.5684  0.4300     -999.2500  0.2814     0.2880     3.9648     0.4599     0.4590     0.1975     1962.8668  0.3144     1322.0493  0.7493     0.7572     3028.4199  1.0500     15864.5918 5.9814     6.1235    
4042.0000  1949.9996  1.3922     1259.6510  101.4874   147.5401   12.2500    2.5889     2.6276     2.4602     76.4508    142.5540   143.6155   147.3261   -0.0249    68.8075    8.8313     2949.8093  0.4300     -999.2500  0.2895     0.3007     3.9629     0.4584     0.7419     0.2046     1963.6669  0.3066     1246.4828  0.7559     0.7689     3055.1858  1.0500     14957.7939 5.5610     5.7773    
4042.5000  1949.9996  1.3670     987.9664   113.5135   111.7561   12.2500    2.4562     2.4835     2.3200     78.1050    146.3863   147.1983   151.4561   -0.0277    68.6883    8.8458     2685.0564  0.4300     -999.2500  0.2945     0.3030     3.9496     0.4558     0.5532     0.2163     1954.8668  0.3247     1134.6189  0.7574     0.7670     3061.5996  1.0500     13615.4258 5.3159     5.4700    
4043.0000  1949.9996  1.3411     795.3940   107.4184   84.2222    12.2500    2.4145     2.4444     2.2158     79.9374    147.0489   147.9560   154.4467   -0.0411    67.4529    8.8241     2423.0662  0.4300     -999.2500  0.2833     0.2923     3.9227     0.4533     0.6150     0.2292     1978.6875  0.3242     1025.6636  0.7366     0.7469     2978.2446  1.0500     12307.9629 5.1895     5.3555    
4043.5000  1949.9996  1.3175     677.9147   78.1152    62.3636    12.2500    2.4366     2.4577     2.1598     81.4511    146.0932   146.7221   155.8419   -0.0568    71.3039    8.8241     2221.6292  0.4300     -999.2500  0.2698     0.2758     3.8929     0.4498     0.4295     0.2399     1976.2002  0.3393     940.8274   0.7145     0.7212     2888.9146  1.0500     11289.9287 5.2052     5.3198    
4044.0000  1949.9996  1.2985     552.5718   60.6334    57.4252    12.2500    2.5062     2.5241     2.1526     80.9449    143.7171   144.2293   155.6268   -0.0706    75.4029    8.8349     2250.1941  0.4300     -999.2500  0.2639     0.2687     3.8691     0.4463     0.3558     0.2364     1960.9333  0.3274     953.1827   0.7077     0.7132     2861.8945  1.0500     11438.1924 5.3392     5.4360    
4044.5000  1949.9996  1.2858     362.7226   43.3090    56.4599    12.2500    2.7501     2.7833     2.1906     79.3338    136.6374   137.4590   154.0147   -0.1017    88.4248    8.8241     2413.0339  0.4300     -999.2500  0.2399     0.2472     3.8564     0.4446     0.5995     0.2250     1954.8668  0.3218     1022.3921  0.6810     0.6895     2754.1047  1.0500     12268.7051 5.7223     5.8945    
4045.0000  1949.9996  1.2835     182.4440   24.3359    49.5647    12.2500    3.0912     3.1438     2.2696     77.1075    128.4982   129.5866   151.2331   -0.1329    96.7778    8.8349     2662.2673  0.4300     -999.2500  0.2115     0.2202     3.8524     0.4429     0.8435     0.2092     1967.5333  0.3055     1128.2156  0.6519     0.6630     2636.9868  1.0500     13538.5869 6.2567     6.5165    
4045.5000  1949.9996  1.3021     85.4150    18.9883    43.4504    12.2500    3.4778     3.5214     2.3898     73.8205    121.4559   122.2147   147.4341   -0.1564    98.9246    8.8132     3147.5164  0.4300     -999.2500  0.2020     0.2081     3.8552     0.4411     0.6228     0.1860     1970.9333  0.2997     1333.9497  0.6521     0.6603     2637.9211  1.0500     16007.3965 7.0153     7.2278    
4046.0000  1949.9996  1.3562     36.2803    14.4011    30.9406    8.5000     3.8901     3.9152     2.5510     69.8834    115.2580   115.6288   142.7867   -0.1721    95.4460    8.8241     3936.8818  0.4300     -999.2500  0.2067     0.2099     3.8599     0.4393     0.3213     0.1582     1970.8666  0.2981     1667.8781  0.6738     0.6783     2726.1057  1.0500     20014.5371 7.9191     8.0426    
4046.5000  436.0264   1.4744     20.0753    9.0885     16.3894    8.5000     4.2048     4.2474     2.7491     64.9522    110.7188   111.2778   137.6209   -0.1731    92.2421    8.8313     5377.7075  0.4300     -999.2500  0.2329     0.2388     3.8641     0.4373     0.5036     0.1233     1956.3333  0.2720     2277.7019  0.7281     0.7364     2946.2244  1.0500     27332.4219 8.7108     8.9293    
4047.0000  42.3399    1.6031     21.3561    6.9283     9.9087     8.5000     4.5542     4.6292     2.9210     59.8387    106.4748   107.3488   134.0405   -0.1793    84.4442    8.8096     7641.8687  0.4300     -999.2500  0.2606     0.2715     3.8949     0.4351     0.8175     0.0872     1956.1333  0.2588     3234.1189  0.7922     0.8081     3205.8335  1.0500     38809.4258 9.5744     9.9757    
4047.5000  10.1515    1.8830     9.2643     6.6315     9.5441     8.5000     5.3284     5.4049     3.2250     55.6729    100.6123   101.3313   130.2496   -0.1974    68.8208    8.8386     11093.9336 0.4300     -999.2500  0.2716     0.2815     4.0605     0.4328     0.7121     0.0578     1962.3750  0.2698     4686.0747  0.8460     0.8616     3424.1118  1.0500     56232.8984 11.2853    11.7002   
4048.0000  4.4888     2.6393     8.0960     9.8419     15.5092    8.5000     6.4269     6.4855     3.5635     52.3889    94.6778    95.1088    127.7262   -0.2228    50.0717    8.8132     16031.4541 0.4300     -999.2500  0.2743     0.2808     4.3145     0.4305     0.4542     0.0346     1964.3334  0.2624     6747.4360  0.8975     0.9085     3633.0122  1.0500     80969.2344 13.6250    13.9434   
4048.5000  2.6806     5.0033     4.7988     3.9806     5.1168     8.5000     6.6769     6.7590     3.6920     51.6732    92.7087    93.2769    125.4390   -0.2235    41.7258    8.8349     17046.4648 0.4300     -999.2500  0.2681     0.2765     4.3114     0.4282     0.6110     0.0295     1964.6001  0.2408     7123.7998  0.8922     0.9069     3611.9316  1.0500     85485.5938 13.8662    14.3014   
4049.0000  1.7649     17.6639    14.3381    6.2234     5.9694     8.5000     4.8792     4.9524     3.3981     59.5632    102.4797   103.2456   123.7168   -0.1518    46.5142    8.8386     7743.6934  0.4300     -999.2500  0.2378     0.2467     3.8599     0.4231     0.7446     0.0853     1969.3334  0.2439     3222.6951  0.7581     0.7715     3069.7241  1.0500     38672.3398 9.7912     10.1574   
4049.5000  1.1278     75.1710    6.9541     4.0731     4.9234     8.5000     2.6402     2.6402     2.9362     78.0129    128.9125   129.4112   122.4767   0.0561     64.4272    8.9111     2147.3157  0.4300     -999.2500  0.2286     0.2183     3.2688     0.4127     0.3862     0.2156     1958.0668  0.2870     839.5136   0.6912     0.6336     2799.0879  1.0500     10074.1631 6.0328     5.1804    
4050.0000  0.8284     21.0575    3.5544     2.5182     3.3924     8.5000     2.0140     2.0140     2.5655     84.1547    136.9531   137.5622   121.6122   0.1369     86.1203    8.9690     1397.3658  0.4300     -999.2500  0.2196     0.2044     2.8159     0.4065     0.4437     0.2590     1964.5625  0.3378     507.7416   0.6987     0.5946     2829.5862  1.0500     6092.8999  5.4415     3.9760    
