~Version
 VERS              .         2.0                           : CWLS LOG ASCII STANDARD - VERSION 2.0
 WRAP              .         NO                            : ONE LINE PER DEPTH STEP
 DLM               .         SPACE                         : DELIMITING CHARACTER(SPACE TAB OR COMMA)
~Well Information
#_______________________________________________________________________________
#
#PARAMETER_NAME    .UNIT     VALUE                         : DESCRIPTION
#_______________________________________________________________________________
STRT               .ft       4040.0000                     : First reference value
STOP               .ft       7050.0000                     : Last reference value
STEP               .ft       0.5000                        : Step increment
NULL               .         -999.25                       : Missing value
COMP               .         One Earth Energy              : Company
WELL               .         OEE #1                        : Well name
FLD                .         OEE                           : Field
LOC                .                                       : Location
PROV               .         Illinois                      : Province
SRVC               .         Schlumberger                  : Service Company
DATE               .         26-Dec-2021                   : Date
UWI                .         12-113-25373-00               : Unique Well ID
APD                .ft       15                            : Elevation of Depth Reference (LMF) Above Permanent Datum
API                .         12-113-25373-00               : API NUMBER
BHS                .         OPEN                          : Borehole Status (Open or Cased Hole)
BHT                .degF     93.71                         : Bottom Hole Temperature
BLI                .ft       4052                          : Bottom Log Interval
BS                 .in       12.25                         : Bit Size
CBDR               .ft       374                           : Casing Bottom of Driller
CBLO               .ft       374                           : Logger Casing Shoe Depth
CNTY               .         McLean                        : COUNTY
CSIZ               .in       13.375                        : Current Casing Size
CWEI               .lbm/ft   54.5                          : Casing Weight
CTRY               .         United States of America - US : Nation
DCS                .         23-Dec-2021                   : Date Circulation Stopped
DFD                .lbm/gal  9.25                          : Drilling Fluid Density
DFT                .         WATER                         : Drilling Fluid Type
DLAB               .         26-Dec-2021                   : Date Logger At Bottom
EDF                .ft       840.0001                      : Elevation of Drill Floor
EGL                .ft       826                           : Elevation of Ground Level
EKB                .ft       841                           : Elevation of Kelly Bushing
EPD                .ft       826                           : Elevation of Permanent Datum (PDAT) above Mean Sea Level
GDAT               .                                       : GeoDetic Datum
LMF                .         KB                            : Logging Measured From (Name of Logging Elevation Reference)
LUL                .         Bradford                      : Logging Unit Location
LUN                .         2266                          : Logging Unit Number
LATI               .         40.485663 degrees             : Latitude
LONG               .         -88.468241 degrees            : Longitude
MCST               .degF     67.9                          : Mudcake Sample Temperature
MFST               .degF     66.3                          : Mud Filtrate Sample Temperature
MRT                .degF     93.71                         : Maximum Recorded Temperature
MST                .degF     65.4                          : Mud Sample Temperature
ORIGINALWELLNAME   .         OEE #1                        : 
PDAT               .         GL                            : Permanent Datum
PRODUCER-CODE      .         440                           : 
PRODUCER-NAME      .         Schlumberger                  : 
RMB                .ohm.m    3.533802                      : Resistivity of Mud at Bottom Hole Temperature
RMCS               .ohm.m    6.12                          : Resistivity of Mud Cake Sample
RMFS               .ohm.m    3.85                          : Resistivity of Mud Filtrate Sample
RMS                .ohm.m    4.92                          : Resistivity of Mud Sample
RUN                .         1C                            : Run Number
STAT               .         Illinois                      : State or Province
TCS                .         23_45_00                      : Time Circulation Stopped
TDD                .ft       4052                          : Driller Total Depth
TDL                .ft       4052                          : Logger Total Depth
TLAB               .         02_57_00                      : Time Logger At Bottom
TLI                .ft       379                           : Top Log Interval
~Parameter Information Block
#_______________________________________________________________________________
#
#PARAMETER_NAME    .UNIT     VALUE                         : DESCRIPTION
#_______________________________________________________________________________
SET                .         LQC_MP_043_Deliverables       : 
TLFamily_AT10      .         Resistivity - Induction Array 10: 
TLFamily_AT20      .         Resistivity - Induction Array 20: 
TLFamily_AT30      .         Resistivity - Induction Array 30: 
TLFamily_AT60      .         Resistivity - Induction Array 60: 
TLFamily_AT90      .         Resistivity - Induction Array 90: 
TLFamily_BS        .         Bit Size                      : 
TLFamily_C44       .         Elastic Modulus               : 
TLFamily_C55       .         Elastic Modulus               : 
TLFamily_C66       .         Elastic Modulus               : 
TLFamily_DTCO_MF_DDBHC .         Compressional Slowness        : 
TLFamily_DTSH_FAST .         Fast Shear Slowness           : 
TLFamily_DTSH_SLOW .         Slow Shear Slowness           : 
TLFamily_DTSH_STRVP .         Stoneley Shear Slowness       : 
TLFamily_GAMMA     .         Regularization Factor         : 
TLFamily_GR_EDTC   .         Gamma Ray                     : 
TLFamily_HCAL      .         Caliper                       : 
TLFamily_ISHE      .         Shear Strength                : 
TLFamily_MD        .         Measured Depth                : 
TLFamily_PPGI_MP_TD .         Pore Pressure Gradient        : 
TLFamily_PPGI_PorePressure .         Pore Pressure Gradient        : 
TLFamily_PR_HH     .         Poisson Ratio (Dynamic)       : 
TLFamily_PR_VH     .         Poisson Ratio (Dynamic)       : 
TLFamily_RHOZ      .         Bulk Density                  : 
TLFamily_SDEVM     .         Sonde Deviation               : 
TLFamily_SLOANI    .         Acoustic Anisotropy           : 
TLFamily_SPHI      .         Total Porosity                : 
TLFamily_TENS      .         Tension                       : 
TLFamily_TNPH      .         Thermal Neutron Porosity      : 
TLFamily_TSTR      .         Tensile Strength              : 
TLFamily_TXSG_ANISO .         Minimum Horizontal Stress Gradient: 
TLFamily_TXSG_ISO  .         Minimum Horizontal Stress Gradient: 
TLFamily_TXSP_ANISO .         Minimum Horizontal Stress     : 
TLFamily_TZSG      .         Vertical Stress Gradient      : 
TLFamily_UCS       .         Compressive Strength          : 
TLFamily_YME_H_STA .         Young's Modulus (Dynamic)     : 
TLFamily_YME_V_STA .         Young's Modulus (Dynamic)     : 
~Curve Information
#_______________________________________________________________________________
#
#LOGNAME           .UNIT     LOG_ID                        : DESCRIPTION
#_______________________________________________________________________________
MD                 .ft                                     : Measured DEPTH 
AT10               .ohm.m                                  : Array Induction Two Foot Resistivity A10 
AT20               .ohm.m                                  : Array Induction Two Foot Resistivity A20 
AT30               .ohm.m                                  : Array Induction Two Foot Resistivity A30 
AT60               .ohm.m                                  : Array Induction Two Foot Resistivity A60 
AT90               .ohm.m                                  : Array Induction Two Foot Resistivity A90 
BS                 .in                                     : Bit Size 
C44                .Mpsi                                   : C44 Modulus 
C55                .Mpsi                                   : C55 Modulus 
C66                .Mpsi                                   : C66 Modulus 
DTCO_MF_DDBHC      .us/ft                                  : Compressional slowness 
DTSH_FAST          .us/ft                                  : Shear slowness 
DTSH_SLOW          .us/ft                                  : Shear slowness 
DTSH_STRVP         .us/ft                                  : Stoneley Shear Slowness 
GAMMA              .unitless                               : Thomsens Anisotropy Parameter Gamma 
GR_EDTC            .gAPI                                   : Gamma Ray 
HCAL               .in                                     : HRCC Caliper Calibrated 
ISHE               .psi                                    : Cohesive Strength 
PPGI_MP_TD         .psi/ft                                 : Pore Pressure Gradient 
PPGI_PorePressure  .psi/ft                                 : Pore Pressure Gradient from XRP
PR_HH              .unitless                               : Poissons Ratio - Loading Horizontal - Displacement Horizontal 
PR_VH              .unitless                               : Poissons Ratio - Loading Vertical - Displacement Horizontal 
RHOZ               .g/cm3                                  : Standard Resolution Formation Density 
SDEVM              .deg                                    : Memorized Sonde Deviation 
SLOANI             .%                                      : Slowness-based Anisotropy 
SPHI               .ft3/ft3                                : Total porosity from Sonic 
TENS               .lbf                                    : Cable Tension 
TNPH               .ft3/ft3                                : Thermal Neutron Porosity (Ratio Method) in Selected Lithology 
TSTR               .psi                                    : Tensile Strength 
TXSG_ANISO         .psi/ft                                 : Anisotropic Minimum Horizontal Stress Gradient 
TXSG_ISO           .psi/ft                                 : Isotropic Minimum Horizontal Stress Gradient 
TXSP_ANISO         .psi                                    : Anisotropic Minimum Horizontal Stress 
TZSG               .psi/ft                                 : Overburden Stress Gradient 
UCS                .psi                                    : Unconfined Compressive Strength 
YME_H_STA          .Mpsi                                   :  Static Horizontal Youngs Modulus 
YME_V_STA          .Mpsi                                   : Static Vertical Youngs Modulus 
~Ascii
# ...
6245.0000  33.7698    18.9014    17.7507    12.5110    12.9576    8.5000     3.6486     3.6486     5.0738     61.2405    96.3886    97.6205    82.2543    0.1953     70.7040    8.5776     4663.4448  0.4300     -999.2500  0.2597     0.2065     2.5477     0.5872     1.2699     0.0971     2551.2666  0.0851     1546.7374  0.8224     0.5627     5135.4663  1.0500     18560.8477 10.2713    5.8730    
6245.5000  28.8075    19.0018    16.8605    11.8999    12.5321    8.5000     3.6076     3.6076     5.0329     62.4030    96.5224    97.8131    82.2611    0.1975     64.0013    8.5740     4188.7441  0.4300     -999.2500  0.2480     0.1972     2.5275     0.5899     1.3283     0.1053     2554.7502  0.0861     1383.5470  0.7969     0.5379     4976.4331  1.0500     16602.5645 10.0359    5.7195    
6246.0000  23.6207    17.6996    15.2099    11.1410    11.4308    8.5000     3.4959     3.4959     4.9760     63.8218    97.6343    98.9479    82.3799    0.2117     61.5417    8.5921     3825.8604  0.4300     -999.2500  0.2413     0.1907     2.5062     0.5917     1.3365     0.1153     2556.0000  0.0868     1242.4965  0.7865     0.5196     4912.2109  1.0500     14909.9570 9.7536     5.4156    
6246.5000  20.5638    16.3669    14.0289    10.5891    10.6399    8.5000     3.3549     3.3549     4.9211     64.3215    99.5287    100.4790   82.5683    0.2334     63.7403    8.5957     3908.4375  0.4300     -999.2500  0.2488     0.1951     2.4899     0.5951     0.9503     0.1189     2557.8000  0.0956     1237.4854  0.8085     0.5289     5049.9478  1.0500     14849.8242 9.5121     5.0861    
6247.0000  19.6484    16.6190    14.1617    10.7534    10.5650    8.5000     3.2400     3.2400     4.8693     64.4644    101.2071   101.8734   82.8268    0.2514     69.5728    8.5994     4078.1506  0.4300     -999.2500  0.2570     0.2007     2.4791     0.5969     0.6561     0.1199     2557.3335  0.1035     1263.9287  0.8313     0.5430     5192.5815  1.0500     15167.1445 9.2768     4.8210    
6247.5000  20.2337    16.8446    14.5751    11.1568    10.7520    8.5000     3.1405     3.1405     4.8517     64.7054    102.6912   103.3752   82.8933    0.2725     78.1271    8.5921     4237.1587  0.4300     -999.2500  0.2638     0.2046     2.4741     0.6004     0.6638     0.1216     2542.1250  0.1118     1286.1896  0.8551     0.5544     5341.3994  1.0500     15434.2744 9.1566     4.5988    
6248.0000  21.7704    17.1386    15.0895    11.8605    11.0315    8.5000     3.0779     3.0779     4.8565     64.9531    103.5991   104.3175   82.7595    0.2889     79.5187    8.5631     4307.5161  0.4300     -999.2500  0.2671     0.2060     2.4686     0.6042     0.6911     0.1233     2534.7334  0.1159     1290.9055  0.8712     0.5597     5442.8232  1.0500     15490.8672 9.1755     4.4857    
6248.5000  25.8282    19.3519    17.7689    13.5217    12.8326    8.5000     3.1001     3.1001     4.9276     64.8238    103.4245   104.1387   82.3161    0.2947     69.7791    8.5341     4409.9297  0.4300     -999.2500  0.2691     0.2062     2.4780     0.6079     0.6882     0.1224     2545.6001  0.1019     1319.7623  0.8822     0.5611     5511.7314  1.0500     15837.1475 9.4226     4.5418    
6249.0000  30.8178    22.4061    21.4172    15.6698    14.7852    8.5000     3.1918     3.1918     5.0225     63.5317    102.2792   103.0350   81.8347    0.2868     54.7024    8.5414     4774.8818  0.4300     -999.2500  0.2761     0.2109     2.4962     0.6122     0.7362     0.1133     2578.0000  0.0821     1452.5479  0.9022     0.5771     5637.5298  1.0500     17430.5742 10.0086    4.8595    
6249.5000  35.3891    24.2306    23.2146    17.3943    17.8149    8.5000     3.3462     3.3462     5.1620     60.8526    100.4020   101.1808   81.1485    0.2713     46.2709    8.5631     5671.5464  0.4300     -999.2500  0.2913     0.2222     2.5227     0.6158     0.7727     0.0944     2610.5332  0.0675     1767.0259  0.9412     0.6140     5881.2598  1.0500     21204.3105 10.8037    5.3425    
6250.0000  35.3953    26.2094    25.3577    18.9677    20.8840    8.5000     3.5472     3.5472     5.2386     58.5793    97.8626    98.4765    80.7797    0.2384     55.2954    8.5776     6256.4995  0.4300     -999.2500  0.2977     0.2296     2.5369     0.6178     0.6253     0.0783     2591.5625  0.0615     2019.6241  0.9439     0.6349     5898.9346  1.0500     24235.4902 11.2713    5.8841    
6250.5000  30.6916    24.0597    24.6939    18.4207    22.4052    8.5000     3.7358     3.7358     5.2703     58.3027    95.5551    95.8345    80.5672    0.2054     66.0830    8.5704     5893.7876  0.4300     -999.2500  0.2858     0.2238     2.5389     0.6212     0.2919     0.0763     2564.2000  0.0697     1958.5968  0.8961     0.6136     5600.7622  1.0500     23503.1621 11.2182    6.2258    
6251.0000  26.6955    21.6372    21.4585    17.2561    21.5204    8.5000     3.8220     3.8220     5.2188     58.6226    94.1802    94.5588    80.7584    0.1827     81.6895    8.5740     5395.2036  0.4300     -999.2500  0.2710     0.2157     2.5260     0.6235     0.4012     0.0786     2595.2666  0.0835     1815.6567  0.8453     0.5885     5283.5654  1.0500     21787.8809 10.7398    6.2620    
6251.5000  23.1648    19.8687    18.9926    16.0674    22.2134    8.5000     3.8092     3.8092     5.1759     61.1318    94.3927    94.7829    81.1444    0.1794     97.3168    8.6066     4318.4775  0.4300     -999.2500  0.2437     0.1946     2.5292     0.6259     0.4125     0.0963     2586.3125  0.0884     1457.6910  0.7850     0.5339     4906.7349  1.0500     17492.2930 10.4189    6.1220    
6252.0000  22.6200    19.5994    18.3308    15.9790    22.3613    8.5000     3.6829     3.6829     5.0985     62.2962    96.2094    96.5757    81.9246    0.1922     117.4783   8.5921     4125.7266  0.4300     -999.2500  0.2444     0.1942     2.5396     0.6270     0.3801     0.1046     2586.3999  0.0878     1384.0573  0.7922     0.5326     4952.1108  1.0500     16608.6875 10.4264    5.9851    
6252.5000  24.3809    22.1432    20.4792    16.8314    22.8402    8.5000     3.4946     3.4946     5.0538     62.8133    99.0600    99.4576    82.5381    0.2231     136.0737   8.5957     4409.9785  0.4300     -999.2500  0.2611     0.2045     2.5551     0.6284     0.4006     0.1082     2587.1333  0.0933     1448.1672  0.8441     0.5593     5276.9414  1.0500     17378.0059 10.6680    5.7776    
6253.0000  32.5355    28.5383    24.3220    19.0689    26.0822    8.5000     3.2919     3.2919     4.9657     62.8103    102.0044   102.4279   83.2243    0.2542     128.5161   8.5957     4824.5479  0.4300     -999.2500  0.2776     0.2157     2.5525     0.6294     0.4143     0.1082     2576.9333  0.1029     1543.8450  0.8968     0.5936     5607.3037  1.0500     18526.1406 10.6614    5.4936    
6253.5000  45.1637    37.1052    30.2014    21.5703    30.6058    8.5000     3.1327     3.1327     4.8673     62.5769    104.2748   104.9069   83.9081    0.2769     100.8422   8.5921     5197.4517  0.4300     -999.2500  0.2888     0.2244     2.5432     0.6301     0.6044     0.1066     2592.9375  0.1087     1624.3186  0.9326     0.6215     5831.4570  1.0500     19491.8223 10.4001    5.2003    
6254.0000  58.7805    47.5661    36.4883    23.4446    33.5632    8.5000     3.1144     3.1144     4.8187     62.2336    104.5209   105.2098   84.3040    0.2736     60.0676    8.5704     5318.7285  0.4300     -999.2500  0.2915     0.2276     2.5416     0.6307     0.6570     0.1041     2566.7332  0.0885     1659.1964  0.9342     0.6296     5841.5991  1.0500     19910.3574 10.1817    5.1382    
6254.5000  65.5937    50.3914    38.5341    23.4385    32.3102    8.5000     3.3121     3.3121     4.8717     61.2256    101.3741   101.6908   83.7168    0.2354     37.4120    8.5740     5210.9980  0.4300     -999.2500  0.2844     0.2245     2.5340     0.6314     0.3120     0.0970     2556.8667  0.0669     1672.7969  0.8952     0.6146     5598.2388  1.0500     20073.5625 10.1403    5.4424    
6255.0000  62.6266    46.1249    33.4525    20.1792    26.0310    8.5000     3.6789     3.6789     5.0692     59.3489    95.9711    96.1916    81.8510    0.1890     28.6527    8.5559     5217.8491  0.4300     -999.2500  0.2721     0.2175     2.5205     0.6318     0.2295     0.0837     2576.8125  0.0555     1743.0975  0.8462     0.5924     5292.4756  1.0500     20917.1719 10.3991    6.0331    
