~Version
 VERS              .         2.0                           : CWLS LOG ASCII STANDARD - VERSION 2.0
 WRAP              .         NO                            : ONE LINE PER DEPTH STEP
 DLM               .         SPACE                         : DELIMITING CHARACTER(SPACE TAB OR COMMA)
~Well Information
#_______________________________________________________________________________
#
#PARAMETER_NAME    .UNIT     VALUE                         : DESCRIPTION
#_______________________________________________________________________________
STRT               .ft       4040.0000                     : First reference value
STOP               .ft       7050.0000                     : Last reference value
STEP               .ft       0.5000                        : Step increment
NULL               .         -999.25                       : Missing value
COMP               .         One Earth Energy              : Company
WELL               .         OEE #1                        : Well name
FLD                .         OEE                           : Field
LOC                .                                       : Location
PROV               .         Illinois                      : Province
SRVC               .         Schlumberger                  : Service Company
DATE               .         26-Dec-2021                   : Date
UWI                .         12-113-25373-00               : Unique Well ID
APD                .ft       15                            : Elevation of Depth Reference (LMF) Above Permanent Datum
API                .         12-113-25373-00               : API NUMBER
BHS                .         OPEN                          : Borehole Status (Open or Cased Hole)
BHT                .degF     93.71                         : Bottom Hole Temperature
BLI                .ft       4052                          : Bottom Log Interval
BS                 .in       12.25                         : Bit Size
CBDR               .ft       374                           : Casing Bottom of Driller
CBLO               .ft       374                           : Logger Casing Shoe Depth
CNTY               .         McLean                        : COUNTY
CSIZ               .in       13.375                        : Current Casing Size
CWEI               .lbm/ft   54.5                          : Casing Weight
CTRY               .         United States of America - US : Nation
DCS                .         23-Dec-2021                   : Date Circulation Stopped
DFD                .lbm/gal  9.25                          : Drilling Fluid Density
DFT                .         WATER                         : Drilling Fluid Type
DLAB               .         26-Dec-2021                   : Date Logger At Bottom
EDF                .ft       840.0001                      : Elevation of Drill Floor
EGL                .ft       826                           : Elevation of Ground Level
EKB                .ft       841                           : Elevation of Kelly Bushing
EPD                .ft       826                           : Elevation of Permanent Datum (PDAT) above Mean Sea Level
GDAT               .                                       : GeoDetic Datum
LMF                .         KB                            : Logging Measured From (Name of Logging Elevation Reference)
LUL                .         Bradford                      : Logging Unit Location
LUN                .         2266                          : Logging Unit Number
LATI               .         40.485663 degrees             : Latitude
LONG               .         -88.468241 degrees            : Longitude
MCST               .degF     67.9                          : Mudcake Sample Temperature
MFST               .degF     66.3                          : Mud Filtrate Sample Temperature
MRT                .degF     93.71                         : Maximum Recorded Temperature
MST                .degF     65.4                          : Mud Sample Temperature
ORIGINALWELLNAME   .         OEE #1                        : 
PDAT               .         GL                            : Permanent Datum
PRODUCER-CODE      .         440                           : 
PRODUCER-NAME      .         Schlumberger                  : 
RMB                .ohm.m    3.533802                      : Resistivity of Mud at Bottom Hole Temperature
RMCS               .ohm.m    6.12                          : Resistivity of Mud Cake Sample
RMFS               .ohm.m    3.85                          : Resistivity of Mud Filtrate Sample
RMS                .ohm.m    4.92                          : Resistivity of Mud Sample
RUN                .         1C                            : Run Number
STAT               .         Illinois                      : State or Province
TCS                .         23_45_00                      : Time Circulation Stopped
TDD                .ft       4052                          : Driller Total Depth
TDL                .ft       4052                          : Logger Total Depth
TLAB               .         02_57_00                      : Time Logger At Bottom
TLI                .ft       379                           : Top Log Interval
~Parameter Information Block
#_______________________________________________________________________________
#
#PARAMETER_NAME    .UNIT     VALUE                         : DESCRIPTION
#_______________________________________________________________________________
SET                .         LQC_MP_043_Deliverables       : 
TLFamily_AT10      .         Resistivity - Induction Array 10: 
TLFamily_AT20      .         Resistivity - Induction Array 20: 
TLFamily_AT30      .         Resistivity - Induction Array 30: 
TLFamily_AT60      .         Resistivity - Induction Array 60: 
TLFamily_AT90      .         Resistivity - Induction Array 90: 
TLFamily_BS        .         Bit Size                      : 
TLFamily_C44       .         Elastic Modulus               : 
TLFamily_C55       .         Elastic Modulus               : 
TLFamily_C66       .         Elastic Modulus               : 
TLFamily_DTCO_MF_DDBHC .         Compressional Slowness        : 
TLFamily_DTSH_FAST .         Fast Shear Slowness           : 
TLFamily_DTSH_SLOW .         Slow Shear Slowness           : 
TLFamily_DTSH_STRVP .         Stoneley Shear Slowness       : 
TLFamily_GAMMA     .         Regularization Factor         : 
TLFamily_GR_EDTC   .         Gamma Ray                     : 
TLFamily_HCAL      .         Caliper                       : 
TLFamily_ISHE      .         Shear Strength                : 
TLFamily_MD        .         Measured Depth                : 
TLFamily_PPGI_MP_TD .         Pore Pressure Gradient        : 
TLFamily_PPGI_PorePressure .         Pore Pressure Gradient        : 
TLFamily_PR_HH     .         Poisson Ratio (Dynamic)       : 
TLFamily_PR_VH     .         Poisson Ratio (Dynamic)       : 
TLFamily_RHOZ      .         Bulk Density                  : 
TLFamily_SDEVM     .         Sonde Deviation               : 
TLFamily_SLOANI    .         Acoustic Anisotropy           : 
TLFamily_SPHI      .         Total Porosity                : 
TLFamily_TENS      .         Tension                       : 
TLFamily_TNPH      .         Thermal Neutron Porosity      : 
TLFamily_TSTR      .         Tensile Strength              : 
TLFamily_TXSG_ANISO .         Minimum Horizontal Stress Gradient: 
TLFamily_TXSG_ISO  .         Minimum Horizontal Stress Gradient: 
TLFamily_TXSP_ANISO .         Minimum Horizontal Stress     : 
TLFamily_TZSG      .         Vertical Stress Gradient      : 
TLFamily_UCS       .         Compressive Strength          : 
TLFamily_YME_H_STA .         Young's Modulus (Dynamic)     : 
TLFamily_YME_V_STA .         Young's Modulus (Dynamic)     : 
~Curve Information
#_______________________________________________________________________________
#
#LOGNAME           .UNIT     LOG_ID                        : DESCRIPTION
#_______________________________________________________________________________
MD                 .ft                                     : Measured DEPTH 
AT10               .ohm.m                                  : Array Induction Two Foot Resistivity A10 
AT20               .ohm.m                                  : Array Induction Two Foot Resistivity A20 
AT30               .ohm.m                                  : Array Induction Two Foot Resistivity A30 
AT60               .ohm.m                                  : Array Induction Two Foot Resistivity A60 
AT90               .ohm.m                                  : Array Induction Two Foot Resistivity A90 
BS                 .in                                     : Bit Size 
C44                .Mpsi                                   : C44 Modulus 
C55                .Mpsi                                   : C55 Modulus 
C66                .Mpsi                                   : C66 Modulus 
DTCO_MF_DDBHC      .us/ft                                  : Compressional slowness 
DTSH_FAST          .us/ft                                  : Shear slowness 
DTSH_SLOW          .us/ft                                  : Shear slowness 
DTSH_STRVP         .us/ft                                  : Stoneley Shear Slowness 
GAMMA              .unitless                               : Thomsens Anisotropy Parameter Gamma 
GR_EDTC            .gAPI                                   : Gamma Ray 
HCAL               .in                                     : HRCC Caliper Calibrated 
ISHE               .psi                                    : Cohesive Strength 
PPGI_MP_TD         .psi/ft                                 : Pore Pressure Gradient 
PPGI_PorePressure  .psi/ft                                 : Pore Pressure Gradient from XRP
PR_HH              .unitless                               : Poissons Ratio - Loading Horizontal - Displacement Horizontal 
PR_VH              .unitless                               : Poissons Ratio - Loading Vertical - Displacement Horizontal 
RHOZ               .g/cm3                                  : Standard Resolution Formation Density 
SDEVM              .deg                                    : Memorized Sonde Deviation 
SLOANI             .%                                      : Slowness-based Anisotropy 
SPHI               .ft3/ft3                                : Total porosity from Sonic 
TENS               .lbf                                    : Cable Tension 
TNPH               .ft3/ft3                                : Thermal Neutron Porosity (Ratio Method) in Selected Lithology 
TSTR               .psi                                    : Tensile Strength 
TXSG_ANISO         .psi/ft                                 : Anisotropic Minimum Horizontal Stress Gradient 
TXSG_ISO           .psi/ft                                 : Isotropic Minimum Horizontal Stress Gradient 
TXSP_ANISO         .psi                                    : Anisotropic Minimum Horizontal Stress 
TZSG               .psi/ft                                 : Overburden Stress Gradient 
UCS                .psi                                    : Unconfined Compressive Strength 
YME_H_STA          .Mpsi                                   :  Static Horizontal Youngs Modulus 
YME_V_STA          .Mpsi                                   : Static Vertical Youngs Modulus 
~Ascii
# ...
4838.0000  39.0518    26.5838    22.9966    14.9712    14.7470    8.5000     2.4424     2.4424     3.0608     70.9646    119.5285   119.8763   106.9292   0.1266     166.7841   8.5957     2440.5159  0.4300     -999.2500  0.2514     0.2304     2.5973     1.0369     0.2906     0.1658     2141.3333  0.2274     860.8022   0.7417     0.6294     3588.4268  1.0500     10329.6270 6.0731     4.4415    
4838.5000  46.7600    30.7577    26.6219    16.5710    17.1029    8.5000     2.3368     2.3368     3.1200     69.6668    122.1912   122.6217   105.9334   0.1676     144.6104   8.5849     2892.3228  0.4300     -999.2500  0.2759     0.2492     2.5984     1.0339     0.3516     0.1567     2143.1333  0.2471     987.2672   0.8150     0.6730     3943.3647  1.0500     11847.2070 6.4407     4.3561    
4839.0000  57.9438    39.1167    31.6470    18.5789    19.6688    8.5000     2.3832     2.3832     3.1786     66.3508    120.2248   121.4557   104.6317   0.1669     100.1444   8.5051     3456.4802  0.4300     -999.2500  0.2942     0.2656     2.5825     1.0321     1.0186     0.1332     2111.2500  0.1733     1182.1281  0.8565     0.7118     4144.7539  1.0500     14185.5361 6.6766     4.5194    
4839.5000  65.7905    47.0281    36.1568    19.5975    21.3437    8.5000     2.6050     2.6050     3.2582     62.6796    113.7937   116.2756   102.8412   0.1254     71.6821    8.4979     3875.0806  0.4300     -999.2500  0.3002     0.2743     2.5574     1.0296     2.1575     0.1073     2097.6667  0.1059     1378.9897  0.8472     0.7271     4100.0908  1.0500     16547.8770 6.8418     4.9975    
4840.0000  63.9158    45.5356    32.9995    18.6665    20.0593    8.5000     2.9062     2.9062     3.3972     60.2490    106.9798   110.0624   100.3426   0.0845     58.9539    8.4906     4077.5798  0.4300     -999.2500  0.2917     0.2707     2.5385     1.0284     2.8406     0.0901     2138.3333  0.0906     1511.4269  0.8096     0.7180     3918.3757  1.0500     18137.1211 7.0332     5.5837    
4840.5000  62.1126    41.9834    29.0875    17.2733    18.1922    8.5000     3.2030     3.2030     3.4891     59.6874    101.6296   104.4687   98.7056    0.0447     54.3717    8.4544     3777.8062  0.4300     -999.2500  0.2616     0.2494     2.5228     1.0282     2.7551     0.0861     2151.2502  0.0941     1461.2771  0.7347     0.6806     3556.4714  1.0500     17535.3242 7.0057     6.1318    
4841.0000  62.5513    40.6050    27.6431    16.1179    16.4849    8.5000     3.4427     3.4427     3.7038     59.9700    97.9028    100.2626   95.5063    0.0379     41.2786    8.4326     3543.5728  0.4300     -999.2500  0.2288     0.2186     2.5073     1.0310     2.3817     0.0881     2155.1333  0.1028     1375.6398  0.6834     0.6335     3308.3230  1.0500     16507.6777 7.1764     6.3722    
4841.5000  61.6089    38.7353    25.9613    15.3690    15.0517    8.5000     3.5450     3.5450     3.8619     59.8383    96.0597    98.9769    93.4006    0.0447     28.6513    8.4109     3607.7979  0.4300     -999.2500  0.2214     0.2094     2.5003     1.0342     2.9915     0.0872     2148.0627  0.0921     1379.4722  0.6775     0.6169     3280.1201  1.0500     16553.6660 7.3242     6.3570    
4842.0000  60.4341    37.2016    25.3773    14.6645    13.7172    8.5000     3.5944     3.5944     4.1765     60.0814    94.6584    98.8063    89.6771    0.0810     25.2171    8.3891     3857.0276  0.4300     -999.2500  0.2283     0.2064     2.4927     1.0375     4.2880     0.0889     2143.4668  0.0822     1404.2045  0.7108     0.5997     3441.4961  1.0500     16850.4531 7.8169     6.0826    
4842.5000  56.7989    34.2811    23.9207    13.7528    12.4918    8.5000     3.6434     3.6434     4.5003     60.2530    93.6479    98.4445    86.3391    0.1176     24.3070    8.3783     4136.7393  0.4300     -999.2500  0.2366     0.2046     2.4897     1.0406     4.9940     0.0901     2147.4375  0.0776     1439.3687  0.7485     0.5853     3624.3367  1.0500     17272.4238 8.3279     5.8309    
4843.0000  50.5443    30.4638    21.7621    12.7606    11.3155    8.5000     3.6643     3.6643     4.7795     61.2827    93.0609    98.2225    83.6522    0.1522     28.5306    8.3964     4061.1851  0.4300     -999.2500  0.2347     0.1950     2.4821     1.0433     5.3968     0.0974     2146.4668  0.0807     1359.6606  0.7663     0.5545     3711.1709  1.0500     16315.9287 8.7083     5.5454    
4843.5000  44.6700    28.1579    20.1853    11.9277    10.3623    8.5000     3.6692     3.6692     4.9865     61.5808    92.7819    98.2035    81.8146    0.1795     27.2926    8.3891     4177.8594  0.4300     -999.2500  0.2402     0.1937     2.4771     1.0472     5.6775     0.0995     2159.6875  0.0829     1360.2611  0.7941     0.5444     3846.1238  1.0500     16323.1328 9.0447     5.3649    
4844.0000  39.6201    26.0133    18.8087    11.4144    9.8061     8.5000     3.6627     3.6627     5.0764     61.3436    92.7566    98.2249    81.0115    0.1930     26.5913    8.3891     4379.5146  0.4300     -999.2500  0.2473     0.1967     2.4725     1.0491     5.7265     0.0978     2144.4668  0.0806     1407.1333  0.8170     0.5494     3957.2659  1.0500     16885.5996 9.2177     5.2899    
4844.5000  34.2859    24.5786    17.9032    11.0146    9.4063     8.5000     3.6681     3.6681     5.0405     60.5198    92.4922    98.4556    81.3267    0.1871     26.5546    8.3891     4660.5854  0.4300     -999.2500  0.2543     0.2035     2.4742     1.0491     6.2461     0.0920     2158.8750  0.0769     1504.1049  0.8276     0.5680     4009.3477  1.0500     18049.2578 9.1833     5.3500    
4845.0000  29.7214    22.6518    16.6439    10.6060    9.0152     8.5000     3.6823     3.6823     4.9722     59.8556    91.6074    99.3098    81.9482    0.1751     28.6946    8.3783     4826.3467  0.4300     -999.2500  0.2573     0.2085     2.4781     1.0491     8.0688     0.0873     2172.9333  0.0782     1573.2244  0.8260     0.5819     4002.0732  1.0500     18878.6934 9.0668     5.4404    
4845.5000  27.6486    20.8812    15.7229    10.3725    8.8597     8.5000     3.6584     3.6584     4.8026     59.6198    91.1936    100.9510   83.5271    0.1564     37.1310    8.3819     4789.6895  0.4300     -999.2500  0.2564     0.2124     2.4867     1.0489     10.1563    0.0857     2144.6667  0.0821     1587.6719  0.8097     0.5935     3923.3354  1.0500     19052.0625 8.7464     5.5186    
4846.0000  29.3153    21.5963    16.3798    10.7767    9.2040     8.5000     3.4607     3.4607     4.5425     60.0635    93.9259    103.5154   85.8630    0.1563     42.7828    8.3891     4735.7910  0.4300     -999.2500  0.2640     0.2216     2.4854     1.0490     9.7138     0.0888     2152.1875  0.0893     1567.3634  0.8167     0.6144     3957.6763  1.0500     18808.3613 8.2821     5.2980    
4846.5000  32.4163    22.2388    17.1913    11.4468    9.6973     8.5000     3.1789     3.1789     4.2910     61.2962    99.2605    106.6371   88.4385    0.1749     52.3788    8.3964     4633.1992  0.4300     -999.2500  0.2745     0.2312     2.4908     1.0489     7.1654     0.0975     2170.2666  0.1001     1507.1089  0.8406     0.6356     4074.1484  1.0500     18085.3066 7.8754     4.9132    
4847.0000  37.1176    23.2427    18.7039    11.7573    10.5032    8.5000     2.9733     2.9733     4.2108     63.3195    104.2501   109.7606   89.8271    0.2081     80.4147    8.4218     4448.0640  0.4300     -999.2500  0.2782     0.2317     2.5216     1.0489     5.1497     0.1118     2160.3750  0.1211     1416.2317  0.8674     0.6402     4204.0273  1.0500     16994.7793 7.9314     4.6647    
4847.5000  43.2982    25.2560    18.8311    12.0809    11.0598    8.5000     2.8510     2.8510     4.0573     65.6321    108.1291   112.4373   92.3929    0.2116     119.7052   8.4906     3914.7039  0.4300     -999.2500  0.2721     0.2284     2.5704     1.0489     3.9065     0.1281     2170.3999  0.1620     1276.9819  0.8616     0.6374     4176.5625  1.0500     15323.7832 8.2502     4.8644    
4848.0000  50.1258    26.4011    20.2376    12.6242    11.9083    8.5000     2.7590     2.7590     3.9136     67.1422    111.4122   114.0349   94.6270    0.2092     143.2544   8.5559     3562.8794  0.4300     -999.2500  0.2687     0.2276     2.6007     1.0489     2.3266     0.1388     2173.7500  0.2169     1190.0209  0.8555     0.6389     4147.3032  1.0500     14280.2510 8.4035     5.0184    
