~Version
 VERS              .         2.0                           : CWLS LOG ASCII STANDARD - VERSION 2.0
 WRAP              .         NO                            : ONE LINE PER DEPTH STEP
 DLM               .         SPACE                         : DELIMITING CHARACTER(SPACE TAB OR COMMA)
~Well Information
#_______________________________________________________________________________
#
#PARAMETER_NAME    .UNIT     VALUE                         : DESCRIPTION
#_______________________________________________________________________________
STRT               .ft       4040.0000                     : First reference value
STOP               .ft       7050.0000                     : Last reference value
STEP               .ft       0.5000                        : Step increment
NULL               .         -999.25                       : Missing value
COMP               .         One Earth Energy              : Company
WELL               .         OEE #1                        : Well name
FLD                .         OEE                           : Field
LOC                .                                       : Location
PROV               .         Illinois                      : Province
SRVC               .         Schlumberger                  : Service Company
DATE               .         26-Dec-2021                   : Date
UWI                .         12-113-25373-00               : Unique Well ID
APD                .ft       15                            : Elevation of Depth Reference (LMF) Above Permanent Datum
API                .         12-113-25373-00               : API NUMBER
BHS                .         OPEN                          : Borehole Status (Open or Cased Hole)
BHT                .degF     93.71                         : Bottom Hole Temperature
BLI                .ft       4052                          : Bottom Log Interval
BS                 .in       12.25                         : Bit Size
CBDR               .ft       374                           : Casing Bottom of Driller
CBLO               .ft       374                           : Logger Casing Shoe Depth
CNTY               .         McLean                        : COUNTY
CSIZ               .in       13.375                        : Current Casing Size
CWEI               .lbm/ft   54.5                          : Casing Weight
CTRY               .         United States of America - US : Nation
DCS                .         23-Dec-2021                   : Date Circulation Stopped
DFD                .lbm/gal  9.25                          : Drilling Fluid Density
DFT                .         WATER                         : Drilling Fluid Type
DLAB               .         26-Dec-2021                   : Date Logger At Bottom
EDF                .ft       840.0001                      : Elevation of Drill Floor
EGL                .ft       826                           : Elevation of Ground Level
EKB                .ft       841                           : Elevation of Kelly Bushing
EPD                .ft       826                           : Elevation of Permanent Datum (PDAT) above Mean Sea Level
GDAT               .                                       : GeoDetic Datum
LMF                .         KB                            : Logging Measured From (Name of Logging Elevation Reference)
LUL                .         Bradford                      : Logging Unit Location
LUN                .         2266                          : Logging Unit Number
LATI               .         40.485663 degrees             : Latitude
LONG               .         -88.468241 degrees            : Longitude
MCST               .degF     67.9                          : Mudcake Sample Temperature
MFST               .degF     66.3                          : Mud Filtrate Sample Temperature
MRT                .degF     93.71                         : Maximum Recorded Temperature
MST                .degF     65.4                          : Mud Sample Temperature
ORIGINALWELLNAME   .         OEE #1                        : 
PDAT               .         GL                            : Permanent Datum
PRODUCER-CODE      .         440                           : 
PRODUCER-NAME      .         Schlumberger                  : 
RMB                .ohm.m    3.533802                      : Resistivity of Mud at Bottom Hole Temperature
RMCS               .ohm.m    6.12                          : Resistivity of Mud Cake Sample
RMFS               .ohm.m    3.85                          : Resistivity of Mud Filtrate Sample
RMS                .ohm.m    4.92                          : Resistivity of Mud Sample
RUN                .         1C                            : Run Number
STAT               .         Illinois                      : State or Province
TCS                .         23_45_00                      : Time Circulation Stopped
TDD                .ft       4052                          : Driller Total Depth
TDL                .ft       4052                          : Logger Total Depth
TLAB               .         02_57_00                      : Time Logger At Bottom
TLI                .ft       379                           : Top Log Interval
~Parameter Information Block
#_______________________________________________________________________________
#
#PARAMETER_NAME    .UNIT     VALUE                         : DESCRIPTION
#_______________________________________________________________________________
SET                .         LQC_MP_043_Deliverables       : 
TLFamily_AT10      .         Resistivity - Induction Array 10: 
TLFamily_AT20      .         Resistivity - Induction Array 20: 
TLFamily_AT30      .         Resistivity - Induction Array 30: 
TLFamily_AT60      .         Resistivity - Induction Array 60: 
TLFamily_AT90      .         Resistivity - Induction Array 90: 
TLFamily_BS        .         Bit Size                      : 
TLFamily_C44       .         Elastic Modulus               : 
TLFamily_C55       .         Elastic Modulus               : 
TLFamily_C66       .         Elastic Modulus               : 
TLFamily_DTCO_MF_DDBHC .         Compressional Slowness        : 
TLFamily_DTSH_FAST .         Fast Shear Slowness           : 
TLFamily_DTSH_SLOW .         Slow Shear Slowness           : 
TLFamily_DTSH_STRVP .         Stoneley Shear Slowness       : 
TLFamily_GAMMA     .         Regularization Factor         : 
TLFamily_GR_EDTC   .         Gamma Ray                     : 
TLFamily_HCAL      .         Caliper                       : 
TLFamily_ISHE      .         Shear Strength                : 
TLFamily_MD        .         Measured Depth                : 
TLFamily_PPGI_MP_TD .         Pore Pressure Gradient        : 
TLFamily_PPGI_PorePressure .         Pore Pressure Gradient        : 
TLFamily_PR_HH     .         Poisson Ratio (Dynamic)       : 
TLFamily_PR_VH     .         Poisson Ratio (Dynamic)       : 
TLFamily_RHOZ      .         Bulk Density                  : 
TLFamily_SDEVM     .         Sonde Deviation               : 
TLFamily_SLOANI    .         Acoustic Anisotropy           : 
TLFamily_SPHI      .         Total Porosity                : 
TLFamily_TENS      .         Tension                       : 
TLFamily_TNPH      .         Thermal Neutron Porosity      : 
TLFamily_TSTR      .         Tensile Strength              : 
TLFamily_TXSG_ANISO .         Minimum Horizontal Stress Gradient: 
TLFamily_TXSG_ISO  .         Minimum Horizontal Stress Gradient: 
TLFamily_TXSP_ANISO .         Minimum Horizontal Stress     : 
TLFamily_TZSG      .         Vertical Stress Gradient      : 
TLFamily_UCS       .         Compressive Strength          : 
TLFamily_YME_H_STA .         Young's Modulus (Dynamic)     : 
TLFamily_YME_V_STA .         Young's Modulus (Dynamic)     : 
~Curve Information
#_______________________________________________________________________________
#
#LOGNAME           .UNIT     LOG_ID                        : DESCRIPTION
#_______________________________________________________________________________
MD                 .ft                                     : Measured DEPTH 
AT10               .ohm.m                                  : Array Induction Two Foot Resistivity A10 
AT20               .ohm.m                                  : Array Induction Two Foot Resistivity A20 
AT30               .ohm.m                                  : Array Induction Two Foot Resistivity A30 
AT60               .ohm.m                                  : Array Induction Two Foot Resistivity A60 
AT90               .ohm.m                                  : Array Induction Two Foot Resistivity A90 
BS                 .in                                     : Bit Size 
C44                .Mpsi                                   : C44 Modulus 
C55                .Mpsi                                   : C55 Modulus 
C66                .Mpsi                                   : C66 Modulus 
DTCO_MF_DDBHC      .us/ft                                  : Compressional slowness 
DTSH_FAST          .us/ft                                  : Shear slowness 
DTSH_SLOW          .us/ft                                  : Shear slowness 
DTSH_STRVP         .us/ft                                  : Stoneley Shear Slowness 
GAMMA              .unitless                               : Thomsens Anisotropy Parameter Gamma 
GR_EDTC            .gAPI                                   : Gamma Ray 
HCAL               .in                                     : HRCC Caliper Calibrated 
ISHE               .psi                                    : Cohesive Strength 
PPGI_MP_TD         .psi/ft                                 : Pore Pressure Gradient 
PPGI_PorePressure  .psi/ft                                 : Pore Pressure Gradient from XRP
PR_HH              .unitless                               : Poissons Ratio - Loading Horizontal - Displacement Horizontal 
PR_VH              .unitless                               : Poissons Ratio - Loading Vertical - Displacement Horizontal 
RHOZ               .g/cm3                                  : Standard Resolution Formation Density 
SDEVM              .deg                                    : Memorized Sonde Deviation 
SLOANI             .%                                      : Slowness-based Anisotropy 
SPHI               .ft3/ft3                                : Total porosity from Sonic 
TENS               .lbf                                    : Cable Tension 
TNPH               .ft3/ft3                                : Thermal Neutron Porosity (Ratio Method) in Selected Lithology 
TSTR               .psi                                    : Tensile Strength 
TXSG_ANISO         .psi/ft                                 : Anisotropic Minimum Horizontal Stress Gradient 
TXSG_ISO           .psi/ft                                 : Isotropic Minimum Horizontal Stress Gradient 
TXSP_ANISO         .psi                                    : Anisotropic Minimum Horizontal Stress 
TZSG               .psi/ft                                 : Overburden Stress Gradient 
UCS                .psi                                    : Unconfined Compressive Strength 
YME_H_STA          .Mpsi                                   :  Static Horizontal Youngs Modulus 
YME_V_STA          .Mpsi                                   : Static Vertical Youngs Modulus 
~Ascii
# ...
4439.0000  83.0237    40.9884    22.8266    14.3030    13.9746    8.5000     4.1167     4.1167     6.6561     58.7481    90.5418    91.0653    71.4108    0.3084     34.4818    8.6827     6506.3027  0.4300     -999.2500  0.2932     0.1987     2.5191     0.6807     0.5765     0.0795     2110.5000  0.0610     1958.0223  1.0852     0.5688     4817.3257  1.0500     23496.2676 13.6949    5.7389    
4439.5000  59.8687    34.2065    20.0657    12.6708    11.5981    8.5000     4.1415     4.1415     6.7742     58.2763    89.8631    90.7515    70.6084    0.3178     38.7443    8.6936     6824.5146  0.4300     -999.2500  0.2978     0.1993     2.5065     0.6760     0.9838     0.0762     2082.1333  0.0689     2030.1083  1.1052     0.5716     4906.3594  1.0500     24361.2988 13.7667    5.6333    
4440.0000  44.2556    27.4296    16.5360    10.9563    9.3628     8.5000     4.0040     4.0040     6.5212     59.4685    90.8769    92.5461    71.8543    0.3143     41.2741    8.7008     6186.6055  0.4300     -999.2500  0.2891     0.1970     2.4988     0.6723     1.8201     0.0846     2068.6250  0.0764     1839.2587  1.0641     0.5593     4724.4907  1.0500     22071.1035 13.0193    5.4482    
4440.5000  34.0011    22.4553    14.0492    9.5166     7.9440     8.5000     3.7553     3.7553     6.1104     60.1632    93.7734    95.6683    74.2454    0.3136     38.8400    8.7045     6091.3682  0.4300     -999.2500  0.2898     0.2032     2.4998     0.6694     2.0005     0.0895     2072.0667  0.0775     1810.0878  1.0488     0.5832     4657.3569  1.0500     21721.0547 12.1609    5.2419    
4441.0000  27.8252    19.3081    12.7458    8.8238     7.1956     8.5000     3.6052     3.6052     5.8898     61.2278    95.3913    97.8723    75.5830    0.3169     36.6347    8.7262     5729.4224  0.4300     -999.2500  0.2857     0.2032     2.4971     0.6677     2.5675     0.0970     2070.4666  0.0771     1694.7891  1.0288     0.5816     4568.8877  1.0500     20337.4688 11.5938    5.0459    
4441.5000  24.1635    17.3874    11.9990    8.3902     6.7345     8.5000     3.4979     3.4979     5.5366     61.9370    96.4860    99.2652    77.7725    0.2914     35.0711    8.7226     5201.2930  0.4300     -999.2500  0.2770     0.2038     2.4853     0.6664     2.8395     0.1020     2063.6252  0.0784     1563.1331  0.9752     0.5795     4331.1802  1.0500     18757.5977 10.7184    4.9820    
4442.0000  23.6774    15.9767    11.5980    8.1723     6.5110     8.5000     3.3982     3.3982     5.1542     62.1920    97.7897    100.3092   80.4066    0.2584     34.9254    8.7371     4824.2793  0.4300     -999.2500  0.2705     0.2070     2.4730     0.6660     2.5437     0.1038     2089.1335  0.0823     1482.4738  0.9249     0.5868     4108.2588  1.0500     17789.6836 9.8251     4.9584    
4442.5000  24.9543    15.2410    11.5031    8.1548     6.4875     8.5000     3.3226     3.3226     4.9146     63.1735    98.7314    101.6866   82.3686    0.2396     36.6028    8.7733     4360.5063  0.4300     -999.2500  0.2612     0.2047     2.4746     0.6664     2.9489     0.1108     2089.0000  0.0809     1358.6154  0.8836     0.5787     3925.5381  1.0500     16303.3848 9.2647     4.9072    
4443.0000  26.2958    15.5532    12.4283    8.5840     6.7073     8.5000     3.1876     3.1876     4.4340     64.2571    100.5617   104.2452   86.7837    0.1955     33.6752    8.8023     3741.5657  0.4300     -999.2500  0.2489     0.2050     2.4783     0.6666     3.5970     0.1184     2068.3999  0.0796     1215.8885  0.8205     0.5825     3645.4700  1.0500     14590.6631 8.4037     4.9765    
4443.5000  27.7992    15.8808    12.4990    8.7692     7.0519     8.5000     3.0414     3.0414     4.2218     64.2949    103.5184   106.5316   89.1141    0.1941     30.4751    8.8023     3822.9995  0.4300     -999.2500  0.2594     0.2167     2.4882     0.6671     2.8691     0.1187     2087.9375  0.0716     1250.0210  0.8371     0.6127     3719.6965  1.0500     15000.2529 8.1841     4.9270    
4444.0000  27.4819    15.8537    13.0838    9.1432     7.3680     8.5000     2.9831     2.9831     3.9005     63.4214    105.1168   107.3943   92.9073    0.1538     29.6223    8.8241     3793.9285  0.4300     -999.2500  0.2647     0.2301     2.4987     0.6677     2.1435     0.1125     2085.7332  0.0647     1288.6947  0.8171     0.6432     3631.4026  1.0500     15464.3359 7.6104     5.0584    
4444.5000  26.0026    15.8890    13.5577    9.4702     7.7177     8.5000     3.0377     3.0377     3.8397     62.1491    104.4339   106.6625   93.8646    0.1320     37.0393    8.8023     3984.9053  0.4300     -999.2500  0.2697     0.2381     2.5107     0.6682     2.1114     0.1035     2083.2666  0.0602     1380.7159  0.8135     0.6611     3615.4265  1.0500     16568.5918 7.4932     5.2348    
4445.0000  24.5752    16.2404    13.8760    9.7447     8.1658     8.5000     3.1555     3.1555     3.8309     61.2373    102.8045   104.3230   93.9840    0.1070     52.0192    8.8168     3996.7058  0.4300     -999.2500  0.2641     0.2370     2.5113     0.6690     1.4662     0.0971     2105.2502  0.0649     1415.9946  0.7881     0.6592     3502.9998  1.0500     16991.9355 7.3853     5.4595    
4445.5000  23.3976    16.5436    14.7041    10.3813    8.8858     8.5000     3.2334     3.2334     3.8283     61.1497    101.5637   102.2076   93.6334    0.0920     64.3689    8.8241     3809.1699  0.4300     -999.2500  0.2518     0.2284     2.4909     0.6703     0.6320     0.0965     2083.6001  0.0782     1362.9940  0.7554     0.6419     3358.3015  1.0500     16355.9277 7.2034     5.5177    
4446.0000  21.1685    16.3797    14.3086    10.6171    9.0970     8.5000     3.2027     3.2027     3.8342     62.8003    101.6421   102.1249   93.1147    0.0986     77.1673    8.8168     3354.8472  0.4300     -999.2500  0.2343     0.2112     2.4672     0.6720     0.4739     0.1081     2088.5000  0.0956     1189.7042  0.7264     0.6062     3229.3481  1.0500     14276.4512 7.0759     5.3262    
4446.5000  17.8042    14.6151    12.9438    9.9654     8.9470     8.5000     3.0598     3.0598     3.8614     64.6290    103.8203   104.2814   92.6236    0.1310     97.7977    8.8313     3185.8313  0.4300     -999.2500  0.2355     0.2072     2.4585     0.6745     0.4432     0.1211     2100.0669  0.1100     1091.4076  0.7427     0.5915     3302.1970  1.0500     13096.8906 7.0945     4.9472    
4447.0000  14.8506    12.4468    11.0818    9.2413     8.3026     8.5000     2.8386     2.8386     3.9321     66.3276    107.8225   108.6537   91.9620    0.1926     123.7811   8.8784     3349.9458  0.4300     -999.2500  0.2524     0.2145     2.4679     0.6774     0.7679     0.1331     2082.4375  0.1215     1083.3525  0.8062     0.6025     3585.2356  1.0500     13000.2305 7.3083     4.4837    
4447.5000  13.7467    11.8546    10.6181    8.9505     8.4993     8.5000     2.6271     2.6271     4.0529     68.0202    112.4343   113.0686   90.7752    0.2714     139.6332   8.9183     3601.4802  0.4300     -999.2500  0.2654     0.2181     2.4785     0.6800     0.5626     0.1450     2076.8000  0.1382     1093.2190  0.8788     0.6160     3908.4919  1.0500     13118.6279 7.6367     4.0680    
4448.0000  15.6345    13.9172    12.3159    10.2138    9.9532     8.5000     2.4777     2.4777     4.2224     68.6610    115.9958   116.4107   89.0141    0.3521     136.3724   8.9002     4045.2805  0.4300     -999.2500  0.2763     0.2209     2.4829     0.6823     0.3571     0.1495     2090.8750  0.1491     1162.4132  0.9565     0.6368     4254.5811  1.0500     13948.9580 8.1043     3.8021    
4448.5000  19.9512    16.5109    14.2611    11.4935    11.9898    8.5000     2.4198     2.4198     4.4636     68.3779    117.5652   118.2067   86.7961    0.4223     117.5850   8.8676     4657.7798  0.4300     -999.2500  0.2852     0.2220     2.4956     0.6843     0.5442     0.1475     2046.6667  0.1440     1285.8571  1.0319     0.6573     4590.5659  1.0500     15430.2842 8.7657     3.6995    
4449.0000  25.7742    19.7731    17.4009    13.6455    14.1206    8.5000     2.4994     2.4994     4.7799     66.3437    116.1304   117.0396   84.3025    0.4562     102.5258   8.8458     5626.5444  0.4300     -999.2500  0.2971     0.2250     2.5211     0.6856     0.7799     0.1332     2020.3751  0.1169     1532.5182  1.1060     0.6834     4920.3960  1.0500     18390.2188 9.7303     3.8530    
