~Version
 VERS              .         2.0                           : CWLS LOG ASCII STANDARD - VERSION 2.0
 WRAP              .         NO                            : ONE LINE PER DEPTH STEP
 DLM               .         SPACE                         : DELIMITING CHARACTER(SPACE TAB OR COMMA)
~Well Information
#_______________________________________________________________________________
#
#PARAMETER_NAME    .UNIT     VALUE                         : DESCRIPTION
#_______________________________________________________________________________
STRT               .ft       4040.0000                     : First reference value
STOP               .ft       7075.0000                     : Last reference value
STEP               .ft       0.5000                        : Step increment
NULL               .         -999.25                       : Missing value
COMP               .         One Earth Energy              : Company
WELL               .         OEE #1                        : Well name
FLD                .         OEE                           : Field
LOC                .                                       : Location
PROV               .         Illinois                      : Province
SRVC               .         Schlumberger                  : Service Company
DATE               .         26-Dec-2021                   : Date
UWI                .         12-113-25373-00               : Unique Well ID
APD                .ft       15                            : Elevation of Depth Reference (LMF) Above Permanent Datum
API                .         12-113-25373-00               : API NUMBER
BHS                .         OPEN                          : Borehole Status (Open or Cased Hole)
BHT                .degF     93.71                         : Bottom Hole Temperature
BLI                .ft       4052                          : Bottom Log Interval
BS                 .in       12.25                         : Bit Size
CBDR               .ft       374                           : Casing Bottom of Driller
CBLO               .ft       374                           : Logger Casing Shoe Depth
CNTY               .         McLean                        : COUNTY
CSIZ               .in       13.375                        : Current Casing Size
CWEI               .lbm/ft   54.5                          : Casing Weight
CTRY               .         United States of America - US : Nation
DCS                .         23-Dec-2021                   : Date Circulation Stopped
DFD                .lbm/gal  9.25                          : Drilling Fluid Density
DFT                .         WATER                         : Drilling Fluid Type
DLAB               .         26-Dec-2021                   : Date Logger At Bottom
EDF                .ft       840.0001                      : Elevation of Drill Floor
EGL                .ft       826                           : Elevation of Ground Level
EKB                .ft       841                           : Elevation of Kelly Bushing
EPD                .ft       826                           : Elevation of Permanent Datum (PDAT) above Mean Sea Level
GDAT               .                                       : GeoDetic Datum
LMF                .         KB                            : Logging Measured From (Name of Logging Elevation Reference)
LUL                .         Bradford                      : Logging Unit Location
LUN                .         2266                          : Logging Unit Number
LATI               .         40.485663 degrees             : Latitude
LONG               .         -88.468241 degrees            : Longitude
MCST               .degF     67.9                          : Mudcake Sample Temperature
MFST               .degF     66.3                          : Mud Filtrate Sample Temperature
MRT                .degF     93.71                         : Maximum Recorded Temperature
MST                .degF     65.4                          : Mud Sample Temperature
ORIGINALWELLNAME   .         OEE #1                        : 
PDAT               .         GL                            : Permanent Datum
PRODUCER-CODE      .         440                           : 
PRODUCER-NAME      .         Schlumberger                  : 
RMB                .ohm.m    3.533802                      : Resistivity of Mud at Bottom Hole Temperature
RMCS               .ohm.m    6.12                          : Resistivity of Mud Cake Sample
RMFS               .ohm.m    3.85                          : Resistivity of Mud Filtrate Sample
RMS                .ohm.m    4.92                          : Resistivity of Mud Sample
RUN                .         1C                            : Run Number
STAT               .         Illinois                      : State or Province
TCS                .         23_45_00                      : Time Circulation Stopped
TDD                .ft       4052                          : Driller Total Depth
TDL                .ft       4052                          : Logger Total Depth
TLAB               .         02_57_00                      : Time Logger At Bottom
TLI                .ft       379                           : Top Log Interval
~Parameter Information Block
#_______________________________________________________________________________
#
#PARAMETER_NAME    .UNIT     VALUE                         : DESCRIPTION
#_______________________________________________________________________________
SET                .         LQC                           : 
TLFamily_AT10      .         Resistivity - Induction Array 10: 
TLFamily_AT20      .         Resistivity - Induction Array 20: 
TLFamily_AT30      .         Resistivity - Induction Array 30: 
TLFamily_AT60      .         Resistivity - Induction Array 60: 
TLFamily_AT90      .         Resistivity - Induction Array 90: 
TLFamily_BS        .         Bit Size                      : 
TLFamily_Calcite_QE .        Calcite Volume Fraction       : 
TLFamily_HCAL      .         Caliper                       : 
TLFamily_HCGR      .         Gamma Ray Minus Uranium       : 
TLFamily_HSGR      .         Gamma Ray                     : 
TLFamily_HTHO      .         Thorium Concentration         : 
TLFamily_Illite_QE .         Illite Volume Fraction        : 
TLFamily_KINT_GEO_QE .       Permeability                  : 
TLFamily_KSDR_CMR  .         NMR Permeability              : 
TLFamily_MD        .         Measured Depth                : 
TLFamily_MRP_CMR   .         NMR Porosity                  : 
TLFamily_MRP_CMR_Edited .    NMR Porosity                  : 
TLFamily_MRP_CMR_Edited_REC_QE .NMR Porosity               : 
TLFamily_PHIT_QE   .         Total Porosity                : 
TLFamily_PIGN_QE   .         Effective Porosity            : 
TLFamily_Pyrite_QE .         Pyrite Volume Fraction        : 
TLFamily_Quartz_QE .         Quartz Volume Fraction        : 
TLFamily_RHGA_GEO_QE .       Grain Density                 : 
TLFamily_RHOZ      .         Bulk Density                  : 
TLFamily_TNPH_LIM  .         Thermal Neutron Porosity Limestone: 
TLFamily_UWater_QE .         Undisturbed Zone Water Volume Fraction: 
TLFamily_VCL_GEO_QE .        Clay Volume Fraction          : 
TLFamily_WANH_WALK2 .        Anhydrite Weight Fraction     : 
TLFamily_WCAR_WALK2 .        Carbonate Weight Fraction     : 
TLFamily_WCLA_WALK2 .        Clay Weight Fraction          : 
TLFamily_WCOA_WALK2 .        Coal Weight Fraction          : 
TLFamily_WPYR_WALK2 .        Pyrite Weight Fraction        : 
TLFamily_WQFM_WALK2 .        Quartz-Feldspar-Mica Weight Fraction: 
~Curve Information
#_______________________________________________________________________________
#
#LOGNAME           .UNIT     LOG_ID                        : DESCRIPTION
#_______________________________________________________________________________
MD                 .ft                                     : Measured DEPTH 
AT10               .ohm.m                                  : Array Induction Two Foot Resistivity A10 
AT20               .ohm.m                                  : Array Induction Two Foot Resistivity A20 
AT30               .ohm.m                                  : Array Induction Two Foot Resistivity A30 
AT60               .ohm.m                                  : Array Induction Two Foot Resistivity A60 
AT90               .ohm.m                                  : Array Induction Two Foot Resistivity A90 
BS                 .in                                     : Bit Size 
Calcite_QE         .v/v                                    : Calcite Volume Fraction 
HCAL               .in                                     : HRCC Caliper Calibrated 
HCGR               .gAPI                                   : HNGS Computed Gamma Ray 
HSGR               .gAPI                                   : HNGS Standard Gamma-Ray 
HTHO               .ppm                                    : HNGS Formation Thorium Concentration 
Illite_QE          .v/v                                    : Illite Volume Fraction 
KINT_GEO_QE        .mD                                     : Permeability (Juhasz 1979) 
KSDR_CMR           .mD                                     : SDR Permeability 
MRP_CMR            .ft3/ft3                                : Magnetic Resonance Porosity 
MRP_CMR_Edited     .ft3/ft3                                : Magnetic Resonance Porosity 
MRP_CMR_Edited_REC_QE .ft3/ft3                             : Quanti.Elan Reconstructed curve 
PHIT_QE            .v/v                                    : Total Porosity 
PIGN_QE            .v/v                                    : Effective porosity (with irreducible water) 
Pyrite_QE          .v/v                                    : Pyrite Volume Fraction 
Quartz_QE          .v/v                                    : Quartz Volume Fraction 
RHGA_GEO_QE        .g/cm3                                  : Apparent grain density 
RHOZ               .g/cm3                                  : Standard Resolution Formation Density 
TNPH_LIM           .ft3/ft3                                : Thermal Neutron Porosity (matrix Limestone) 
UWater_QE          .v/v                                    : Undisturbed Zone Water Volume Fraction 
VCL_GEO_QE         .v/v                                    : Clay fraction 
WANH_WALK2         .lbm/lbm                                : Dry Weight Fraction Anhydrite/Gypsum 
WCAR_WALK2         .lbm/lbm                                : Dry Weight Fraction Carbonate 
WCLA_WALK2         .lbm/lbm                                : Dry Weight Fraction Clay 
WCOA_WALK2         .lbm/lbm                                : Dry Weight Fraction Coal 
WPYR_WALK2         .lbm/lbm                                : Dry Weight Fraction Pyrite from WALK2 Model 
WQFM_WALK2         .lbm/lbm                                : Dry Weight Fraction Quartz+Feldspar+Mica (QFM) 
~Ascii
# ...
6052.5000  39.4641    22.0226    16.3324    10.2116    8.8975     8.5000     0.0001     8.6211     19.1174    23.5990    3.0500     0.0161     10.9606    3.9655     0.0857     0.0857     0.0878     0.0863     0.0843     0.0000     0.8619     2.6494     2.5002     0.0362     0.0726     0.0182     0.0000     0.0000     0.0196     0.0000     0.0000     0.9804    
6053.0000  41.6905    23.0322    16.8796    10.4919    9.2713     8.5000     0.0001     8.6138     18.7260    22.9637    2.9804     0.0135     12.9208    6.6617     0.0850     0.0850     0.0868     0.0888     0.0870     0.0000     0.8622     2.6490     2.4950     0.0407     0.0702     0.0153     0.0000     0.0000     0.0164     0.0000     0.0001     0.9835    
6053.5000  45.0976    24.0597    17.3431    10.6671    9.5233     8.5000     0.0001     8.6066     16.4045    19.6541    2.6094     0.0054     16.9474    10.7784    0.0859     0.0859     0.0875     0.0912     0.0905     0.0000     0.8700     2.6479     2.4894     0.0411     0.0685     0.0061     0.0000     0.0000     0.0068     0.0000     0.0000     0.9932    
6054.0000  45.8127    24.7407    17.5283    10.6968    9.5988     8.5000     0.0003     8.5921     13.7564    16.5153    2.2310     0.0081     16.0172    12.8356    0.0885     0.0885     0.0900     0.0923     0.0912     0.0000     0.8731     2.6490     2.4843     0.0346     0.0683     0.0092     0.0000     0.0000     0.0098     0.0000     0.0008     0.9894    
6054.5000  45.0987    25.3490    17.6204    10.6436    9.5361     8.5000     0.0001     8.5849     13.5668    16.3790    2.1991     0.0048     15.7524    11.9346    0.0901     0.0901     0.0917     0.0900     0.0894     0.0000     0.8781     2.6484     2.4883     0.0320     0.0687     0.0054     0.0000     0.0000     0.0061     0.0000     0.0000     0.9939    
6055.0000  42.2349    25.5808    17.3342    10.3870    9.2227     8.5000     0.0001     8.5704     13.5925    16.3563    2.2431     0.0000     14.7774    9.6940     0.0892     0.0892     0.0911     0.0859     0.0859     0.0000     0.8856     2.6475     2.4970     0.0319     0.0704     0.0000     0.0000     0.0000     0.0004     0.0000     0.0000     0.9996    
6055.5000  36.5850    23.6853    15.7797    9.7282     8.5601     8.5000     0.0001     8.5849     15.2813    17.9672    2.5316     0.0007     14.9725    7.4233     0.0861     0.0861     0.0879     0.0862     0.0861     0.0000     0.8816     2.6474     2.4982     0.0322     0.0730     0.0008     0.0000     0.0000     0.0012     0.0000     0.0000     0.9988    
6056.0000  30.7337    20.8347    13.8407    8.8856     7.8395     8.5000     0.0000     8.5994     18.3259    20.5302    3.0078     0.0013     18.6238    5.5691     0.0843     0.0843     0.0860     0.0907     0.0906     0.0000     0.8702     2.6469     2.4959     0.0341     0.0753     0.0015     0.0000     0.0000     0.0018     0.0000     0.0000     0.9982    
6056.5000  26.2372    18.6142    12.4592    8.2204     7.1674     8.5000     0.0000     8.5776     19.6715    22.0625    3.1087     0.0013     23.9173    4.3817     0.0872     0.0872     0.0885     0.0962     0.0961     0.0000     0.8606     2.6465     2.4899     0.0409     0.0776     0.0014     0.0000     0.0000     0.0016     0.0000     0.0000     0.9984    
6057.0000  24.8954    18.3235    12.2652    8.0840     6.9260     8.5000     0.0000     8.5849     19.9916    21.8812    3.1508     0.0009     27.4009    4.0606     0.0930     0.0930     0.0935     0.0995     0.0994     0.0002     0.8568     2.6468     2.4879     0.0455     0.0782     0.0010     0.0000     0.0000     0.0012     0.0000     0.0000     0.9988    
6057.5000  25.3562    18.9470    12.3297    8.0466     6.8122     8.5000     0.0000     8.5414     18.2085    19.3571    2.8672     0.0011     27.1526    4.6767     0.0979     0.0979     0.0979     0.0998     0.0997     0.0000     0.8601     2.6467     2.4833     0.0456     0.0789     0.0013     0.0000     0.0000     0.0015     0.0000     0.0000     0.9985    
6058.0000  26.9490    18.9041    12.4780    8.1088     6.7522     8.5000     0.0000     8.5305     17.1979    18.1902    2.7127     0.0015     27.4358    6.4530     0.0997     0.0997     0.0997     0.1006     0.1004     0.0000     0.8612     2.6470     2.4765     0.0446     0.0792     0.0016     0.0000     0.0000     0.0020     0.0000     0.0000     0.9980    
6058.5000  30.0000    18.9220    12.8865    8.1880     6.7413     8.5000     0.0000     8.5087     16.3817    17.3297    2.5792     0.0017     30.8771    8.9078     0.0995     0.0995     0.1002     0.1041     0.1039     0.0000     0.8593     2.6472     2.4693     0.0421     0.0786     0.0019     0.0000     0.0000     0.0023     0.0000     0.0000     0.9977    
6059.0000  33.4004    19.2191    13.3151    8.3241     6.8349     8.5000     0.0000     8.4979     16.9696    17.6403    2.7113     0.0014     35.0917    11.4749    0.1013     0.1013     0.1024     0.1074     0.1072     0.0000     0.8556     2.6470     2.4624     0.0400     0.0775     0.0016     0.0000     0.0000     0.0019     0.0000     0.0000     0.9981    
6059.5000  37.5605    19.9128    13.5486    8.3439     6.8612     8.5000     0.0000     8.4979     16.4904    17.0856    2.6792     0.0007     35.5513    13.9313    0.1046     0.1046     0.1058     0.1076     0.1075     0.0000     0.8575     2.6471     2.4632     0.0392     0.0772     0.0008     0.0000     0.0000     0.0011     0.0000     0.0000     0.9989    
6060.0000  39.2245    20.1279    13.8496    8.3652     6.8674     8.5000     0.0001     8.5196     16.3335    16.9128    2.6697     0.0008     31.3474    15.9665    0.1064     0.1064     0.1075     0.1042     0.1041     0.0000     0.8612     2.6471     2.4661     0.0405     0.0779     0.0009     0.0000     0.0000     0.0013     0.0000     0.0000     0.9987    
6060.5000  40.8841    20.5286    13.9452    8.3212     6.8076     8.5000     0.0003     8.5051     15.5610    15.9224    2.4855     0.0071     26.5672    18.1212    0.1046     0.1046     0.1059     0.1039     0.1030     0.0000     0.8579     2.6484     2.4586     0.0438     0.0789     0.0080     0.0000     0.0000     0.0088     0.0000     0.0007     0.9905    
6061.0000  41.0233    21.4413    14.1767    8.2839     6.7245     8.5000     0.0003     8.5051     14.5567    15.1903    2.4190     0.0093     25.1165    18.1117    0.1018     0.1018     0.1040     0.1043     0.1031     0.0000     0.8592     2.6491     2.4536     0.0456     0.0795     0.0105     0.0000     0.0000     0.0115     0.0000     0.0010     0.9875    
6061.5000  38.7448    22.1648    14.3556    8.2228     6.5888     8.5000     0.0001     8.5051     13.1167    15.0890    2.2731     0.0049     27.8245    16.6738    0.1009     0.1009     0.1041     0.1048     0.1042     0.0000     0.8657     2.6486     2.4526     0.0447     0.0799     0.0055     0.0000     0.0000     0.0067     0.0000     0.0000     0.9933    
6062.0000  35.1699    21.1729    13.4701    7.8784     6.2764     8.5000     0.0001     8.5124     13.2120    14.8877    2.4650     0.0017     30.2749    16.6204    0.1010     0.1010     0.1046     0.1054     0.1052     0.0000     0.8694     2.6482     2.4550     0.0460     0.0815     0.0020     0.0000     0.0000     0.0028     0.0000     0.0000     0.9972    
6062.5000  31.8570    19.5441    12.4458    7.4808     5.9507     8.5000     0.0001     8.5124     12.8932    14.8479    2.3904     0.0000     33.5734    16.3302    0.1019     0.1019     0.1051     0.1072     0.1072     0.0000     0.8691     2.6479     2.4517     0.0494     0.0832     0.0000     0.0000     0.0000     0.0007     0.0000     0.0000     0.9993    
6063.0000  28.8702    18.7699    11.9848    7.2694     5.7317     8.5000     0.0001     8.5305     12.9551    15.1975    2.4894     0.0111     30.6585    14.1555    0.1033     0.1033     0.1063     0.1123     0.1108     0.0000     0.8580     2.6501     2.4458     0.0519     0.0846     0.0126     0.0000     0.0000     0.0141     0.0000     0.0000     0.9859    
6063.5000  27.2521    18.0909    11.6038    7.0986     5.5828     8.5000     0.0002     8.5196     15.1356    17.8064    2.8371     0.0278     21.7746    9.9434     0.1067     0.1067     0.1097     0.1130     0.1095     0.0000     0.8421     2.6529     2.4530     0.0505     0.0864     0.0313     0.0000     0.0000     0.0338     0.0000     0.0003     0.9659    
