~Version
 VERS              .         2.0                           : CWLS LOG ASCII STANDARD - VERSION 2.0
 WRAP              .         NO                            : ONE LINE PER DEPTH STEP
 DLM               .         SPACE                         : DELIMITING CHARACTER(SPACE TAB OR COMMA)
~Well Information
#_______________________________________________________________________________
#
#PARAMETER_NAME    .UNIT     VALUE                         : DESCRIPTION
#_______________________________________________________________________________
STRT               .ft       4040.0000                     : First reference value
STOP               .ft       7075.0000                     : Last reference value
STEP               .ft       0.5000                        : Step increment
NULL               .         -999.25                       : Missing value
COMP               .         One Earth Energy              : Company
WELL               .         OEE #1                        : Well name
FLD                .         OEE                           : Field
LOC                .                                       : Location
PROV               .         Illinois                      : Province
SRVC               .         Schlumberger                  : Service Company
DATE               .         26-Dec-2021                   : Date
UWI                .         12-113-25373-00               : Unique Well ID
APD                .ft       15                            : Elevation of Depth Reference (LMF) Above Permanent Datum
API                .         12-113-25373-00               : API NUMBER
BHS                .         OPEN                          : Borehole Status (Open or Cased Hole)
BHT                .degF     93.71                         : Bottom Hole Temperature
BLI                .ft       4052                          : Bottom Log Interval
BS                 .in       12.25                         : Bit Size
CBDR               .ft       374                           : Casing Bottom of Driller
CBLO               .ft       374                           : Logger Casing Shoe Depth
CNTY               .         McLean                        : COUNTY
CSIZ               .in       13.375                        : Current Casing Size
CWEI               .lbm/ft   54.5                          : Casing Weight
CTRY               .         United States of America - US : Nation
DCS                .         23-Dec-2021                   : Date Circulation Stopped
DFD                .lbm/gal  9.25                          : Drilling Fluid Density
DFT                .         WATER                         : Drilling Fluid Type
DLAB               .         26-Dec-2021                   : Date Logger At Bottom
EDF                .ft       840.0001                      : Elevation of Drill Floor
EGL                .ft       826                           : Elevation of Ground Level
EKB                .ft       841                           : Elevation of Kelly Bushing
EPD                .ft       826                           : Elevation of Permanent Datum (PDAT) above Mean Sea Level
GDAT               .                                       : GeoDetic Datum
LMF                .         KB                            : Logging Measured From (Name of Logging Elevation Reference)
LUL                .         Bradford                      : Logging Unit Location
LUN                .         2266                          : Logging Unit Number
LATI               .         40.485663 degrees             : Latitude
LONG               .         -88.468241 degrees            : Longitude
MCST               .degF     67.9                          : Mudcake Sample Temperature
MFST               .degF     66.3                          : Mud Filtrate Sample Temperature
MRT                .degF     93.71                         : Maximum Recorded Temperature
MST                .degF     65.4                          : Mud Sample Temperature
ORIGINALWELLNAME   .         OEE #1                        : 
PDAT               .         GL                            : Permanent Datum
PRODUCER-CODE      .         440                           : 
PRODUCER-NAME      .         Schlumberger                  : 
RMB                .ohm.m    3.533802                      : Resistivity of Mud at Bottom Hole Temperature
RMCS               .ohm.m    6.12                          : Resistivity of Mud Cake Sample
RMFS               .ohm.m    3.85                          : Resistivity of Mud Filtrate Sample
RMS                .ohm.m    4.92                          : Resistivity of Mud Sample
RUN                .         1C                            : Run Number
STAT               .         Illinois                      : State or Province
TCS                .         23_45_00                      : Time Circulation Stopped
TDD                .ft       4052                          : Driller Total Depth
TDL                .ft       4052                          : Logger Total Depth
TLAB               .         02_57_00                      : Time Logger At Bottom
TLI                .ft       379                           : Top Log Interval
~Parameter Information Block
#_______________________________________________________________________________
#
#PARAMETER_NAME    .UNIT     VALUE                         : DESCRIPTION
#_______________________________________________________________________________
SET                .         LQC                           : 
TLFamily_AT10      .         Resistivity - Induction Array 10: 
TLFamily_AT20      .         Resistivity - Induction Array 20: 
TLFamily_AT30      .         Resistivity - Induction Array 30: 
TLFamily_AT60      .         Resistivity - Induction Array 60: 
TLFamily_AT90      .         Resistivity - Induction Array 90: 
TLFamily_BS        .         Bit Size                      : 
TLFamily_Calcite_QE .        Calcite Volume Fraction       : 
TLFamily_HCAL      .         Caliper                       : 
TLFamily_HCGR      .         Gamma Ray Minus Uranium       : 
TLFamily_HSGR      .         Gamma Ray                     : 
TLFamily_HTHO      .         Thorium Concentration         : 
TLFamily_Illite_QE .         Illite Volume Fraction        : 
TLFamily_KINT_GEO_QE .       Permeability                  : 
TLFamily_KSDR_CMR  .         NMR Permeability              : 
TLFamily_MD        .         Measured Depth                : 
TLFamily_MRP_CMR   .         NMR Porosity                  : 
TLFamily_MRP_CMR_Edited .    NMR Porosity                  : 
TLFamily_MRP_CMR_Edited_REC_QE .NMR Porosity               : 
TLFamily_PHIT_QE   .         Total Porosity                : 
TLFamily_PIGN_QE   .         Effective Porosity            : 
TLFamily_Pyrite_QE .         Pyrite Volume Fraction        : 
TLFamily_Quartz_QE .         Quartz Volume Fraction        : 
TLFamily_RHGA_GEO_QE .       Grain Density                 : 
TLFamily_RHOZ      .         Bulk Density                  : 
TLFamily_TNPH_LIM  .         Thermal Neutron Porosity Limestone: 
TLFamily_UWater_QE .         Undisturbed Zone Water Volume Fraction: 
TLFamily_VCL_GEO_QE .        Clay Volume Fraction          : 
TLFamily_WANH_WALK2 .        Anhydrite Weight Fraction     : 
TLFamily_WCAR_WALK2 .        Carbonate Weight Fraction     : 
TLFamily_WCLA_WALK2 .        Clay Weight Fraction          : 
TLFamily_WCOA_WALK2 .        Coal Weight Fraction          : 
TLFamily_WPYR_WALK2 .        Pyrite Weight Fraction        : 
TLFamily_WQFM_WALK2 .        Quartz-Feldspar-Mica Weight Fraction: 
~Curve Information
#_______________________________________________________________________________
#
#LOGNAME           .UNIT     LOG_ID                        : DESCRIPTION
#_______________________________________________________________________________
MD                 .ft                                     : Measured DEPTH 
AT10               .ohm.m                                  : Array Induction Two Foot Resistivity A10 
AT20               .ohm.m                                  : Array Induction Two Foot Resistivity A20 
AT30               .ohm.m                                  : Array Induction Two Foot Resistivity A30 
AT60               .ohm.m                                  : Array Induction Two Foot Resistivity A60 
AT90               .ohm.m                                  : Array Induction Two Foot Resistivity A90 
BS                 .in                                     : Bit Size 
Calcite_QE         .v/v                                    : Calcite Volume Fraction 
HCAL               .in                                     : HRCC Caliper Calibrated 
HCGR               .gAPI                                   : HNGS Computed Gamma Ray 
HSGR               .gAPI                                   : HNGS Standard Gamma-Ray 
HTHO               .ppm                                    : HNGS Formation Thorium Concentration 
Illite_QE          .v/v                                    : Illite Volume Fraction 
KINT_GEO_QE        .mD                                     : Permeability (Juhasz 1979) 
KSDR_CMR           .mD                                     : SDR Permeability 
MRP_CMR            .ft3/ft3                                : Magnetic Resonance Porosity 
MRP_CMR_Edited     .ft3/ft3                                : Magnetic Resonance Porosity 
MRP_CMR_Edited_REC_QE .ft3/ft3                             : Quanti.Elan Reconstructed curve 
PHIT_QE            .v/v                                    : Total Porosity 
PIGN_QE            .v/v                                    : Effective porosity (with irreducible water) 
Pyrite_QE          .v/v                                    : Pyrite Volume Fraction 
Quartz_QE          .v/v                                    : Quartz Volume Fraction 
RHGA_GEO_QE        .g/cm3                                  : Apparent grain density 
RHOZ               .g/cm3                                  : Standard Resolution Formation Density 
TNPH_LIM           .ft3/ft3                                : Thermal Neutron Porosity (matrix Limestone) 
UWater_QE          .v/v                                    : Undisturbed Zone Water Volume Fraction 
VCL_GEO_QE         .v/v                                    : Clay fraction 
WANH_WALK2         .lbm/lbm                                : Dry Weight Fraction Anhydrite/Gypsum 
WCAR_WALK2         .lbm/lbm                                : Dry Weight Fraction Carbonate 
WCLA_WALK2         .lbm/lbm                                : Dry Weight Fraction Clay 
WCOA_WALK2         .lbm/lbm                                : Dry Weight Fraction Coal 
WPYR_WALK2         .lbm/lbm                                : Dry Weight Fraction Pyrite from WALK2 Model 
WQFM_WALK2         .lbm/lbm                                : Dry Weight Fraction Quartz+Feldspar+Mica (QFM) 
~Ascii
# ...
4247.0000  11.9750    14.0138    14.8875    15.2421    14.5159    8.5000     0.0002     10.1289    127.3921   141.6823   11.1799    0.4096     0.0189     2.1361     0.3544     0.2381     0.1575     0.1575     0.1048     0.0000     0.4327     2.7181     2.3105     0.2329     0.1048     0.4624     0.0000     0.0000     0.4933     0.0000     0.0084     0.4983    
4247.5000  10.3367    11.4091    12.5939    14.3083    13.0973    8.5000     0.0047     10.9190    123.2380   137.1403   10.8244    0.4069     0.0308     0.9134     0.2959     0.2958     0.1771     0.1771     0.1247     0.0000     0.4113     2.7196     2.2122     0.2462     0.1247     0.4592     0.0000     0.0000     0.4934     0.0000     0.0292     0.4774    
4248.0000  12.4421    13.5721    14.1018    14.8047    14.9803    8.5000     0.0081     11.4337    130.9339   145.9064   11.6582    0.4038     0.0220     0.4493     0.2538     0.2518     0.1604     0.1604     0.1085     0.0000     0.4277     2.7179     2.2962     0.2249     0.1085     0.4557     0.0000     0.0000     0.4778     0.0000     0.0375     0.4847    
4248.5000  15.4121    16.5532    16.1581    17.0711    17.3087    8.5000     0.0049     10.3609    142.8327   159.0902   12.7597    0.3907     0.0146     1.0366     0.3082     0.1919     0.1357     0.1357     0.0854     0.0000     0.4688     2.7136     2.3973     0.2194     0.0854     0.4409     0.0000     0.0000     0.4554     0.0000     0.0220     0.5226    
4249.0000  12.7340    16.8599    17.5904    17.1399    18.8106    8.5000     0.0000     10.6218    147.2904   163.2281   13.3284    0.3762     0.0163     3.7802     0.4118     0.1761     0.1289     0.1289     0.0805     0.0000     0.4949     2.7105     2.4141     0.2148     0.0805     0.4246     0.0000     0.0000     0.4429     0.0000     0.0015     0.5556    
4249.5000  10.8281    13.2016    12.9926    13.1431    14.9814    8.5000     0.0000     11.4337    142.3546   159.6727   12.7642    0.3311     0.1084     10.6152    0.5168     0.2496     0.1589     0.1589     0.1163     0.0000     0.5100     2.7051     2.2749     0.2319     0.1163     0.3737     0.0000     0.0000     0.4037     0.0000     0.0000     0.5963    
4250.0000  10.3392    11.5084    12.4187    12.8674    12.8133    8.5000     0.0000     12.5138    138.7489   153.8778   12.8832    0.2923     0.3186     16.1628    0.5756     0.2777     0.1690     0.1690     0.1314     0.0000     0.5388     2.6992     2.2187     0.2290     0.1314     0.3299     0.0000     0.0000     0.3601     0.0000     0.0000     0.6399    
4250.5000  9.8299     10.6600    10.9740    11.6034    11.5968    8.5000     0.0000     12.6406    136.8351   151.1271   12.6998    0.2757     0.4948     16.5778    0.5761     0.2867     0.1727     0.1727     0.1372     0.0000     0.5516     2.6967     2.1994     0.2479     0.1372     0.3112     0.0000     0.0043     0.3387     0.0000     0.0000     0.6570    
4251.0000  8.8125     9.7268     10.1805    11.2965    10.1102    8.5000     0.0008     11.8686    135.5725   148.5757   13.0566    0.2846     0.4149     16.3036    0.5720     0.2819     0.1737     0.1737     0.1370     0.0000     0.5410     2.6983     2.2098     0.2754     0.1370     0.3212     0.0000     0.0053     0.3502     0.0000     0.0000     0.6444    
4251.5000  8.3543     9.0254     9.2725     9.9934     9.0170     8.5000     0.0066     12.6733    131.7160   144.7446   12.8942    0.2998     0.2768     12.4099    0.5350     0.2690     0.1719     0.1719     0.1334     0.0000     0.5217     2.7012     2.2365     0.3047     0.1334     0.3383     0.0000     0.0118     0.3691     0.0000     0.0000     0.6191    
4252.0000  8.9793     9.6616     10.3085    10.8359    10.2084    8.5000     0.0000     13.0285    129.4088   141.8657   12.4842    0.3327     0.0971     6.4805     0.4589     0.2272     0.1559     0.1559     0.1131     0.0000     0.5114     2.7052     2.3169     0.3092     0.1131     0.3755     0.0000     0.0000     0.4042     0.0000     0.0000     0.5958    
4252.5000  10.0066    10.8202    11.8002    12.5381    11.9452    8.5000     0.0000     13.8983    129.5795   141.8124   12.4362    0.3758     0.0265     2.2598     0.3590     0.1963     0.1432     0.1432     0.0948     0.0000     0.4810     2.7114     2.3773     0.3197     0.0948     0.4242     0.0000     0.0000     0.4495     0.0000     0.0000     0.5505    
4253.0000  10.8699    11.7613    12.6058    12.0650    11.8268    8.5000     0.0000     14.3188    131.7409   144.5142   12.7090    0.3766     0.0438     0.3870     0.2602     0.2445     0.1623     0.1623     0.1138     0.0000     0.4611     2.7129     2.2898     0.2805     0.1138     0.4251     0.0000     0.0000     0.4606     0.0000     0.0000     0.5394    
4253.5000  11.6941    12.3487    13.0831    13.0095    13.1590    8.5000     0.0000     14.9567    135.4734   148.5426   12.9628    0.3892     0.0420     0.0598     0.1910     0.2757     0.1722     0.1722     0.1221     0.0000     0.4386     2.7158     2.2339     0.2655     0.1221     0.4393     0.0000     0.0000     0.4807     0.0000     0.0000     0.5193    
4254.0000  11.9222    12.3394    12.6954    13.2691    13.3137    8.5000     0.0000     14.0868    139.1231   152.7812   13.4569    0.4008     0.0303     0.0067     0.1398     0.2654     0.1688     0.1688     0.1173     0.0000     0.4304     2.7175     2.2540     0.2404     0.1173     0.4524     0.0000     0.0000     0.4926     0.0000     0.0000     0.5074    
4254.5000  10.7788    11.4465    11.9863    12.7092    12.8833    8.5000     0.0000     12.7820    137.8130   152.3857   13.0852    0.4077     0.0144     0.0007     0.1025     0.2041     0.1462     0.1462     0.0938     0.0000     0.4461     2.7168     2.3697     0.2374     0.0938     0.4601     0.0000     0.0000     0.4893     0.0000     0.0000     0.5107    
4255.0000  10.5639    10.7424    11.4766    12.1658    12.3773    8.5000     0.0020     11.8686    138.7541   152.3636   13.4153    0.4201     0.0034     0.0001     0.0833     0.1357     0.1160     0.1160     0.0620     0.0000     0.4619     2.7167     2.4979     0.2526     0.0620     0.4741     0.0000     0.0028     0.4874     0.0000     0.0000     0.5098    
4255.5000  9.9917     10.4914    11.2577    12.0334    12.1909    8.5000     0.0000     11.7490    134.5885   149.0516   12.7585    0.4408     0.0007     0.0028     0.1326     0.0982     0.0969     0.0969     0.0401     0.0012     0.4611     2.7214     2.5695     0.2644     0.0401     0.4976     0.0000     0.0000     0.5015     0.0000     0.0000     0.4985    
4256.0000  9.6795     10.4352    11.2983    12.0858    12.2406    8.5000     0.0000     11.0205    132.4033   147.6841   12.2287    0.4380     0.0015     0.0898     0.2329     0.1186     0.1078     0.1078     0.0515     0.0000     0.4541     2.7187     2.5312     0.2578     0.0515     0.4944     0.0000     0.0000     0.5036     0.0000     0.0000     0.4964    
4256.5000  10.2762    11.2614    11.6041    12.4439    12.2353    8.5000     0.0000     11.1945    126.3678   142.0536   11.2887    0.3836     0.0355     1.1620     0.3398     0.2400     0.1598     0.1598     0.1105     0.0000     0.4566     2.7139     2.3024     0.2581     0.1105     0.4329     0.0000     0.0000     0.4676     0.0000     0.0000     0.5324    
4257.0000  8.6849     9.8469     10.0094    11.1104    11.2069    8.5000     0.0000     12.5355    122.8114   137.9253   10.8863    0.3281     0.2796     3.4612     0.4082     0.3762     0.2023     0.2023     0.1601     0.0000     0.4696     2.7076     2.0464     0.3053     0.1601     0.3703     0.0000     0.0046     0.4159     0.0000     0.0000     0.5796    
4257.5000  8.3393     7.7466     8.4097     9.2539     8.7505     8.5000     0.0339     14.0506    117.2686   132.6751   10.5612    0.2914     0.5882     2.8557     0.3922     0.4092     0.2140     0.2140     0.1765     0.0000     0.4608     2.7045     1.9822     0.3464     0.1765     0.3289     0.0000     0.0519     0.3704     0.0000     0.0000     0.5777    
4258.0000  9.5894     9.9788     10.1712    11.4010    9.8529     8.5000     0.0473     13.7171    117.7126   133.5256   10.8405    0.2934     0.2495     1.4691     0.3409     0.2826     0.1736     0.1736     0.1358     0.0000     0.4858     2.7031     2.2134     0.3035     0.1358     0.3311     0.0000     0.0608     0.3614     0.0000     0.0000     0.5777    
