~Version Information
VERS  .          2.0                              :CWLS Log Ascii Standard - Version 2.0
WRAP  .          NO                               :One line per depth step
~Well Information Block
#MNEM.UNIT       Data Type                        Information
#---------       ---------                        -------------------------------
STRT  .F         5250.00000                       :START DEPTH
STOP  .F         7202.00000                       :STOP DEPTH
STEP  .F          0.50000                         :INCREMENT
NULL  .          -999.25                          :NULL DATA VALUE
COMP  .          ADM COMPANY                      :COMPANY
WELL  .          VERIFICATION WELL 1 Run 2        :WELL
FLD   .          WILDCAT                          :FIELD
LOC   .                                           :LOCATION
PROV  .                                           :PROVINCE
STAT  .                                           :STATE
CNTY  .                                           :COUNTY
CTRY  .                                           :COUNTRY
DATE  .                                           :DATE
UWI   .          VERIFICATION WELL 1 Run 2        :UNIQUE WELL UWI
LIC   .                                           :LICENSE NUMBER
API   .          121152346000                     :API NUMBER
SRVC  .                                           :SERVICE COMPANY
~Parameter Information Block
#MNEM.UNIT       Value                            Description
#---------       ---------                        -------------
LONG  .DEG       -88.893356                       :Well Surface Location
LATI  .DEG       39.879810                        :Well Surface Location
XWELL .DEG       -88.893356                       :X-coordinate of Well Head
YWELL .DEG       39.879810                        :Y-coordinate of Well Head
PDAT  .          GROUND LEVEL                     :Permanent Datum               
EPD   .ft        669.00                           :Elevation of Permanent Datum (PDAT) above Mean Sea Level
LMF   .          KELLY BUSHING                    :Logging Measured From (Name of Working Datum)
APD   .ft        15.00                            :Elevation of Working Datum (LMF) Above Permanent Datum
EDF   .ft        683.00                           :Elevation of Derrick Floor Above Mean Sea Level
EGL   .ft        669.00                           :Elevation of Ground Level Above Mean Sea Level
EKB   .ft        684.00                           :Elevation of Kelly Bushing Above Mean Sea Level
~Curve Information Block
#MNEM.UNIT       API Code            Curve    Description
#--------        --------------      -----    -------------------
DEPT  .F                             :0       Index
C44_BH.6PSI                          :1       C44 Referred to the Borehole Axis in a Deviated Well
C55_BH.6PSI                          :2       C55 Referred to the Borehole Axis in a Deviated Well
C66_BH.6PSI                          :3       C66 Referred to the Borehole Axis in a Deviated Well
GR_EDTC.GAPI                          :4       Gamma Ray                     
HD1_PPC1.IN                            :5       PPC1 Hole Diameter 1          
HD1_PPC1.IN                            :6       PPC1 Hole Diameter 1          
HD2_PPC1.IN                            :7       PPC1 Hole Diameter 2          
KINT  .MD                            :8       Intrinsic Permeability        
MAXXENE_OVERALL.                              :9       Overall estimate of maximum cross energy
MINXENE_OVERALL.                              :10      Overall estimate of minimum cross energy
PHIT  .V/V                           :11      Total Porosity_ includes all forms of porosity, including that occupied by bound fluids, and is independent of rock and fluid materials and of environmental effects
PPGI  .PS/F                          :12      Pore Pressure Gradient        
PPRS  .PSI                           :13      Pore Pressure                 
PR_HORIZ_FSA_SSA_DYN.                              :14      Dynamic Horizontal Poissons Ratio - Loading Fast Shear Azimuth - Displacement Slow Shear Aximuth
PR_VERT_FSA_DYN.                              :15      Dynamic Vertical Poissons Ratio - Loading Vertical - Displacement Fast Shear Aximuth
RHOZ  .G/C3                          :16      HRDD Standard Resolution Formation Density
SUWI  .V/V                           :17      Non-Clay Water Intergranular Water Saturation for Undisturbed Zone
TENS  .LBF                           :18      Cable Tension                 
TXSG  .PS/F                          :19      Total Minimum Horizontal Stress Gradient
TXSG  .PS/F                          :20      Total Minimum Horizontal Stress Gradient
TXSP  .PSI                           :21      Total Minimum Horizontal Stress - Sigma X
TXSP  .PSI                           :22      Total Minimum Horizontal Stress - Sigma X
TZSG  .PS/F                          :23      Total Vertical Stress Gradient
TZSP  .PSI                           :24      Total Vertical Stress - Sigma Z
VCL   .V/V                           :25      Volume of Clay Type Material Relative to Total Volume
YME_HORIZ_SSA_DYN.6PSI                          :26      Dynamic Horizontal Youngs Modulus in the Slow Shear Azimuth Direction
YME_HORIZ_SSA_STA.6PSI                          :27      Static Horizontal Youngs Modulus in the Slow Shear Azimuth Direction
YME_VERT_DYN.6PSI                          :28      Dynamic Vertical Youngs Modulus
YME_VERT_STA.6PSI                          :29      Static Vertical Youngs Modulus
~Ascii Data Section
# ...
   6670.00000       1.55803       1.48258       1.56405      69.66386       8.29211       8.28034       8.30389     925.43860      15.02435       1.64714       0.23241       0.43350    2891.44482       0.26462       0.26716       2.33109       1.00000    3456.00000       0.66246       0.66172    4418.60205    4413.64697       1.05000    7003.49951       0.00182       3.95587       1.77560       3.86973       1.73693 
   6670.50000       1.53231       1.45683       1.48179      63.21869       8.28243       8.27128       8.29358     624.48901      15.59592       1.66276       0.23519       0.43350    2891.66162       0.25325       0.25325       2.31947       1.00000    3483.52930       0.61710       0.63613    4116.38232    4243.27588       1.05000    7004.02490       0.01636       3.39932       1.50490       3.84072       1.70031 
   6671.00000       1.50175       1.41517       1.44379      57.73552       8.30643       8.27103       8.34182     402.78305      16.06592       1.66228       0.23086       0.43350    2891.87842       0.23690       0.23690       2.29503       1.00000    3486.75586       0.59844       0.61862    3992.20459    4126.83301       1.05000    7004.54980       0.03254       3.22669       1.45936       3.71501       1.68021 
   6671.50000       1.47509       1.38792       1.43684      53.96958       8.34306       8.29862       8.38751     274.23068      16.44347       1.67584       0.21448       0.43350    2892.09521       0.23751       0.23520       2.28910       1.00000    3499.01343       0.62272       0.62744    4154.50732    4185.97559       1.05000    7005.07471       0.05548       3.55621       1.73713       3.57396       1.74580 
   6672.00000       1.46039       1.37417       1.44123      52.27222       8.35891       8.30790       8.40993     235.52866      16.74481       1.66084       0.20026       0.43350    2892.31201       0.23914       0.23880       2.28964       1.00000    3511.41333       0.62870       0.63106    4194.67188    4210.43848       1.05000    7005.59961       0.06453       3.57175       1.85697       3.54050       1.84073 
   6672.50000       1.46111       1.37368       1.45814      52.78644       8.35809       8.30106       8.41512     279.24249      16.88040       1.54369       0.19903       0.43350    2892.52881       0.24531       0.24684       2.29007       1.00000    3507.67358       0.63935       0.63971    4266.04443    4268.48486       1.05000    7006.12451       0.05176       3.63169       1.89801       3.55744       1.85920 
   6673.00000       1.47944       1.38932       1.45222      55.44689       8.38224       8.32861       8.43587     337.04956      16.55632       1.19659       0.20264       0.43350    2892.74536       0.26088       0.25957       2.29277       1.00000    3464.11768       0.65073       0.65409    4342.32715    4364.72705       1.05000    7006.64990       0.03215       3.66214       1.88471       3.64998       1.87844 
   6673.50000       1.55595       1.45224       1.44836      56.92237       8.31248       8.30548       8.31947     474.22311      15.77724       0.96080       0.20451       0.43350    2892.96216       0.26975       0.26975       2.29916       1.00000    3354.50000       0.62398       0.65118    4164.11084    4345.67139       1.05000    7007.17480       0.02016       3.34474       1.70753       3.95134       2.01721 
   6674.00000       1.63505       1.55245       1.43933      58.39336       8.30682       8.29417       8.31947     346.17856      14.82032       0.99589       0.19646       0.43350    2893.17896       0.28083       0.28083       2.31738       1.00000    3316.12500       0.64321       0.66553    4292.79150    4441.73096       1.05000    7007.69971       0.03053       3.68605       1.94735       4.18845       2.21278 
   6674.50000       1.74438       1.68114       1.42958      56.67189       8.27664       8.25971       8.29358     176.47592      13.64526       0.99225       0.17417       0.43350    2893.39575       0.29013       0.29013       2.35460       1.00000    3296.17651       0.66132       0.67846    4413.99805    4528.39990       1.05000    7008.22461       0.04739       4.10274       2.36961       4.50096       2.59961 
   6675.00000       1.90891       1.82746       1.43253      65.69178       8.30519       8.28230       8.32809      50.14265      12.23065       0.94210       0.13966       0.43350    2893.61255       0.29748       0.29748       2.41403       1.00000    3359.06250       0.66516       0.68581    4439.95361    4577.79150       1.05000    7008.74951       0.07139       4.44003       2.90306       4.95354       3.23881 
   6675.50000       2.04756       1.94457       1.43211      80.58228       8.33751       8.31679       8.35822      21.78399      10.82853       0.88552       0.11496       0.43350    2893.82910       0.30340       0.30340       2.45901       1.00000    3383.00000       0.66658       0.69126    4449.72314    4614.53223       1.05000    7009.27490       0.07693       4.69007       3.32257       5.33760       3.78130 
   6676.00000       2.08959       1.98643       1.52115      96.39809       8.33173       8.30523       8.35822      20.33385       9.79446       0.81659       0.11487       0.43350    2894.04590       0.30083       0.30083       2.46710       1.00000    3377.25000       0.66446       0.68844    4435.90625    4596.05225       1.05000    7009.79980       0.07616       4.78934       3.39385       5.43643       3.85240 
   6676.50000       2.03331       1.93923       1.65037      94.41479       8.35381       8.32785       8.37976      32.82432       9.14899       0.76039       0.13314       0.43350    2894.26270       0.28634       0.28634       2.43375       1.00000    3344.06250       0.65125       0.67238    4348.10059    4489.16748       1.05000    7010.32471       0.07457       4.65061       3.10776       5.23108       3.49565 
   6677.00000       1.92657       1.82705       1.73545      82.39367       8.33173       8.30523       8.35822      51.84523       8.60541       0.72998       0.15369       0.43350    2894.47949       0.26186       0.26186       2.39528       1.00000    3374.06250       0.62408       0.64484    4166.97949    4305.60791       1.05000    7010.84961       0.07172       4.27451       2.66229       4.86212       3.02828 
   6677.50000       1.80926       1.70863       1.86045      67.84544       8.33173       8.30523       8.35822      85.86138       8.06084       0.69867       0.17166       0.43350    2894.69629       0.23523       0.24213       2.36154       1.00000    3418.81250       0.63927       0.63296    4268.72705    4226.58154       1.05000    7011.37451       0.07257       4.59617       2.68009       4.35984       2.54228 
   6678.00000       1.71270       1.61624       1.91919      59.35691       8.31963       8.29392       8.34534     136.13474       7.57626       0.66346       0.18521       0.43350    2894.91284       0.21423       0.23639       2.33245       1.00000    3414.23535       0.64876       0.62330    4332.39551    4162.36719       1.05000    7011.89990       0.07296       4.66070       2.57815       4.01568       2.22134 
   6678.50000       1.64745       1.55090       1.79029      54.86067       8.27730       8.24813       8.30647     156.14160       7.19319       0.60973       0.19258       0.43350    2895.12964       0.21991       0.23593       2.30561       1.00000    3346.93750       0.64252       0.62491    4291.06836    4173.45020       1.05000    7012.42480       0.07968       4.36797       2.34507       3.89642       2.09190 
   6679.00000       1.62170       1.51281       1.66811      56.43818       8.30019       8.29392       8.30647     175.41144       6.94633       0.51722       0.19754       0.43350    2895.34644       0.23107       0.23779       2.29020       1.00000    3327.43750       0.63527       0.62955    4242.98242    4204.76123       1.05000    7012.94971       0.08373       4.10712       2.16000       3.88070       2.04093 
   6679.50000       1.61903       1.50387       1.61787      57.30416       8.30351       8.30495       8.30207     177.50423       6.69592       0.41260       0.19339       0.43350    2895.56323       0.24138       0.24342       2.29461       1.00000    3347.50000       0.63663       0.63677    4252.34766    4253.30811       1.05000    7013.47461       0.08428       4.01676       2.14933       3.91174       2.09313 
