~Version Information
VERS  .          2.0                              :CWLS Log Ascii Standard - Version 2.0
WRAP  .          NO                               :One line per depth step
~Well Information Block
#MNEM.UNIT       Data Type                        Information
#---------       ---------                        -------------------------------
STRT  .F         1820.00000                       :START DEPTH
STOP  .F         5250.00000                       :STOP DEPTH
STEP  .F          0.50000                         :INCREMENT
NULL  .          -999.25                          :NULL DATA VALUE
COMP  .          ADM COMPANY                      :COMPANY
WELL  .          VERIFICATION WELL 1              :WELL
FLD   .          WILDCAT                          :FIELD
LOC   .                                           :LOCATION
PROV  .                                           :PROVINCE
STAT  .                                           :STATE
CNTY  .                                           :COUNTY
CTRY  .                                           :COUNTRY
DATE  .                                           :DATE
UWI   .          VERIFICATION WELL 1              :UNIQUE WELL UWI
LIC   .                                           :LICENSE NUMBER
API   .                                           :API NUMBER
SRVC  .                                           :SERVICE COMPANY
~Parameter Information Block
#MNEM.UNIT       Value                            Description
#---------       ---------                        -------------
LONG  .DEG       -88.893356                       :Well Surface Location
LATI  .DEG       39.879810                        :Well Surface Location
XWELL .DEG       -88.893356                       :X-coordinate of Well Head
YWELL .DEG       39.879810                        :Y-coordinate of Well Head
PDAT  .          GROUND LEVEL                     :Permanent Datum               
EPD   .ft        669.00                           :Elevation of Permanent Datum (PDAT) above Mean Sea Level
LMF   .          KELLY BUSHING                    :Logging Measured From (Name of Working Datum)
APD   .ft        15.00                            :Elevation of Working Datum (LMF) Above Permanent Datum
EDF   .ft        683.00                           :Elevation of Derrick Floor Above Mean Sea Level
EGL   .ft        669.00                           :Elevation of Ground Level Above Mean Sea Level
EKB   .ft        684.00                           :Elevation of Kelly Bushing Above Mean Sea Level
~Curve Information Block
#MNEM.UNIT       API Code            Curve    Description
#--------        --------------      -----    -------------------
DEPT  .F                             :0       Index
C44_BH.6PSI                          :1       C44 Referred to the Borehole Axis in a Deviated Well
C55_BH.6PSI                          :2       C55 Referred to the Borehole Axis in a Deviated Well
C66_BH.6PSI                          :3       C66 Referred to the Borehole Axis in a Deviated Well
GR_EDTC.GAPI                          :4       Gamma Ray                     
HD1_PPC1.IN                            :5       PPC1 Hole Diameter 1          
HD1_PPC1.IN                            :6       PPC1 Hole Diameter 1          
HD2_PPC1.IN                            :7       PPC1 Hole Diameter 2          
KINT  .MD                            :8       Intrinsic Permeability        
MAXXENE_OVERALL.                              :9       Overall estimate of maximum cross energy
MINXENE_OVERALL.                              :10      Overall estimate of minimum cross energy
PHIT  .V/V                           :11      Total Porosity_ includes all forms of porosity, including that occupied by bound fluids, and is independent of rock and fluid materials and of environmental effects
PPGI  .PS/F                          :12      Pore Pressure Gradient        
PPRS  .PSI                           :13      Pore Pressure                 
PR_HORIZ_SSA_FSA_DYN.                              :14      Dynamic Horizontal Poissons Ratio - Loading Slow Shear Azimuth - Displacement Fast Shear Azimuth
PR_VERT_FSA_DYN.                              :15      Dynamic Vertical Poissons Ratio - Loading Vertical - Displacement Fast Shear Aximuth
RHOZ  .G/C3                          :16      HRDD Standard Resolution Formation Density
RHOZ  .G/C3                          :17      HRDD Standard Resolution Formation Density
SUWI  .V/V                           :18      Non-Clay Water Intergranular Water Saturation for Undisturbed Zone
TENS  .LBF                           :19      Cable Tension                 
TXSG  .PS/F                          :20      Total Minimum Horizontal Stress Gradient
TXSG  .PS/F                          :21      Total Minimum Horizontal Stress Gradient
TXSP  .PSI                           :22      Total Minimum Horizontal Stress - Sigma X
TXSP  .PSI                           :23      Total Minimum Horizontal Stress - Sigma X
TZSG  .PS/F                          :24      Total Vertical Stress Gradient
TZSP  .PSI                           :25      Total Vertical Stress - Sigma Z
VCL   .V/V                           :26      Volume of Clay Type Material Relative to Total Volume
YME_HORIZ_SSA_DYN.6PSI                          :27      Dynamic Horizontal Youngs Modulus in the Slow Shear Azimuth Direction
YME_HORIZ_SSA_STA.6PSI                          :28      Static Horizontal Youngs Modulus in the Slow Shear Azimuth Direction
YME_VERT_DYN.6PSI                          :29      Dynamic Vertical Youngs Modulus
YME_VERT_STA.6PSI                          :30      Static Vertical Youngs Modulus
~Ascii Data Section
# ...
   5012.00000       4.68153       4.72257       4.31236      26.48011      12.23630      12.21827      12.25432       0.01000       3.36694       0.32870       0.01945       0.43350    2172.70190       0.29934       0.30619       2.84238       2.84238       1.00000    2685.44434       0.69887       0.70352    3502.74072    3526.05884       1.05000    5262.59961       0.12290      12.06098      11.09023      12.33718      11.34420 
   5012.50000       4.71887       4.73797       4.43178      29.78576      12.24296      12.24229      12.24364       0.01000       3.27617       0.30311       0.02254       0.43350    2172.91870       0.29744       0.30057       2.81922       2.81922       1.00000    2675.22217       0.69540       0.69752    3485.70508    3496.32837       1.05000    5263.12500       0.14245      12.19577      11.13089      12.32412      11.24803 
   5013.00000       4.77764       4.79428       4.56791      31.59054      12.25882      12.25795      12.25969       0.01000       3.09629       0.28465       0.02728       0.43350    2173.13550       0.29879       0.29879       2.82230       2.82230       1.00000    2654.33325       0.69619       0.69619    3490.01562    3490.01562       1.05000    5263.64990       0.17243      12.24310      11.04583      12.24310      11.04583 
   5013.50000       4.80254       4.83861       4.65478      33.25174      12.26343      12.26984      12.25701       0.01000       2.99078       0.27116       0.03158       0.43350    2173.35229       0.29748       0.29748       2.82232       2.82232       1.00000    2666.77783       0.69455       0.69455    3482.13770    3482.13770       1.05000    5264.17480       0.19962      12.36577      11.03898      12.36577      11.03898 
   5014.00000       4.81111       4.86208       4.91430      32.81181      12.28117      12.28660      12.27573       0.01000       3.00918       0.26799       0.03583       0.43350    2173.56885       0.29926       0.29926       2.82022       2.82022       1.00000    2664.00000       0.69679       0.69679    3493.70654    3493.70654       1.05000    5264.69971       0.22651      12.63534      11.16095      12.63534      11.16095 
   5014.50000       4.80387       4.84658       4.61377      33.64951      12.28117      12.28660      12.27573       0.01000       3.09256       0.27209       0.03721       0.43350    2173.78564       0.31624       0.31624       2.81621       2.81621       1.00000    2648.00000       0.71863       0.71863    3603.57422    3603.57422       1.05000    5265.22461       0.23523      12.51674      11.01801      12.51674      11.01801 
   5015.00000       4.81217       4.81855       4.73660      33.46548      12.30369      12.27856      12.32883       0.01000       3.29489       0.28278       0.03490       0.43350    2174.00244       0.32324       0.32324       2.83644       2.83644       1.00000    2689.42847       0.72796       0.72796    3650.73730    3650.73730       1.05000    5265.75000       0.22059      12.67431      11.22142      12.67431      11.22142 
   5015.50000       4.72786       4.68483       4.61195      35.28909      12.41594      12.30121      12.53067       0.01000       3.51139       0.29980       0.03457       0.43350    2174.21924       0.32093       0.32093       2.82378       2.82378       1.00000    2708.57153       0.72485       0.72485    3635.50464    3635.50464       1.05000    5266.27490       0.21851      12.35034      10.94360      12.35034      10.94360 
   5016.00000       4.61628       4.54091       4.51985      38.45411      12.28373      12.32830      12.23917       0.01000       3.49307       0.32754       0.03046       0.43350    2174.43604       0.30836       0.30836       2.82932       2.82932       1.00000    2692.57153       0.70836       0.70836    3553.15527    3553.15527       1.05000    5266.79980       0.19255      11.92970      10.67923      11.92970      10.67923 
   5016.50000       4.38598       4.30580       4.23589      44.23592      12.29334      12.32643      12.26024       0.01000       3.32397       0.35974       0.02778       0.43350    2174.65259       0.30232       0.30232       2.80882       2.80882       1.00000    2682.85718       0.70065       0.70065    3514.80566    3514.80566       1.05000    5267.32471       0.17561      11.22402      10.11400      11.22402      10.11400 
   5017.00000       4.14853       4.08470       4.08365      52.86958      12.28841      12.29250      12.28432       0.01000       3.20823       0.38637       0.02187       0.43350    2174.86938       0.30256       0.30256       2.81905       2.81905       1.00000    2670.14282       0.70095       0.70095    3516.68140    3516.68140       1.05000    5267.84961       0.13820      10.69569       9.77762      10.69569       9.77762 
   5017.50000       3.83096       3.81698       3.86973      59.98155      12.27433      12.24028      12.30838       0.01000       3.11115       0.41768       0.02536       0.43350    2175.08618       0.30398       0.30398       2.79059       2.79059       1.00000    2687.00000       0.70275       0.70275    3526.06372    3526.06372       1.05000    5268.37500       0.14679      10.01255       9.07590      10.01255       9.07590 
   5018.00000       3.53064       3.55654       3.83813      66.77683      12.30280      12.22169      12.38391       0.01000       2.98898       0.45064       0.02726       0.43350    2175.30298       0.27622       0.31808       2.75257       2.75257       1.00000    2688.00000       0.73984       0.70512    3712.52539    3538.29883       1.05000    5268.89990       0.17229       9.79662       8.83903       8.66420       7.81730 
   5018.50000       3.30113       3.31307       3.73663      66.26591      12.34012      12.22169      12.45856       0.01000       2.92090       0.47140       0.03405       0.43350    2175.51978       0.25674       0.32169       2.71466       2.71467       1.00000    2704.00000       0.75475       0.70253    3787.71338    3525.62402       1.05000    5269.42480       0.21525       9.39197       8.33299       7.80086       6.92128 
   5019.00000       3.12755       3.11904       3.66725      71.79475      12.40055      12.22149      12.57962       0.01000       2.87163       0.47768       0.04111       0.43350    2175.73657       0.23494       0.31418       2.69274       2.69274       1.00000    2728.55566       0.75409       0.68754    3784.76147    3450.77368       1.05000    5269.94971       0.25988       9.05768       7.89506       7.15305       6.23490 
   5019.50000       2.99795       2.99265       3.49475      75.22170      12.38314      12.25051      12.51578       0.01000       2.76533       0.48708       0.04612       0.43350    2175.95312       0.23090       0.29549       2.69483       2.69483       1.00000    2731.00000       0.72811       0.66685    3654.74805    3347.27271       1.05000    5270.47461       0.28395       8.60340       7.40383       6.91693       5.95251 
   5020.00000       2.88970       2.89291       3.34387      80.71388      12.37009      12.25900      12.48119       0.01000       2.57727       0.51055       0.04904       0.43350    2176.16992       0.22738       0.28059       2.68368       2.68368       1.00000    2764.00000       0.70707       0.65147    3549.49072    3270.36133       1.05000    5271.00000       0.29384       8.20836       7.01090       6.71770       5.73770 
   5020.50000       2.82162       2.82929       3.27375      84.91955      12.34689      12.24457      12.44920       0.01000       2.31718       0.52539       0.04653       0.43350    2176.38672       0.22709       0.27947       2.67506       2.67506       1.00000    2782.22217       0.70585       0.65104    3543.70581    3268.57129       1.05000    5271.52490       0.29124       8.03435       6.90684       6.57610       5.65324 
   5021.00000       2.77964       2.78753       3.21738      83.09624      12.35855      12.22541      12.49169       0.01000       2.09351       0.51814       0.04613       0.43350    2176.60352       0.23708       0.29309       2.66733       2.66733       1.00000    2741.33325       0.72192       0.66892    3624.77368    3358.66016       1.05000    5272.04980       0.28609       7.96030       6.85022       6.53658       5.62504 
