~Version Information
VERS  .          2.0                              :CWLS Log Ascii Standard - Version 2.0
WRAP  .          NO                               :One line per depth step
~Well Information Block
#MNEM.UNIT       Data Type                        Information
#---------       ---------                        -------------------------------
STRT  .F         1820.00000                       :START DEPTH
STOP  .F         5250.00000                       :STOP DEPTH
STEP  .F          0.50000                         :INCREMENT
NULL  .          -999.25                          :NULL DATA VALUE
COMP  .          ADM COMPANY                      :COMPANY
WELL  .          VERIFICATION WELL 1              :WELL
FLD   .          WILDCAT                          :FIELD
LOC   .                                           :LOCATION
PROV  .                                           :PROVINCE
STAT  .                                           :STATE
CNTY  .                                           :COUNTY
CTRY  .                                           :COUNTRY
DATE  .                                           :DATE
UWI   .          VERIFICATION WELL 1              :UNIQUE WELL UWI
LIC   .                                           :LICENSE NUMBER
API   .                                           :API NUMBER
SRVC  .                                           :SERVICE COMPANY
~Parameter Information Block
#MNEM.UNIT       Value                            Description
#---------       ---------                        -------------
LONG  .DEG       -88.893356                       :Well Surface Location
LATI  .DEG       39.879810                        :Well Surface Location
XWELL .DEG       -88.893356                       :X-coordinate of Well Head
YWELL .DEG       39.879810                        :Y-coordinate of Well Head
PDAT  .          GROUND LEVEL                     :Permanent Datum               
EPD   .ft        669.00                           :Elevation of Permanent Datum (PDAT) above Mean Sea Level
LMF   .          KELLY BUSHING                    :Logging Measured From (Name of Working Datum)
APD   .ft        15.00                            :Elevation of Working Datum (LMF) Above Permanent Datum
EDF   .ft        683.00                           :Elevation of Derrick Floor Above Mean Sea Level
EGL   .ft        669.00                           :Elevation of Ground Level Above Mean Sea Level
EKB   .ft        684.00                           :Elevation of Kelly Bushing Above Mean Sea Level
~Curve Information Block
#MNEM.UNIT       API Code            Curve    Description
#--------        --------------      -----    -------------------
DEPT  .F                             :0       Index
C44_BH.6PSI                          :1       C44 Referred to the Borehole Axis in a Deviated Well
C55_BH.6PSI                          :2       C55 Referred to the Borehole Axis in a Deviated Well
C66_BH.6PSI                          :3       C66 Referred to the Borehole Axis in a Deviated Well
GR_EDTC.GAPI                          :4       Gamma Ray                     
HD1_PPC1.IN                            :5       PPC1 Hole Diameter 1          
HD1_PPC1.IN                            :6       PPC1 Hole Diameter 1          
HD2_PPC1.IN                            :7       PPC1 Hole Diameter 2          
KINT  .MD                            :8       Intrinsic Permeability        
MAXXENE_OVERALL.                              :9       Overall estimate of maximum cross energy
MINXENE_OVERALL.                              :10      Overall estimate of minimum cross energy
PHIT  .V/V                           :11      Total Porosity_ includes all forms of porosity, including that occupied by bound fluids, and is independent of rock and fluid materials and of environmental effects
PPGI  .PS/F                          :12      Pore Pressure Gradient        
PPRS  .PSI                           :13      Pore Pressure                 
PR_HORIZ_SSA_FSA_DYN.                              :14      Dynamic Horizontal Poissons Ratio - Loading Slow Shear Azimuth - Displacement Fast Shear Azimuth
PR_VERT_FSA_DYN.                              :15      Dynamic Vertical Poissons Ratio - Loading Vertical - Displacement Fast Shear Aximuth
RHOZ  .G/C3                          :16      HRDD Standard Resolution Formation Density
RHOZ  .G/C3                          :17      HRDD Standard Resolution Formation Density
SUWI  .V/V                           :18      Non-Clay Water Intergranular Water Saturation for Undisturbed Zone
TENS  .LBF                           :19      Cable Tension                 
TXSG  .PS/F                          :20      Total Minimum Horizontal Stress Gradient
TXSG  .PS/F                          :21      Total Minimum Horizontal Stress Gradient
TXSP  .PSI                           :22      Total Minimum Horizontal Stress - Sigma X
TXSP  .PSI                           :23      Total Minimum Horizontal Stress - Sigma X
TZSG  .PS/F                          :24      Total Vertical Stress Gradient
TZSP  .PSI                           :25      Total Vertical Stress - Sigma Z
VCL   .V/V                           :26      Volume of Clay Type Material Relative to Total Volume
YME_HORIZ_SSA_DYN.6PSI                          :27      Dynamic Horizontal Youngs Modulus in the Slow Shear Azimuth Direction
YME_HORIZ_SSA_STA.6PSI                          :28      Static Horizontal Youngs Modulus in the Slow Shear Azimuth Direction
YME_VERT_DYN.6PSI                          :29      Dynamic Vertical Youngs Modulus
YME_VERT_STA.6PSI                          :30      Static Vertical Youngs Modulus
~Ascii Data Section
# ...
   3872.00000       3.30720       3.42241       3.37150      26.88683      12.22660      12.24971      12.20348       1.39305       1.50343       0.16004       0.06990       0.43350    1678.51196       0.28407       0.28407       2.66568       2.66568       1.00000    2445.00000       0.67812       0.67812    2625.66650    2625.66650       1.05000    4065.59985       0.05570       8.64701       6.98691       8.64701       6.98691 
   3872.50000       3.31387       3.43107       3.34406      27.15309      12.19134      12.21134      12.17134       1.09808       1.43532       0.16782       0.06804       0.43350    1678.72876       0.28210       0.28210       2.67048       2.67048       1.00000    2400.00000       0.67575       0.67575    2616.84326    2616.84326       1.05000    4066.12476       0.06265       8.62338       7.00326       8.62338       7.00326 
   3873.00000       3.29845       3.40832       3.32409      26.82957      12.17192      12.17785      12.16598       0.88530       1.36994       0.17253       0.06818       0.43350    1678.94543       0.27926       0.27926       2.64954       2.64954       1.00000    2399.55566       0.67237       0.67237    2604.07788    2604.07788       1.05000    4066.64990       0.07432       8.55469       6.94483       8.55469       6.94483 
   3873.50000       3.27871       3.37579       3.30014      26.64667      12.17822      12.18510      12.17134       1.05204       1.31999       0.17421       0.07325       0.43350    1679.16223       0.27698       0.27698       2.61943       2.61943       1.00000    2447.00000       0.66967       0.66967    2593.96875    2593.96875       1.05000    4067.17480       0.08116       8.47457       6.78483       8.47457       6.78483 
   3874.00000       3.28964       3.37390       3.28661      27.66081      12.18731      12.21131      12.16330       1.18465       1.27279       0.17506       0.07717       0.43350    1679.37903       0.27518       0.27518       2.61103       2.61103       1.00000    2441.66675       0.66756       0.66756    2586.11475    2586.11475       1.05000    4067.69971       0.08557       8.45883       6.69894       8.45883       6.69894 
   3874.50000       3.32897       3.40412       3.31484      30.98677      12.22314      12.25217      12.19411       0.96589       1.22457       0.17760       0.07542       0.43350    1679.59570       0.27247       0.27247       2.62622       2.62622       1.00000    2404.88892       0.66439       0.66439    2574.17871    2574.17871       1.05000    4068.22485       0.09005       8.52380       6.78337       8.52380       6.78337 
   3875.00000       3.36771       3.44070       3.37837      36.02679      12.22912      12.24272      12.21553       0.71114       1.17488       0.18221       0.07257       0.43350    1679.81250       0.26819       0.26819       2.64742       2.64742       1.00000    2428.00000       0.65943       0.65943    2555.30347    2555.30347       1.05000    4068.74976       0.09345       8.61252       6.90822       8.61252       6.90822 
   3875.50000       3.38604       3.46836       3.44236      39.68486      12.20811      12.18866      12.22757       0.55803       1.11311       0.18435       0.07441       0.43350    1680.02917       0.26623       0.26623       2.66495       2.66495       1.00000    2434.00000       0.65718       0.65718    2546.89355    2546.89355       1.05000    4069.27490       0.09847       8.69202       6.93664       8.69202       6.93664 
   3876.00000       3.38071       3.48175       3.43773      41.70205      12.21358      12.19958      12.22758       0.70343       1.05195       0.18366       0.07915       0.43350    1680.24597       0.26905       0.26905       2.67526       2.67526       1.00000    2453.00000       0.66042       0.66042    2559.78711    2559.78711       1.05000    4069.79980       0.08576       8.71428       6.86311       8.71428       6.86311 
   3876.50000       3.37355       3.49075       3.40891      42.20178      12.22982      12.23207      12.22757       0.79487       1.01644       0.18814       0.08042       0.43350    1680.46277       0.27403       0.27403       2.68526       2.68526       1.00000    2458.00000       0.66620       0.66620    2582.54175    2582.54175       1.05000    4070.32471       0.07723       8.72556       6.84750       8.72556       6.84750 
   3877.00000       3.36297       3.48515       3.36837      39.37457      12.25753      12.27544      12.23962       1.15762       0.98247       0.18917       0.08028       0.43350    1680.67944       0.27663       0.27663       2.68604       2.68605       1.00000    2452.00000       0.66926       0.66926    2594.70483    2594.70483       1.05000    4070.84985       0.07009       8.69509       6.82628       8.69509       6.82628 
   3877.50000       3.34498       3.46284       3.32384      37.13689      12.28496      12.31824      12.25167       1.08180       0.93971       0.18105       0.07781       0.43350    1680.89624       0.27813       0.27813       2.67508       2.67508       1.00000    2402.00000       0.67103       0.67103    2601.92578    2601.92578       1.05000    4071.37476       0.07649       8.63306       6.82471       8.63306       6.82471 
   3878.00000       3.31768       3.43031       3.32511      39.00757      12.27104      12.35065      12.19143       1.37711       0.91825       0.17095       0.07723       0.43350    1681.11292       0.27851       0.27851       2.65449       2.65449       1.00000    2406.00000       0.67149       0.67149    2604.02124    2604.02124       1.05000    4071.89990       0.07302       8.58573       6.79830       8.58573       6.79830 
   3878.50000       3.30388       3.41693       3.29161      41.10316      12.28782      12.37216      12.20349       1.22321       0.91594       0.16071       0.07339       0.43350    1681.32971       0.28046       0.28046       2.64225       2.64225       1.00000    2416.00000       0.67379       0.67379    2613.30811    2613.30811       1.05000    4072.42480       0.07008       8.54698       6.84016       8.54698       6.84016 
   3879.00000       3.29126       3.40648       3.25231      40.41439      12.28752      12.38277      12.19226       1.15804       0.91569       0.15707       0.07045       0.43350    1681.54651       0.27963       0.27963       2.62423       2.62423       1.00000    2428.00000       0.67281       0.67281    2609.81274    2609.81274       1.05000    4072.94971       0.06764       8.48823       6.84829       8.48823       6.84829 
   3879.50000       3.31399       3.43189       3.25526      33.65427      12.27557      12.39675      12.15440       0.71851       0.91910       0.16070       0.06448       0.43350    1681.76318       0.24828       0.27072       2.62805       2.62805       1.00000    2402.00000       0.64201       0.65685    2490.69385    2548.25195       1.05000    4073.47485       0.07425       7.99875       6.55892       8.72197       7.15195 
   3880.00000       3.36255       3.47367       3.26739      31.09362      12.22423      12.32940      12.11907       0.33799       0.92771       0.16926       0.05935       0.43350    1681.97998       0.24560       0.26615       2.64099       2.64099       1.00000    2409.00000       0.63862       0.65218    2477.84058    2530.43896       1.05000    4073.99976       0.08853       8.11714       6.74803       8.79638       7.31270 
   3880.50000       3.45572       3.53424       3.32560      31.27653      12.20932      12.27544      12.14320       0.13414       0.93629       0.18506       0.05662       0.43350    1682.19678       0.24756       0.26175       2.66716       2.66716       1.00000    2389.00000       0.63941       0.64877    2481.22827    2517.53784       1.05000    4074.52490       0.10740       8.43502       7.06318       8.91865       7.46816 
   3881.00000       3.52736       3.56499       3.36505      35.84276      12.22067      12.28608      12.15527       0.10037       1.00015       0.20533       0.05667       0.43350    1682.41345       0.25026       0.25697       2.67044       2.67044       1.00000    2422.00000       0.64076       0.64518    2486.79248    2503.95630       1.05000    4075.04980       0.10779       8.72809       7.30762       8.96219       7.50362 
