# LAS format log file from PETREL
# Project units are specified as depth units
#==================================================================
~Version information
VERS.   2.0:
WRAP.   NO:
#==================================================================
~Well
STRT .ft      5008.0000000          :
STOP .ft      7272.0000000          :
STEP .ft      0.50000000            :
NULL .        -999.250000           :
COMP.                               : COMPANY
WELL.         VW1                   : WELL
FLD.                                : FIELD
LOC.                                : LOCATION
SRVC.                               : SERVICE COMPANY
DATE.         2020-07-27 11:17:52   : Log Export Date {yyyy-MM-dd HH:mm:ss}
PROV.                               : PROVINCE
UWI.          121152346000          : UNIQUE WELL ID
API.          121152346000          : API NUMBER
#==================================================================
~Curve
DEPT .ft                   : DEPTH
RLA2 .ohm.m               : RLA2
RLA3 .ohm.m               : RLA3
RLA4 .ohm.m               : RLA4
RLA5 .ohm.m               : RLA5
HCAL .in                  : HCAL
HTNP .ft3/ft3             : HTNP
PEFZ .b/e                 : PEFZ
RHOZ .g/cm3               : RHOZ
RXOZ .ohm.m               : RXOZ
REFL ._                   : REFL
REFL1 ._                  : REFL 1
DTCO .us/ft               : DTCO
DTSM .us/ft               : DTSM
~Parameter
#==================================================================
~Ascii
# ...
 6944.0000000 1.3432199955 1.1435899734 0.9798300266 0.9825800061 8.2138204575 0.1865600049 2.2377300262 2.3128099442 6.1259799004  -999.250000  -999.250000 80.247718811 148.19020081
 6944.5000000 1.3350499868 1.1183400154 0.9449599981 0.9701899886 8.2248802185 0.1896200031 2.1928000450 2.3101999760 6.0207400322  -999.250000  -999.250000 80.229110718 147.61450195
 6945.0000000 1.2378400564 1.0390100479 0.8897500038 0.9179099798 8.2138204575 0.1960200071 2.1214399338 2.3145899773 5.5442299843  -999.250000  -999.250000 79.941062927 146.91769409
 6945.5000000 1.1426399946 0.9604700208 0.8387399912 0.8570100069 8.2138204575 0.1917600036 2.0745699406 2.3175799847 5.2453689575  -999.250000  -999.250000 79.655586243 146.42529297
 6946.0000000 1.1306600571 0.9554399848 0.8319000006 0.8456699848 8.2138204575 0.1865099967 2.0233500004 2.3315598965 5.1261701584  -999.250000  -999.250000 79.615966797 145.89709473
 6946.5000000 1.2303400040 1.0277999640 0.8850600123 0.8981500268 8.2138204575 0.1765100062 2.0423700809 2.3404099941 5.7035288811  -999.250000  -999.250000 79.452239990 144.97250366
 6947.0000000 1.3082300425 1.0865999460 0.9315099716 0.9369199872 8.2138204575 0.1669600010 2.1006700993 2.3485100269 6.4794101715  -999.250000  -999.250000 78.888778687 143.93539429
 6947.5000000 1.4550399780 1.1906499863 1.0053000450 1.0060900450 8.2064399719 0.1631499976 2.1772799492 2.3468499184 7.3979902267  -999.250000  -999.250000 78.591369629 143.32150269
 6948.0000000 1.4479600191 1.2293000221 1.0219199657 1.0247000456 8.2138204575 0.1688700020 2.2175199986 2.3388800621 6.8256201744  -999.250000  -999.250000 78.671882629 143.16270447
 6948.5000000 1.3144700527 1.1138199568 0.9568700194 0.9547200203 8.2211904526 0.1776899993 2.2112801075 2.3275899887 6.3966097832  -999.250000  -999.250000 78.534019470 143.22009277
 6949.0000000 1.1964299679 1.0484199524 0.8972899914 0.9020599723 8.2064399719 0.1798599958 2.1862599850 2.3178000450 5.8650097847  -999.250000  -999.250000 78.499122620 143.34030151
 6949.5000000 1.1483600140 0.9667400122 0.8445900083 0.8565999866 8.1916999817 0.1817699969 2.1461598873 2.3168499470 5.7475600243  -999.250000  -999.250000 78.342521667 143.50939941
 6950.0000000 1.0403699875 0.8886700273 0.7798600197 0.7872300148 8.2211904526 0.1825799942 2.1204600334 2.3157000542 5.2535500526  -999.250000  -999.250000 78.143943787 143.74789429
 6950.5000000 1.0541299582 0.8656600118 0.7537199855 0.7667000294 8.2064399719 0.1792400032 2.1153800488 2.3152101040 5.1850600243  -999.250000  -999.250000 78.330352783 143.96459961
 6951.0000000 1.2025200129 0.9441499710 0.8124799728 0.8298400044 8.2211904526 0.1725299954 2.1183700562 2.3271400928 5.0779299736  -999.250000  -999.250000 78.170890808 144.06019592
 6951.5000000 1.2783700228 1.0106899738 0.8555600047 0.8733400106 8.2211904526 0.1642600000 2.1674699783 2.3399200439 6.0906310081  -999.250000  -999.250000 77.835083008 143.94320679
 6952.0000000 1.3353899717 1.0862100124 0.9194200039 0.9165300131 8.2064399719 0.1629800051 2.1984300613 2.3533399105 7.3667697906  -999.250000  -999.250000 77.420898438 143.43829346
 6952.5000000 1.4685800076 1.2097500563 1.0200599432 1.0040199757 8.2138204575 0.1647599936 2.2023899555 2.3581900597 7.8700900078  -999.250000  -999.250000 76.963096619 142.62750244
 6953.0000000 1.6883800030 1.3491899967 1.1147999763 1.0864299536 8.2211904526 0.1664499938 2.1714599133 2.3613600731 7.0509200096  -999.250000  -999.250000 76.625862122 141.92080688
 6953.5000000 1.5722600222 1.2891299725 1.0712300539 1.0428500175 8.2285604477 0.1702699959 2.1578900814 2.3597900867 7.2034702301  -999.250000  -999.250000 76.621772766 141.64390564
 6954.0000000 1.3362400532 1.1279100180 0.9610000253 0.9434300065 8.2211904526 0.1678600013 2.1590600014 2.3495399952 6.7649388313  -999.250000  -999.250000 76.416847229 141.63510132
 6954.5000000 1.2095700502 1.0341600180 0.8946899772 0.8869100213 8.2138204575 0.1640499979 2.1355700493 2.3379800320 6.0496611595  -999.250000  -999.250000 76.715133667 141.81350708
 6955.0000000 1.1390399933 0.9706299901 0.8306900263 0.8407199979 8.2285604477 0.1606799960 2.0987899303 2.3260400295 5.3524999619  -999.250000  -999.250000 77.341873169 142.22360229
 6955.5000000 1.0745300055 0.9160400033 0.7968299985 0.7931699753 8.2211904526 0.1591099948 2.0612800121 2.3172700405 5.0900402069  -999.250000  -999.250000 77.789749146 142.47030640
 6956.0000000 1.0041600466 0.8476799726 0.7403500080 0.7480199933 8.2248802185 0.1586699933 2.0190100670 2.3112399578 5.0695500374  -999.250000  -999.250000 78.014198303 143.15280151
 6956.5000000 0.9113199711 0.7814199924 0.6933500171 0.7028700113 8.2138204575 0.1647499949 1.9573600292 2.3116300106 4.5736598969  -999.250000  -999.250000 78.065162659 143.83979797
 6957.0000000 0.8430600166 0.7351899743 0.6582400203 0.6681699753 8.2359399796 0.1668500006 1.9314700365 2.3113598824 4.1237301826  -999.250000  -999.250000 78.042381287 144.08399963
 6957.5000000 0.8222100139 0.7215800285 0.6498000026 0.6568400264 8.2027597427 0.1697899997 1.9256600142 2.3243401051 3.9850399494  -999.250000  -999.250000 77.792213440 144.34649658
 6958.0000000 0.8559100032 0.7514299750 0.6733499765 0.6862599850 8.2064399719 0.1637499928 1.9472600222 2.3434500694 4.5990099907  -999.250000  -999.250000 77.537406921 144.23980713
 6958.5000000 0.9417200089 0.8147400022 0.7204800248 0.7358700037 8.2211904526 0.1590600014 1.9423700571 2.3711299896 5.5675501823  -999.250000  -999.250000 77.476417542 143.76170349
 6959.0000000 1.0303900242 0.8791400194 0.7687500119 0.7852299809 8.2027597427 0.1521999985 1.9366300106 2.3880100250 5.9392600060  -999.250000  -999.250000 77.354598999 143.02430725
 6959.5000000 1.1141799688 0.9350299835 0.8073999882 0.8210300207 8.1990699768 0.1519300044 1.9634900093 2.3805499077 5.7218198776  -999.250000  -999.250000 77.256767273 142.48829651
 6960.0000000 1.0822399855 0.9108700156 0.7924500108 0.7993900180 8.1990699768 0.1531399935 2.0019400120 2.3582499027 5.3114900589  -999.250000  -999.250000 77.187812805 142.41270447
 6960.5000000 0.9707700014 0.8255199790 0.7223799825 0.7234200239 8.2064399719 0.1561799943 2.0338199139 2.3329300880 5.0369701385  -999.250000  -999.250000 77.297500610 142.62570190
 6961.0000000 0.8824599981 0.7668899894 0.6781399846 0.6817399859 8.2138204575 0.1629800051 2.0313000679 2.3204700947 4.6342401505  -999.250000  -999.250000 77.534439087 142.97200012
 6961.5000000 0.8418800235 0.7296299934 0.6496899724 0.6510999799 8.2027597427 0.1705999970 2.0095899105 2.3172500134 4.4341402054  -999.250000  -999.250000 77.716316223 143.40679932
 6962.0000000 0.8284199834 0.7132599950 0.6346700191 0.6377900243 8.2138204575 0.1773100048 1.9837100506 2.3171501160 4.3406100273  -999.250000  -999.250000 77.979232788 144.03630066
 6962.5000000 0.7954400182 0.6866300106 0.6189500093 0.6230599880 8.2138204575 0.1840000004 1.9660600424 2.3113899231 4.1526899338  -999.250000  -999.250000 78.409606934 144.86900330
 6963.0000000 0.7562999725 0.6538199782 0.5968099833 0.6041100025 8.2138204575 0.1868599951 1.9717199802 2.3007199764 3.9925100803  -999.250000  -999.250000 78.627647400 145.63290405
 6963.5000000 0.7210199833 0.6340600252 0.5741999745 0.5843799710 8.2285604477 0.1837999970 1.9744999409 2.2967600822 4.0251598358  -999.250000  -999.250000 78.759521484 146.09829712
 6964.0000000 0.7604200244 0.6638500094 0.5986499786 0.6109600067 8.2064399719 0.1804600060 1.9793399572 2.3008399010 4.2796502113  -999.250000  -999.250000 78.770401001 146.25959778
 6964.5000000 0.8222299814 0.7063900232 0.6335800290 0.6478300095 8.2211904526 0.1789399981 1.9884300232 2.3085999489 4.4631900787  -999.250000  -999.250000 78.499977112 146.17779541
 6965.0000000 0.8854100108 0.7582700253 0.6770200133 0.6940100193 8.2138204575 0.1724099964 2.0257000923 2.3108799458 4.5350499153  -999.250000  -999.250000 78.237022400 145.79660034
 6965.5000000 0.9408199787 0.8060600162 0.7182400227 0.7273700237 8.2138204575 0.1646900028 2.0652799606 2.3169300556 4.6757898331  -999.250000  -999.250000 77.938766479 145.20379639
