~Version Information
VERS  .          2.0                              :CWLS Log Ascii Standard - Version 2.0
WRAP  .          NO                               :One line per depth step
~Well Information Block
#MNEM.UNIT       Data Type                        Information
#---------       ---------                        -------------------------------
STRT  .F         1820.00000                       :START DEPTH
STOP  .F         5250.00000                       :STOP DEPTH
STEP  .F          0.50000                         :INCREMENT
NULL  .          -999.25                          :NULL DATA VALUE
COMP  .          ADM COMPANY                      :COMPANY
WELL  .          VERIFICATION WELL 1              :WELL
FLD   .          WILDCAT                          :FIELD
LOC   .                                           :LOCATION
PROV  .                                           :PROVINCE
STAT  .                                           :STATE
CNTY  .                                           :COUNTY
CTRY  .                                           :COUNTRY
DATE  .                                           :DATE
UWI   .          VERIFICATION WELL 1              :UNIQUE WELL UWI
LIC   .                                           :LICENSE NUMBER
API   .                                           :API NUMBER
SRVC  .                                           :SERVICE COMPANY
~Parameter Information Block
#MNEM.UNIT       Value                            Description
#---------       ---------                        -------------
LONG  .DEG       -88.893356                       :Well Surface Location
LATI  .DEG       39.879810                        :Well Surface Location
XWELL .DEG       -88.893356                       :X-coordinate of Well Head
YWELL .DEG       39.879810                        :Y-coordinate of Well Head
PDAT  .          GROUND LEVEL                     :Permanent Datum               
EPD   .ft        669.00                           :Elevation of Permanent Datum (PDAT) above Mean Sea Level
LMF   .          KELLY BUSHING                    :Logging Measured From (Name of Working Datum)
APD   .ft        15.00                            :Elevation of Working Datum (LMF) Above Permanent Datum
EDF   .ft        683.00                           :Elevation of Derrick Floor Above Mean Sea Level
EGL   .ft        669.00                           :Elevation of Ground Level Above Mean Sea Level
EKB   .ft        684.00                           :Elevation of Kelly Bushing Above Mean Sea Level
~Curve Information Block
#MNEM.UNIT       API Code            Curve    Description
#--------        --------------      -----    -------------------
DEPT  .F                             :0       Index
C44_BH.6PSI                          :1       C44 Referred to the Borehole Axis in a Deviated Well
C55_BH.6PSI                          :2       C55 Referred to the Borehole Axis in a Deviated Well
C66_BH.6PSI                          :3       C66 Referred to the Borehole Axis in a Deviated Well
GR_EDTC.GAPI                          :4       Gamma Ray                     
HD1_PPC1.IN                            :5       PPC1 Hole Diameter 1          
HD1_PPC1.IN                            :6       PPC1 Hole Diameter 1          
HD2_PPC1.IN                            :7       PPC1 Hole Diameter 2          
KINT  .MD                            :8       Intrinsic Permeability        
MAXXENE_OVERALL.                              :9       Overall estimate of maximum cross energy
MINXENE_OVERALL.                              :10      Overall estimate of minimum cross energy
PHIT  .V/V                           :11      Total Porosity_ includes all forms of porosity, including that occupied by bound fluids, and is independent of rock and fluid materials and of environmental effects
PPGI  .PS/F                          :12      Pore Pressure Gradient        
PPRS  .PSI                           :13      Pore Pressure                 
PR_HORIZ_SSA_FSA_DYN.                              :14      Dynamic Horizontal Poissons Ratio - Loading Slow Shear Azimuth - Displacement Fast Shear Azimuth
PR_VERT_FSA_DYN.                              :15      Dynamic Vertical Poissons Ratio - Loading Vertical - Displacement Fast Shear Aximuth
RHOZ  .G/C3                          :16      HRDD Standard Resolution Formation Density
RHOZ  .G/C3                          :17      HRDD Standard Resolution Formation Density
SUWI  .V/V                           :18      Non-Clay Water Intergranular Water Saturation for Undisturbed Zone
TENS  .LBF                           :19      Cable Tension                 
TXSG  .PS/F                          :20      Total Minimum Horizontal Stress Gradient
TXSG  .PS/F                          :21      Total Minimum Horizontal Stress Gradient
TXSP  .PSI                           :22      Total Minimum Horizontal Stress - Sigma X
TXSP  .PSI                           :23      Total Minimum Horizontal Stress - Sigma X
TZSG  .PS/F                          :24      Total Vertical Stress Gradient
TZSP  .PSI                           :25      Total Vertical Stress - Sigma Z
VCL   .V/V                           :26      Volume of Clay Type Material Relative to Total Volume
YME_HORIZ_SSA_DYN.6PSI                          :27      Dynamic Horizontal Youngs Modulus in the Slow Shear Azimuth Direction
YME_HORIZ_SSA_STA.6PSI                          :28      Static Horizontal Youngs Modulus in the Slow Shear Azimuth Direction
YME_VERT_DYN.6PSI                          :29      Dynamic Vertical Youngs Modulus
YME_VERT_STA.6PSI                          :30      Static Vertical Youngs Modulus
~Ascii Data Section
# ...
   2048.00000       2.61762       2.79999       3.57847      52.39697      12.29685      12.43761      12.15608       0.01000       5.20677       0.25039       0.04457       0.43350     887.80798       0.19379       0.32001       2.72669       2.72669       1.00000    2068.00000       0.78806       0.69207    1613.95032    1417.36951       1.05000    2150.39990       0.16959       8.54390       7.38190       5.89669       5.09472 
   2048.50000       2.72715       2.96434       3.55099      48.82889      12.23390      12.37292      12.09488       0.01000       4.46507       0.22644       0.04126       0.43350     888.02472       0.22393       0.31949       2.71429       2.71429       1.00000    2117.00000       0.77257       0.70024    1582.60938    1434.43347       1.05000    2150.92480       0.17159       8.69228       7.57368       6.50633       5.66904 
   2049.00000       2.85270       3.08563       3.53308      41.72240      12.20070      12.30560      12.09581       0.01000       3.94615       0.20485       0.03515       0.43350     888.24146       0.25436       0.33719       2.71913       2.71913       1.00000    2061.00000       0.78474       0.72956    1607.92212    1494.87744       1.05000    2151.44995       0.15958       8.86348       7.84254       7.03536       6.22499 
   2049.50000       2.96586       3.15887       3.45010      32.00534      12.17949      12.27619      12.08279       0.01000       4.01036       0.18579       0.02869       0.43350     888.45825       0.28846       0.34661       2.72948       2.72948       1.00000    2063.00000       0.78522       0.74931    1609.30884    1535.71545       1.05000    2151.97485       0.14613       8.89064       7.99351       7.59119       6.82518 
   2050.00000       3.02068       3.18451       3.34053      24.86127      12.19689      12.28684      12.10694       0.01000       4.11395       0.16533       0.02749       0.43350     888.67499       0.30868       0.33931       2.73275       2.73276       1.00000    2088.00000       0.76486       0.74562    1567.96619    1528.52954       1.05000    2152.50000       0.14627       8.74340       7.88431       7.98410       7.19961 
   2050.50000       3.00830       3.14755       3.22245      26.91762      12.18379      12.28385      12.08373       0.01000       4.25884       0.14725       0.02813       0.43350     888.89172       0.30725       0.32124       2.71581       2.71581       1.00000    2091.00000       0.73402       0.72478    1505.10107    1486.16418       1.05000    2153.02490       0.15807       8.42506       7.58534       8.01472       7.21589 
   2051.00000       3.00528       3.08817       3.20953      31.60861      12.18598      12.27619      12.09577       0.01000       4.44852       0.13496       0.03338       0.43350     889.10846       0.28633       0.30440       2.69587       2.69587       1.00000    2015.00000       0.71405       0.69908    1464.50891    1433.81726       1.05000    2153.54980       0.16130       8.25706       7.33827       7.73933       6.87815 
   2051.50000       3.03537       3.06613       3.32037      39.67902      12.23121      12.31925      12.14317       0.01000       4.08371       0.13013       0.03734       0.43350     889.32526       0.26672       0.30162       2.68323       2.68323       1.00000    2029.00000       0.71874       0.68739    1474.48730    1410.17786       1.05000    2154.07495       0.13815       8.41193       7.40228       7.47834       6.58075 
   2052.00000       3.06856       3.10552       3.35125      38.82448      12.20233      12.29773      12.10694       0.01000       3.78064       0.12720       0.03508       0.43350     889.54199       0.27093       0.30565       2.68322       2.68322       1.00000    2070.00000       0.72327       0.69297    1484.15051    1421.97681       1.05000    2154.59985       0.11021       8.51839       7.53852       7.59787       6.72389 
   2052.50000       3.11172       3.19304       3.39746      29.92855      12.17292      12.26208      12.08376       0.01000       3.67456       0.12493       0.03041       0.43350     889.75873       0.28723       0.31986       2.68767       2.68767       1.00000    2047.00000       0.73966       0.71446    1518.15442    1466.42017       1.05000    2155.12500       0.10570       8.74665       7.83079       7.90375       7.07616 
   2053.00000       3.17049       3.28182       3.48192      22.02517      12.16239      12.24103      12.08376       0.01000       3.38985       0.12201       0.02684       0.43350     889.97546       0.29439       0.32874       2.69381       2.69381       1.00000    2067.00000       0.75169       0.72702    1543.22644    1492.57263       1.05000    2155.64990       0.11374       9.01391       8.14119       8.13665       7.34887 
   2053.50000       3.22735       3.33017       3.51153      19.95185      12.16385      12.23285      12.09485       0.01000       3.10704       0.11926       0.02501       0.43350     890.19226       0.29580       0.32633       2.70178       2.70178       1.00000    2024.00000       0.74679       0.72442    1533.52588    1487.60522       1.05000    2156.17480       0.11464       9.10051       8.25621       8.29886       7.52893 
   2054.00000       3.26954       3.36729       3.65176      25.43655      12.15780      12.23285      12.08275       0.01000       2.89350       0.11925       0.02527       0.43350     890.40900       0.27784       0.32358       2.70532       2.70531       1.00000    2029.00000       0.74977       0.71470    1540.03015    1467.98474       1.05000    2156.69995       0.09870       9.33275       8.46155       8.15139       7.39046 
   2054.50000       3.30105       3.42539       3.67957      29.07939      12.15624      12.24080      12.07168       0.01000       2.70394       0.12246       0.02312       0.43350     890.62573       0.27878       0.31874       2.71463       2.71463       1.00000    2089.00000       0.74172       0.71038    1523.86877    1459.48059       1.05000    2157.22485       0.08262       9.41075       8.57698       8.31880       7.58178 
   2055.00000       3.31830       3.46541       3.74841      28.44097      12.15680      12.22044      12.09316       0.01000       2.39609       0.12574       0.02187       0.43350     890.84247       0.27431       0.31886       2.71759       2.71759       1.00000    2055.85718       0.74417       0.70927    1529.26123    1457.55444       1.05000    2157.75000       0.07691       9.55328       8.73328       8.32982       7.61483 
   2055.50000       3.33397       3.48876       3.74980      25.83058      12.14892      12.21475      12.08308       0.01000       2.15008       0.13308       0.02115       0.43350     891.05920       0.27675       0.31777       2.71960       2.71960       1.00000    2031.28577       0.74137       0.70918    1523.87744    1457.71753       1.05000    2158.27490       0.08418       9.57515       8.76851       8.42455       7.71483 
   2056.00000       3.34302       3.50836       3.77679      23.38183      12.15761      12.22673      12.08850       0.01000       2.57863       0.14714       0.02015       0.43350     891.27600       0.27659       0.31926       2.72395       2.72395       1.00000    2045.28577       0.74398       0.71088    1529.61719    1461.57007       1.05000    2158.79980       0.09271       9.64283       8.85179       8.45019       7.75699 
   2056.50000       3.35188       3.53293       3.78190      22.87987      12.16107      12.22673      12.09540       0.01000       4.27026       0.16713       0.01923       0.43350     891.49274       0.28229       0.32344       2.73342       2.73341       1.00000    2031.57141       0.74852       0.71782    1539.32410    1476.19373       1.05000    2159.32495       0.09258       9.69901       8.92309       8.55410       7.86977 
   2057.00000       3.37308       3.56546       3.43204      22.38011      12.15909      12.22236      12.09581       0.01000       6.13844       0.19402       0.01764       0.43350     891.70947       0.27948       0.32162       2.75070       2.75070       1.00000    2058.00000       0.68371       0.71225    1406.38245    1465.08997       1.05000    2159.84985       0.08462       8.18970       7.56330       9.42433       8.70350 
