# LAS format log file from PETREL
# Project units are specified as depth units
#==================================================================
~Version information
VERS.   2.0:
WRAP.   NO:
#==================================================================
~Well
STRT .ft      5008.0000000          :
STOP .ft      7272.0000000          :
STEP .ft      0.50000000            :
NULL .        -999.250000           :
COMP.                               : COMPANY
WELL.         VW1                   : WELL
FLD.                                : FIELD
LOC.                                : LOCATION
SRVC.                               : SERVICE COMPANY
DATE.         2020-07-27 11:17:52   : Log Export Date {yyyy-MM-dd HH:mm:ss}
PROV.                               : PROVINCE
UWI.          121152346000          : UNIQUE WELL ID
API.          121152346000          : API NUMBER
#==================================================================
~Curve
DEPT .ft                   : DEPTH
RLA2 .ohm.m               : RLA2
RLA3 .ohm.m               : RLA3
RLA4 .ohm.m               : RLA4
RLA5 .ohm.m               : RLA5
HCAL .in                  : HCAL
HTNP .ft3/ft3             : HTNP
PEFZ .b/e                 : PEFZ
RHOZ .g/cm3               : RHOZ
RXOZ .ohm.m               : RXOZ
REFL ._                   : REFL
REFL1 ._                  : REFL 1
DTCO .us/ft               : DTCO
DTSM .us/ft               : DTSM
~Parameter
#==================================================================
~Ascii
# ...
 5316.0000000 43.549411774 50.339820862 59.737789154 54.824138641 9.4193000793 0.1223199964 3.8825900555 2.7181200981 28.232980728  -999.250000  -999.250000 63.629909515 108.79689789
 5316.5000000 47.070869446 67.809272766 49.582859039 42.595291138 9.4156198502 0.1143399999 3.8918099403 2.7440199852 78.196952820  -999.250000  -999.250000 63.782840729 111.45980072
 5317.0000000 28.205980301 44.681529999 31.701040268 31.153799057 9.4082403183 0.1053799987 3.7767999172 2.7054800987 53.022960663  -999.250000  -999.250000 63.137729645 113.04090118
 5317.5000000 19.520059586 29.785190582 23.050769806 22.420389175 9.4377403259 0.1051599979 3.6285200119 2.6421399117 48.351009369  -999.250000  -999.250000 62.653228760 113.74269867
 5318.0000000 16.832490921 25.013900757 20.155439377 17.979949951 9.2828998566 0.1014200002 3.5059299469 2.5906701088 40.580669403  -999.250000  -999.250000 61.928619385 114.83670044
 5318.5000000 16.052019119 23.516639709 18.692169189 15.285829544 9.2865896225 0.0988399982 3.4853200912 2.5827200413 48.676979065  -999.250000  -999.250000 60.601379395 116.34960175
 5319.0000000 14.305290222 22.609579086 17.246940613 16.734170914 9.2755298615 0.1044299975 3.5390799046 2.6124401093 30.665439606  -999.250000  -999.250000 60.595088959 117.13710022
 5319.5000000 14.250049591 20.436950684 20.219259262 18.151290894 9.2755298615 0.1252499968 3.6571500301 2.6500000954 30.498100281  -999.250000  -999.250000 60.409580231 116.91349792
 5320.0000000 14.388560295 19.041240692 15.928779602 15.414460182 9.2755298615 0.1305799931 3.8636798859 2.6850800514 27.559619904  -999.250000  -999.250000 60.327018738 116.11049652
 5320.5000000 14.870340347 20.055299759 17.975559235 16.218170166 9.2828998566 0.1237500012 4.0287799835 2.7001199722 35.880809784  -999.250000  -999.250000 60.532890320 115.17320251
 5321.0000000 20.469280243 26.739459991 21.267320633 22.489339828 9.2755298615 0.1114699990 4.0801501274 2.7014400959 35.637081146  -999.250000  -999.250000 60.711818695 114.29850006
 5321.5000000 22.262699127 25.586570740 18.785739899 17.465730667 9.2865896225 0.1075500026 4.0053901672 2.6736500263 42.085239410  -999.250000  -999.250000 61.132499695 113.48449707
 5322.0000000 13.610879898 15.808239937 12.991930008 12.660550117 9.2828998566 0.1106100008 3.8717401028 2.6341600418 45.175109863  -999.250000  -999.250000 62.392799377 112.86620331
 5322.5000000 10.776800156 11.813209534 9.9693908691 8.6674804688 9.2865896225 0.1159199998 3.7662100792 2.5927200317 38.661491394  -999.250000  -999.250000 63.230808258 112.58409882
 5323.0000000 10.573769569 11.543120384 9.3301897049 8.5690202713 9.2976503372 0.1281899959 3.6622400284 2.5649900436 34.904621124  -999.250000  -999.250000 63.899948120 112.97979736
 5323.5000000 11.590149879 11.975170135 9.2064199448 8.4272308350 9.2902803421 0.1274300069 3.5536398888 2.5488500595 35.409679413  -999.250000  -999.250000 63.418548584 113.99469757
 5324.0000000 11.096489906 11.913000107 9.0758991241 8.1665802002 9.2902803421 0.1269100010 3.4784901142 2.5332601070 33.765621185  -999.250000  -999.250000 63.331081390 115.41680145
 5324.5000000 10.668140411 11.808139801 9.4999504089 8.2707099915 9.3087100983 0.1251900047 3.4788401127 2.5226199627 31.252799988  -999.250000  -999.250000 63.865058899 117.21829987
 5325.0000000 10.640660286 11.678700447 9.2589597702 7.9506001472 9.2828998566 0.1319099963 3.5546200275 2.5362100601 26.780990601  -999.250000  -999.250000 63.819011688 118.72540283
 5325.5000000 9.8772201538 11.206150055 9.0519800186 7.9760799408 9.3087100983 0.1407800019 3.6533598900 2.5838699341 29.781900406  -999.250000  -999.250000 63.905670166 119.74629974
 5326.0000000 9.9588212967 11.409709930 9.7276296616 8.0106601715 9.3197698593 0.1400700063 3.6904399395 2.6389598846 37.385871887  -999.250000  -999.250000 63.715190887 120.45839691
 5326.5000000 10.332119942 12.870499611 10.175680161 9.4103498459 9.3050203323 0.1284199953 3.6780500412 2.6649000645 43.845340729  -999.250000  -999.250000 63.753330231 120.77359772
 5327.0000000 10.961230278 13.235280037 10.806739807 9.9457302094 9.3197698593 0.1194799989 3.5627501011 2.6512598991 34.439601898  -999.250000  -999.250000 63.810211182 120.87200165
 5327.5000000 11.569140434 14.347559929 11.697990417 11.121350288 9.3308296204 0.1114099994 3.4149699211 2.6152799129 32.204399109  -999.250000  -999.250000 64.088928223 121.26560211
 5328.0000000 12.329159737 15.483059883 12.132969856 12.115030289 9.2681598663 0.1072700024 3.3266799450 2.5707600117 31.865690231  -999.250000  -999.250000 64.377677917 121.98259735
 5328.5000000 11.842329979 14.316329956 11.613809586 11.841019630 9.2976503372 0.1063999981 3.3510499001 2.5172500610 30.753160477  -999.250000  -999.250000 64.334411621 122.86540222
 5329.0000000 10.734450340 12.320579529 10.370340347 10.579930305 9.2828998566 0.1164600030 3.4611699581 2.5089800358 26.688859940  -999.250000  -999.250000 64.329826355 123.88829803
 5329.5000000 10.295240402 12.040820122 10.413510323 10.932579994 9.3087100983 0.1314200014 3.6324100494 2.5947399139 20.016120911  -999.250000  -999.250000 63.912990570 124.75569916
 5330.0000000 14.745289803 17.271530151 14.838129997 16.848060608 9.5188398361 0.1361899972 3.8012700081 2.7114601135 26.771060944  -999.250000  -999.250000 62.629730225 124.91850281
 5330.5000000 29.538749695 32.002830505 27.384740829 30.690559387 9.2312898636 0.1232599989 3.9522399902 2.7859399319 37.811820984  -999.250000  -999.250000 59.678131104 124.29090118
 5331.0000000 29.712369919 36.583049774 27.639429092 33.763568878 9.2423496246 0.1220600009 3.9966199398 2.7797000408 53.639911652  -999.250000  -999.250000 59.460628510 122.25250244
 5331.5000000 29.205980301 35.255649567 24.606990814 32.253181458 9.4893503189 0.1403200030 4.1204400063 2.7807300091 53.298400879  -999.250000  -999.250000 59.439918518 118.51869965
 5332.0000000 41.234909058 48.958511353 34.130661011 39.711891174 9.2534103394 0.1401399970 4.2352700233 2.7975199223 78.199562073  -999.250000  -999.250000 58.226928711 114.92530060
 5332.5000000 37.472560883 39.252220154 25.935510635 30.627519608 9.2312898636 0.1174200028 4.2494897842 2.7978000641 155.96830750  -999.250000  -999.250000 57.964080811 112.67720032
 5333.0000000 26.935440063 30.450000763 20.410100937 23.336349487 9.2239198685 0.0949100032 4.1616902351 2.7586700916 69.424346924  -999.250000  -999.250000 58.143268585 111.41100311
 5333.5000000 21.158010483 22.792770386 16.322929382 17.249179840 9.2202301025 0.0940300003 4.0852198601 2.7245600224 53.803878784  -999.250000  -999.250000 58.885108948 110.64379883
 5334.0000000 22.368640900 22.690410614 15.833550453 15.458120346 9.2018003464 0.0966700017 4.1009302139 2.7196700573 60.689388275  -999.250000  -999.250000 59.850830078 110.32790375
 5334.5000000 23.409830093 24.001319885 15.543470383 14.601790428 9.2091703415 0.1017299965 4.0187201500 2.7222499847 71.580520630  -999.250000  -999.250000 60.438011169 110.61289978
 5335.0000000 19.332210541 18.587469101 13.248689651 11.661849976 9.2091703415 0.1067299992 3.9026799202 2.6706900597 53.396701813  -999.250000  -999.250000 61.391448975 111.42659760
 5335.5000000 15.603130341 15.054750443 11.380200386 9.8081703186 9.1981096268 0.1132400036 3.7357199192 2.5900299549 36.033451080  -999.250000  -999.250000 62.572410583 112.29409790
 5336.0000000 13.642069817 13.502479553 10.412199974 9.0678186417 9.1796798706 0.1149099991 3.6213901043 2.5260300636 29.788110733  -999.250000  -999.250000 62.994758606 113.14420319
 5336.5000000 12.987279892 12.936420441 10.121500015 8.7831296921 9.1759901047 0.1088400036 3.5085999966 2.5137400627 28.765550613  -999.250000  -999.250000 63.743999481 114.43049622
 5337.0000000 12.570670128 12.858839989 10.178759575 8.8941497803 9.1759901047 0.1038800031 3.4401500225 2.5290300846 29.161640167  -999.250000  -999.250000 63.757198334 116.15239716
 5337.5000000 12.609769821 13.436329842 10.723609924 9.4344797134 9.1870498657 0.1044000015 3.3971700668 2.5565600395 27.557270050  -999.250000  -999.250000 63.765441895 117.96379852
