# LAS format log file from PETREL
# Project units are specified as depth units
#==================================================================
~Version information
VERS.   2.0:
WRAP.   NO:
#==================================================================
~Well
STRT .ft      5008.0000000          :
STOP .ft      7272.0000000          :
STEP .ft      0.50000000            :
NULL .        -999.250000           :
COMP.                               : COMPANY
WELL.         VW1                   : WELL
FLD.                                : FIELD
LOC.                                : LOCATION
SRVC.                               : SERVICE COMPANY
DATE.         2020-07-27 11:17:52   : Log Export Date {yyyy-MM-dd HH:mm:ss}
PROV.                               : PROVINCE
UWI.          121152346000          : UNIQUE WELL ID
API.          121152346000          : API NUMBER
#==================================================================
~Curve
DEPT .ft                   : DEPTH
RLA2 .ohm.m               : RLA2
RLA3 .ohm.m               : RLA3
RLA4 .ohm.m               : RLA4
RLA5 .ohm.m               : RLA5
HCAL .in                  : HCAL
HTNP .ft3/ft3             : HTNP
PEFZ .b/e                 : PEFZ
RHOZ .g/cm3               : RHOZ
RXOZ .ohm.m               : RXOZ
REFL ._                   : REFL
REFL1 ._                  : REFL 1
DTCO .us/ft               : DTCO
DTSM .us/ft               : DTSM
~Parameter
#==================================================================
~Ascii
# ...
 7252.0000000 78.939773560 318.06060791 93.638442993 52.729881287 7.6829600334 0.0461999997 4.9189300537 2.5566699505 7.1487998962  -999.250000  -999.250000 54.264308929  -999.250000
 7252.5000000 60.088211060 266.79779053 60.081630707 48.744400024 7.6746702194 0.0461999997 4.9356999397 2.5542299747 7.1065998077  -999.250000  -999.250000 54.264308929  -999.250000
 7253.0000000 65.016983032 235.20350647 82.146522522 82.477630615 7.6718997955 0.0461999997 4.9457402229 2.5526499748 7.0574297905  -999.250000  -999.250000 54.264308929  -999.250000
 7253.5000000 76.586639404 162.15460205 79.663619995 90.186180115 7.6580801010 0.0461999997 4.9417800903 2.5494699478 7.0100097656  -999.250000  -999.250000 54.264308929  -999.250000
 7254.0000000 95.066070557 128.27940369 80.816467285 94.423896790 7.6580801010 0.0461999997 4.9427099228 2.5451600552 6.9865598679  -999.250000  -999.250000 54.264308929  -999.250000
 7254.5000000 107.60330200 122.29599762 61.671211243 182.21369934 7.6470198631 0.0461999997 4.9565300941 2.5427100658 6.9644088745  -999.250000  -999.250000 54.264308929  -999.250000
 7255.0000000 174.03250122 107.30690002 69.472122192 65.908836365 7.6418800354 0.0461999997 4.9952998161 2.5470499992 6.9333510399  -999.250000  -999.250000 54.264308929  -999.250000
 7255.5000000 315.47891235 89.859947205 61.397281647 62.802089691 7.6355600357 0.0461999997 5.0358901024 2.5517098904 6.8941011429  -999.250000  -999.250000 54.264308929  -999.250000
 7256.0000000 601.96667480 91.030319214 58.447360992 50.326679230 7.6387200356 0.0461999997 5.0620098114 2.5529100895 6.8565502167  -999.250000  -999.250000 54.264308929  -999.250000
 7256.5000000 1161.3590088 111.55169678 63.736370087 46.601291656 7.6482000351 0.0461999997 5.0671701431 2.5503799915 6.8265600204  -999.250000  -999.250000 54.264308929  -999.250000
 7257.0000000 1949.9310303 158.20860291 77.415092468 48.628028870 7.6239800453 0.0461999997 5.0552601814 2.5494000912 6.8001799583  -999.250000  -999.250000 54.264308929  -999.250000
 7257.5000000 1950.0000000 239.57949829 104.80439758 56.737270355 7.6202898026 0.0461999997 5.0386900902 2.5467600822 6.7779588699  -999.250000  -999.250000 54.264308929  -999.250000
 7258.0000000 1949.4179688 319.89428711 151.01730347 73.982276917 7.6387200356 0.0461999997 5.0186600685 2.5457301140 6.7616901398  -999.250000  -999.250000 54.264308929  -999.250000
 7258.5000000 1950.0000000 279.64810181 211.26770020 106.28299713 7.6166000366 0.0461999997 4.8910098076 2.5340700150 6.8407511711  -999.250000  -999.250000 54.264308929  -999.250000
 7259.0000000 1950.0000000 183.80270386 245.08219910 161.23190308 7.6350398064 0.0461999997 5.1401200294 2.2782099247 2.1489601135  -999.250000  -999.250000 54.264308929  -999.250000
 7259.5000000 1773.8280029 116.22540283 214.84069824 223.19110107 7.6166000366 0.0461999997 4.7663397789 1.8844300508 0.6854900122  -999.250000  -999.250000 54.264308929  -999.250000
 7260.0000000 1433.7979736 79.828247070 162.63909912 234.37980652 6.1877198219 0.0461999997 3.9219200611 1.5601799488 0.4070000052  -999.250000  -999.250000 54.264308929  -999.250000
 7260.5000000 1018.5000000 61.495071411 118.55950165 195.05059814 3.4936199188 0.0461999997 2.6040499210 1.5195399523 0.3371700048  -999.250000  -999.250000 54.264308929  -999.250000
 7261.0000000 672.41992188 53.296741486 104.95670319 154.46449280 3.5157399178 0.0461999997 1.9135799408 1.6210000515 0.3371100128  -999.250000  -999.250000 54.264308929  -999.250000
 7261.5000000 429.59008789 51.291351318 93.834373474 128.34970093 3.4980499744 0.0461999997 1.8028500080 1.6637200117 0.3370499909  -999.250000  -999.250000 54.264308929  -999.250000
 7262.0000000 265.76611328 56.027038574 97.842933655 124.87300110 3.5024700165 0.0461999997 1.8014299870 1.6713500023 0.3370499909  -999.250000  -999.250000 54.264308929  -999.250000
 7262.5000000 166.36990356 69.982986450 131.76989746 147.71240234 3.4936199188 0.0461999997 1.7911900282 1.6736199856 0.3370499909  -999.250000  -999.250000 54.264308929  -999.250000
 7263.0000000 177.79739380 132.25140381 199.65849304 194.62800598 3.4914100170 0.0461999997 1.8003100157 1.6741399765 0.3371900022  -999.250000  -999.250000 54.264308929  -999.250000
 7263.5000000 128.60440063 144.31910706 241.87660217 262.46749878 3.4914100170 0.0461999997 1.8028600216 1.6728899479 0.3373000026  -999.250000  -999.250000 54.264308929  -999.250000
 7264.0000000 76.136833191 203.50720215 298.29998779 319.40390015 3.4914100170 0.0461999997 1.8125000000 1.6704699993 0.3373300135  -999.250000  -999.250000 54.264308929  -999.250000
 7264.5000000 63.201599121 292.08801270 462.69580078 486.50900269 3.4892001152 0.0461999997 1.8110699654 1.6694600582 0.3372899890  -999.250000  -999.250000 54.264308929  -999.250000
 7265.0000000 54.494430542 346.07180786 654.40222168 732.94079590 3.4980499744 0.0461999997 1.8082699776 1.6689800024 0.3371999860  -999.250000  -999.250000 54.264308929  -999.250000
 7265.5000000 53.452331543 337.61938477 830.86987305 1073.8909912 3.4847700596 0.0461999997 1.8076000214 1.6682300568 0.3372299969  -999.250000  -999.250000 54.264308929  -999.250000
 7266.0000000 63.451400757 346.99810791 1092.7010498 1370.6159668 3.4858798981 0.0461999997 1.8031200171 1.6688100100 0.3371999860  -999.250000  -999.250000 54.264308929  -999.250000
 7266.5000000 81.617996216 377.63641357 1299.7449951 1638.4389648 3.4892001152 0.0461999997 1.7994400263 1.6694799662 0.3372699916  -999.250000  -999.250000 54.264308929  -999.250000
 7267.0000000 107.00340271 389.30911255 1534.2750244 1784.5689697 3.4914100170 0.0461999997 1.7941499949 1.6708699465 0.3372400105  -999.250000  -999.250000 54.264308929  -999.250000
 7267.5000000 132.80580139 354.82290649 1730.2819824 1799.9410400 3.4892001152 0.0461999997 1.7948499918 1.6703499556 0.3372299969  -999.250000  -999.250000 54.264308929  -999.250000
 7268.0000000 153.14230347 359.08099365 1869.4279785 1697.7540283 3.4980499744 0.0461999997 1.7876900434 1.6699800491 0.3370000124  -999.250000  -999.250000 54.264308929  -999.250000
 7268.5000000 155.05270386 374.05349731 1946.7779541 1513.1450195 3.4997000694 0.0461999997 1.7800999880 1.6684399843 0.3371100128  -999.250000  -999.250000 54.264308929  -999.250000
 7269.0000000 149.06530762 381.04269409 1950.0000000 1304.8289795 3.5024700165 0.0461999997 1.7622799873 1.6701699495 0.3372099996  -999.250000  -999.250000 54.264308929  -999.250000
 7269.5000000 137.80470276 381.82629395 1950.0000000 1068.5539551 3.5024700165 0.0461999997 1.7430000305 1.6744300127 0.3373300135  -999.250000  -999.250000 54.264308929  -999.250000
 7270.0000000 124.08080292 387.01031494 1950.0000000 950.22222900 3.5024700165 0.0461999997 1.7228000164 1.6802699566 0.3369899988  -999.250000  -999.250000 54.264308929  -999.250000
 7270.5000000 109.50070190 384.77279663 1950.0000000 894.72088623 3.5024700165 0.0461999997 1.7140500546 1.6830799580 0.3353999853  -999.250000  -999.250000 54.264308929  -999.250000
 7271.0000000 95.861297607 382.05648804 1950.0000000 872.18377686 3.5024700165 0.0461999997 1.7129499912 1.6835299730 0.3281899989  -999.250000  -999.250000 54.264308929  -999.250000
 7271.5000000 85.890060425 376.18438721 1950.0000000 858.97058105 3.5024700165 0.0461999997 1.7129499912 1.6835099459 0.3152700067  -999.250000  -999.250000 54.264308929  -999.250000
 7272.0000000 78.314399719 383.55230713 1950.0000000 935.24951172 3.5024700165 0.0461999997 1.7129499912 1.6835099459 0.2998600006  -999.250000  -999.250000 54.264308929  -999.250000
