~Version Information
VERS  .          2.0                              :CWLS Log Ascii Standard - Version 2.0
WRAP  .          NO                               :One line per depth step
~Well Information Block
#MNEM.UNIT       Data Type                        Information
#---------       ---------                        -------------------------------
STRT  .F         5250.00000                       :START DEPTH
STOP  .F         7202.00000                       :STOP DEPTH
STEP  .F          0.50000                         :INCREMENT
NULL  .          -999.25                          :NULL DATA VALUE
COMP  .          ADM COMPANY                      :COMPANY
WELL  .          VERIFICATION WELL 1 Run 2        :WELL
FLD   .          WILDCAT                          :FIELD
LOC   .                                           :LOCATION
PROV  .                                           :PROVINCE
STAT  .                                           :STATE
CNTY  .                                           :COUNTY
CTRY  .                                           :COUNTRY
DATE  .                                           :DATE
UWI   .          VERIFICATION WELL 1 Run 2        :UNIQUE WELL UWI
LIC   .                                           :LICENSE NUMBER
API   .          121152346000                     :API NUMBER
SRVC  .                                           :SERVICE COMPANY
~Parameter Information Block
#MNEM.UNIT       Value                            Description
#---------       ---------                        -------------
LONG  .DEG       -88.893356                       :Well Surface Location
LATI  .DEG       39.879810                        :Well Surface Location
XWELL .DEG       -88.893356                       :X-coordinate of Well Head
YWELL .DEG       39.879810                        :Y-coordinate of Well Head
PDAT  .          GROUND LEVEL                     :Permanent Datum               
EPD   .ft        669.00                           :Elevation of Permanent Datum (PDAT) above Mean Sea Level
LMF   .          KELLY BUSHING                    :Logging Measured From (Name of Working Datum)
APD   .ft        15.00                            :Elevation of Working Datum (LMF) Above Permanent Datum
EDF   .ft        683.00                           :Elevation of Derrick Floor Above Mean Sea Level
EGL   .ft        669.00                           :Elevation of Ground Level Above Mean Sea Level
EKB   .ft        684.00                           :Elevation of Kelly Bushing Above Mean Sea Level
~Curve Information Block
#MNEM.UNIT       API Code            Curve    Description
#--------        --------------      -----    -------------------
DEPT  .F                             :0       Index
C44_BH.6PSI                          :1       C44 Referred to the Borehole Axis in a Deviated Well
C55_BH.6PSI                          :2       C55 Referred to the Borehole Axis in a Deviated Well
C66_BH.6PSI                          :3       C66 Referred to the Borehole Axis in a Deviated Well
GR_EDTC.GAPI                          :4       Gamma Ray                     
HD1_PPC1.IN                            :5       PPC1 Hole Diameter 1          
HD1_PPC1.IN                            :6       PPC1 Hole Diameter 1          
HD2_PPC1.IN                            :7       PPC1 Hole Diameter 2          
KINT  .MD                            :8       Intrinsic Permeability        
MAXXENE_OVERALL.                              :9       Overall estimate of maximum cross energy
MINXENE_OVERALL.                              :10      Overall estimate of minimum cross energy
PHIT  .V/V                           :11      Total Porosity_ includes all forms of porosity, including that occupied by bound fluids, and is independent of rock and fluid materials and of environmental effects
PPGI  .PS/F                          :12      Pore Pressure Gradient        
PPRS  .PSI                           :13      Pore Pressure                 
PR_HORIZ_FSA_SSA_DYN.                              :14      Dynamic Horizontal Poissons Ratio - Loading Fast Shear Azimuth - Displacement Slow Shear Aximuth
PR_VERT_FSA_DYN.                              :15      Dynamic Vertical Poissons Ratio - Loading Vertical - Displacement Fast Shear Aximuth
RHOZ  .G/C3                          :16      HRDD Standard Resolution Formation Density
SUWI  .V/V                           :17      Non-Clay Water Intergranular Water Saturation for Undisturbed Zone
TENS  .LBF                           :18      Cable Tension                 
TXSG  .PS/F                          :19      Total Minimum Horizontal Stress Gradient
TXSG  .PS/F                          :20      Total Minimum Horizontal Stress Gradient
TXSP  .PSI                           :21      Total Minimum Horizontal Stress - Sigma X
TXSP  .PSI                           :22      Total Minimum Horizontal Stress - Sigma X
TZSG  .PS/F                          :23      Total Vertical Stress Gradient
TZSP  .PSI                           :24      Total Vertical Stress - Sigma Z
VCL   .V/V                           :25      Volume of Clay Type Material Relative to Total Volume
YME_HORIZ_SSA_DYN.6PSI                          :26      Dynamic Horizontal Youngs Modulus in the Slow Shear Azimuth Direction
YME_HORIZ_SSA_STA.6PSI                          :27      Static Horizontal Youngs Modulus in the Slow Shear Azimuth Direction
YME_VERT_DYN.6PSI                          :28      Dynamic Vertical Youngs Modulus
YME_VERT_STA.6PSI                          :29      Static Vertical Youngs Modulus
~Ascii Data Section
   5250.00000    -999.25000    -999.25000    -999.25000      82.95029       8.66304       8.65835       8.66772       0.01000       4.77700       3.57976       0.03651       0.43350    2275.87500    -999.25000    -999.25000       4.06302       1.00000    3015.41675    -999.25000    -999.25000    -999.25000    -999.25000       1.05000    5512.49951       0.03650    -999.25000    -999.25000    -999.25000    -999.25000 
   5250.50000    -999.25000    -999.25000    -999.25000      87.07645       8.66238       8.66985       8.65492       0.01000       5.03334       3.68875       0.04028       0.43350    2276.09180    -999.25000    -999.25000       4.04586       1.00000    3015.41675    -999.25000    -999.25000    -999.25000    -999.25000       1.05000    5513.02490       0.04027    -999.25000    -999.25000    -999.25000    -999.25000 
   5251.00000    -999.25000    -999.25000    -999.25000      90.85561       8.66436       8.66978       8.65895       0.01000       5.24097       3.65430       0.03973       0.43350    2276.30835    -999.25000    -999.25000       4.03293       1.00000    3015.41675    -999.25000    -999.25000    -999.25000    -999.25000       1.05000    5513.54980       0.03972    -999.25000    -999.25000    -999.25000    -999.25000 
   5251.50000    -999.25000    -999.25000    -999.25000      95.34740       8.67440       8.68108       8.66772       0.01000       5.56539       3.66262       0.03989       0.43350    2276.52515    -999.25000    -999.25000       4.03656       1.00000    3015.41675    -999.25000    -999.25000    -999.25000    -999.25000       1.05000    5514.07471       0.03988    -999.25000    -999.25000    -999.25000    -999.25000 
   5252.00000    -999.25000    -999.25000    -999.25000      96.30287       8.66436       8.66978       8.65895       0.01000       5.95599       3.79831       0.04888       0.43350    2276.74194    -999.25000    -999.25000       4.05552       1.00000    3015.41675    -999.25000    -999.25000    -999.25000    -999.25000       1.05000    5514.59961       0.04887    -999.25000    -999.25000    -999.25000    -999.25000 
   5252.50000    -999.25000    -999.25000    -999.25000      99.21098       8.66436       8.66978       8.65895       0.01000       6.20272       4.00719       0.06672       0.43350    2276.95874    -999.25000    -999.25000       4.08189       1.00000    3015.41675    -999.25000    -999.25000    -999.25000    -999.25000       1.05000    5515.12451       0.06671    -999.25000    -999.25000    -999.25000    -999.25000 
   5253.00000    -999.25000    -999.25000    -999.25000      98.35072       8.66997       8.68100       8.65895       0.01000       6.37203       4.15286       0.07309       0.43350    2277.17554    -999.25000    -999.25000       4.10084       1.00000    3015.41675    -999.25000    -999.25000    -999.25000    -999.25000       1.05000    5515.64990       0.07308    -999.25000    -999.25000    -999.25000    -999.25000 
   5253.50000    -999.25000    -999.25000    -999.25000     112.97453       8.66000       8.66105       8.65895       0.01000       6.49715       4.16930       0.07712       0.43350    2277.39209    -999.25000    -999.25000       4.10388       1.00000    3015.41675    -999.25000    -999.25000    -999.25000    -999.25000       1.05000    5516.17480       0.07711    -999.25000    -999.25000    -999.25000    -999.25000 
   5254.00000    -999.25000    -999.25000    -999.25000     121.20553       8.66312       8.66729       8.65895       0.01000       6.54853       4.12341       0.07675       0.43350    2277.60889    -999.25000    -999.25000       4.09583       1.00000    3015.41675    -999.25000    -999.25000    -999.25000    -999.25000       1.05000    5516.69971       0.07674    -999.25000    -999.25000    -999.25000    -999.25000 
   5254.50000    -999.25000    -999.25000    -999.25000     127.49906       8.65921       8.66216       8.65626       0.01000       6.54618       3.93869       0.07336       0.43350    2277.82568    -999.25000    -999.25000       4.08169       1.00000    3015.41675    -999.25000    -999.25000    -999.25000    -999.25000       1.05000    5517.22461       0.07335    -999.25000    -999.25000    -999.25000    -999.25000 
   5255.00000    -999.25000    -999.25000    -999.25000     123.45896       8.65983       8.66474       8.65492       0.01000       6.53041       3.58918       0.06948       0.43350    2278.04248    -999.25000    -999.25000       4.07701       1.00000    3015.41675    -999.25000    -999.25000    -999.25000    -999.25000       1.05000    5517.74951       0.06947    -999.25000    -999.25000    -999.25000    -999.25000 
   5255.50000    -999.25000    -999.25000    -999.25000     113.33832       8.66071       8.66471       8.65671       0.01000       6.24016       3.22259       0.06028       0.43350    2278.25928    -999.25000    -999.25000       4.11439       1.00000    3015.41675    -999.25000    -999.25000    -999.25000    -999.25000       1.05000    5518.27490       0.06027    -999.25000    -999.25000    -999.25000    -999.25000 
   5256.00000    -999.25000    -999.25000    -999.25000     100.78125       8.65796       8.65831       8.65760       0.01000       5.49686       2.88921       0.05680       0.43350    2278.47607    -999.25000    -999.25000       4.25535       1.00000    3015.41675    -999.25000    -999.25000    -999.25000    -999.25000       1.05000    5518.79980       0.05679    -999.25000    -999.25000    -999.25000    -999.25000 
   5256.50000    -999.25000    -999.25000    -999.25000      86.30617       8.65835       8.66089       8.65581       0.01000       4.89389       2.62897       0.06570       0.43350    2278.69263    -999.25000    -999.25000       4.43697       1.00000    3015.41675    -999.25000    -999.25000    -999.25000    -999.25000       1.05000    5519.32471       0.06569    -999.25000    -999.25000    -999.25000    -999.25000 
   5257.00000    -999.25000    -999.25000    -999.25000      78.87897       8.66292       8.66975       8.65609       0.01000       4.49636       2.47288       0.07694       0.43350    2278.90942    -999.25000    -999.25000       4.58237       1.00000    3015.41675    -999.25000    -999.25000    -999.25000    -999.25000       1.05000    5519.84961       0.07693    -999.25000    -999.25000    -999.25000    -999.25000 
   5257.50000    -999.25000    -999.25000    -999.25000      78.77248       8.65138       8.66951       8.63324       0.01000       4.07660       2.37827       0.07788       0.43350    2279.12622    -999.25000    -999.25000       4.62880       1.00000    3015.41675    -999.25000    -999.25000    -999.25000    -999.25000       1.05000    5520.37451       0.07787    -999.25000    -999.25000    -999.25000    -999.25000 
   5258.00000    -999.25000    -999.25000    -999.25000      89.24771       8.64540       8.63588       8.65492       0.01000       3.97841       2.22952       0.07751       0.43350    2279.34302    -999.25000    -999.25000       4.62880       1.00000    3015.41675    -999.25000    -999.25000    -999.25000    -999.25000       1.05000    5520.89990       0.07750    -999.25000    -999.25000    -999.25000    -999.25000 
   5258.50000    -999.25000    -999.25000    -999.25000     103.90231       8.66502       8.65829       8.67174       0.01000       4.27962       1.99245       0.07134       0.43350    2279.55981    -999.25000    -999.25000       4.62880       1.00000    3015.41675    -999.25000    -999.25000    -999.25000    -999.25000       1.05000    5521.42480       0.07133    -999.25000    -999.25000    -999.25000    -999.25000 
   5259.00000    -999.25000    -999.25000    -999.25000     110.24113       8.67225       8.64707       8.69743       0.01000       4.54527       1.81800       0.06591       0.43350    2279.77637    -999.25000    -999.25000       4.62502       1.00000    3015.41675    -999.25000    -999.25000    -999.25000    -999.25000       1.05000    5521.94971       0.06590    -999.25000    -999.25000    -999.25000    -999.25000 
   5259.50000    -999.25000    -999.25000    -999.25000     113.84646       8.67721       8.66978       8.68464       0.01000       4.61958       1.70587       0.06454       0.43350    2279.99316    -999.25000    -999.25000       4.55498       1.00000    3015.41675    -999.25000    -999.25000    -999.25000    -999.25000       1.05000    5522.47461       0.06453    -999.25000    -999.25000    -999.25000    -999.25000 
