# LAS format log file from PETREL
# Project units are specified as depth units
#==================================================================
~Version information
VERS.   2.0:
WRAP.   NO:
#==================================================================
~Well
STRT .ft      5008.0000000          :
STOP .ft      7272.0000000          :
STEP .ft      0.50000000            :
NULL .        -999.250000           :
COMP.                               : COMPANY
WELL.         VW1                   : WELL
FLD.                                : FIELD
LOC.                                : LOCATION
SRVC.                               : SERVICE COMPANY
DATE.         2020-07-27 11:17:52   : Log Export Date {yyyy-MM-dd HH:mm:ss}
PROV.                               : PROVINCE
UWI.          121152346000          : UNIQUE WELL ID
API.          121152346000          : API NUMBER
#==================================================================
~Curve
DEPT .ft                   : DEPTH
RLA2 .ohm.m               : RLA2
RLA3 .ohm.m               : RLA3
RLA4 .ohm.m               : RLA4
RLA5 .ohm.m               : RLA5
HCAL .in                  : HCAL
HTNP .ft3/ft3             : HTNP
PEFZ .b/e                 : PEFZ
RHOZ .g/cm3               : RHOZ
RXOZ .ohm.m               : RXOZ
REFL ._                   : REFL
REFL1 ._                  : REFL 1
DTCO .us/ft               : DTCO
DTSM .us/ft               : DTSM
~Parameter
#==================================================================
~Ascii
# ...
 6350.0000000 5.8197798729 5.4114398956 4.7934198380 4.8286199570 8.5529699326 0.0920300037 2.2348999977 2.5026900768 26.828079224  -999.250000  -999.250000 66.410003662 109.68250275
 6350.5000000 6.8964700699 6.2613701820 5.5444297791 5.4966897964 8.5677204132 0.0930999964 2.2467999458 2.5055201054 28.533349991  -999.250000  -999.250000 65.864562988 108.28540039
 6351.0000000 7.3725810051 6.6112399101 5.6976699829 5.6327099800 8.5787801743 0.0874800012 2.1967499256 2.5003600121 39.267341614  -999.250000  -999.250000 65.590820313 107.35500336
 6351.5000000 7.1665902138 6.2763900757 5.4672698975 5.4580101967 8.5787801743 0.0799700022 2.0992600918 2.5029299259 34.945491791  -999.250000  -999.250000 65.177391052 106.62969971
 6352.0000000 7.3390297890 6.3617000580 5.4889001846 5.5273489952 8.5677204132 0.0758600011 2.0533099174 2.5013699532 35.294990540  -999.250000  -999.250000 65.242607117 106.12539673
 6352.5000000 7.4795398712 6.4498801231 5.5603199005 5.4985399246 8.5677204132 0.0724999979 2.0542099476 2.5038499832 37.943939209  -999.250000  -999.250000 65.215103149 105.90550232
 6353.0000000 7.1152601242 6.2649288177 5.4265799522 5.3660798073 8.5677204132 0.0677599981 2.0796298981 2.5040099621 34.007339478  -999.250000  -999.250000 65.218986511 105.85269928
 6353.5000000 6.8818001747 5.9880900383 5.2380800247 5.1082100868 8.5787801743 0.0662799999 2.1001300812 2.5041499138 33.857040405  -999.250000  -999.250000 64.988098145 106.03669739
 6354.0000000 7.0204010010 6.2100901604 5.3661298752 5.3135900497 8.5750904083 0.0690400004 2.1124100685 2.4987699986 26.058410645  -999.250000  -999.250000 64.534019470 106.04530334
 6354.5000000 7.2723698616 6.4944100380 5.6092410088 5.5659599304 8.5824699402 0.0729300007 2.1010699272 2.4951400757 26.056869507  -999.250000  -999.250000 64.176933289 105.76650238
 6355.0000000 8.1350803375 7.1346101761 6.1266798973 6.1324601173 8.5787801743 0.0729300007 2.0825700760 2.4958000183 31.009149551  -999.250000  -999.250000 63.996021271 105.31089783
 6355.5000000 9.8602600098 8.4722385406 6.9377589226 6.9917597771 8.6562004089 0.0690900013 2.0564699173 2.5041100979 53.434421539  -999.250000  -999.250000 63.940448761 104.71530151
 6356.0000000 9.7441596985 8.6343803406 7.2036709785 7.3451900482 8.5603504181 0.0613199994 2.0553400517 2.5139200687 53.111038208  -999.250000  -999.250000 63.672019958 104.21350098
 6356.5000000 7.9335489273 7.1031198502 5.9937100410 6.0890297890 8.5124197006 0.0568599999 2.0801200867 2.5214200020 33.246410370  -999.250000  -999.250000 63.898368835 103.80960083
 6357.0000000 7.2876801491 6.3642902374 5.4799799919 5.6392397881 8.5124197006 0.0636000037 2.1265599728 2.5160999298 28.623979568  -999.250000  -999.250000 63.836711884 103.46250153
 6357.5000000 6.9460601807 6.1506600380 5.3099298477 5.5659999847 8.5455999374 0.0727899969 2.1426899433 2.5029299259 26.716529846  -999.250000  -999.250000 63.914749146 103.30780029
 6358.0000000 6.5158901215 5.6481199265 4.8769898415 5.0867400169 8.5161104202 0.0745299980 2.1341600418 2.4886200428 27.946329117  -999.250000  -999.250000 63.925750732 103.59279633
 6358.5000000 5.8075900078 5.1052589417 4.4691910744 4.5684499741 8.5087404251 0.0737299994 2.1020400524 2.4861199856 23.934610367  -999.250000  -999.250000 64.092506409 104.06330109
 6359.0000000 5.9042701721 5.1984109879 4.4983701706 4.5861902237 8.5087404251 0.0763999969 2.0565900803 2.4938299656 27.848560333  -999.250000  -999.250000 64.199913025 104.43170166
 6359.5000000 6.3736801147 5.5068202019 4.6523799896 4.7352299690 8.5013599396 0.0782999992 1.9948899746 2.5058100224 29.011009216  -999.250000  -999.250000 64.589340210 104.72059631
 6360.0000000 6.4525198936 5.5331501961 4.6502599716 4.6801609993 8.5013599396 0.0775099993 1.9425499439 2.5110499859 32.340530396  -999.250000  -999.250000 65.081909180 104.93769836
 6360.5000000 6.1489100456 5.2911000252 4.4319200516 4.4504189491 8.5013599396 0.0762500018 1.9697099924 2.4919800758 27.390110016  -999.250000  -999.250000 65.043876648 105.03279877
 6361.0000000 5.9380598068 5.1190900803 4.2982997894 4.2685799599 8.4903001785 0.0788199976 2.0021400452 2.4707100391 26.454959869  -999.250000  -999.250000 65.246887207 105.02449799
 6361.5000000 6.1315588951 5.3145999908 4.3707399368 4.3944201469 8.4903001785 0.0815799981 2.0172100067 2.4593100548 29.532470703  -999.250000  -999.250000 65.406929016 104.92960358
 6362.0000000 6.3418397903 5.4840898514 4.3115901947 4.4553098679 8.4903001785 0.0775600001 2.0130798817 2.4638199806 34.440570831  -999.250000  -999.250000 65.615936279 104.89409637
 6362.5000000 6.1110301018 5.2606701851 4.2250599861 4.2723999023 8.4792499542 0.0709600002 2.0117800236 2.4738099575 31.701559067  -999.250000  -999.250000 65.858016968 104.92530060
 6363.0000000 5.6238198280 4.8255600929 4.0034499168 3.9325599670 8.4681901932 0.0723700002 2.0135600567 2.4801499844 26.138570786  -999.250000  -999.250000 65.946357727 104.89459991
 6363.5000000 5.2355599403 4.6143898964 3.8522000313 3.7491700649 8.4571304321 0.0779599994 1.9969099760 2.4841399193 20.834369659  -999.250000  -999.250000 65.531791687 104.81590271
 6364.0000000 5.2140197754 4.6214199066 3.8786098957 3.7315099239 8.4460697174 0.0821600035 1.9648799896 2.4910399914 20.889099121  -999.250000  -999.250000 65.205352783 104.67729950
 6364.5000000 5.7065000534 4.9850001335 4.2304000854 3.9709899426 8.4460697174 0.0777600035 1.9428900480 2.5011498928 25.902410507  -999.250000  -999.250000 64.811126709 104.53089905
 6365.0000000 6.5238299370 5.7845201492 4.8090300560 4.3605699539 8.4460697174 0.0681499988 1.9258699417 2.5124199390 37.006801605  -999.250000  -999.250000 64.727287292 104.37850189
 6365.5000000 7.1962499619 6.3776798248 5.1213688850 4.7740001678 8.4128904343 0.0560400002 1.9116499424 2.5245399475 41.687908173  -999.250000  -999.250000 64.670143127 104.16000366
 6366.0000000 6.7362599373 6.0183701515 4.9921197891 4.8295598030 8.4239501953 0.0490400009 1.9367200136 2.5189099312 33.496398926  -999.250000  -999.250000 64.185699463 103.80789948
 6366.5000000 6.4758100510 5.8595600128 4.9229397774 4.8535799980 8.4239501953 0.0539599992 1.9763699770 2.5083498955 31.920810699  -999.250000  -999.250000 64.065269470 103.25730133
 6367.0000000 6.3526301384 5.7317700386 4.8783311844 5.0346798897 8.4128904343 0.0623899996 2.0222299099 2.4931600094 23.610109329  -999.250000  -999.250000 63.804698944 102.73120117
 6367.5000000 6.2251100540 5.6987700462 4.8552999496 5.0096688271 8.4128904343 0.0644999966 2.0073499680 2.4971299171 24.749860764  -999.250000  -999.250000 63.709629059 102.60729980
 6368.0000000 6.7230701447 5.9244098663 5.0383000374 5.3275499344 8.3907699585 0.0629199967 2.0027799606 2.4975399971 28.757089615  -999.250000  -999.250000 63.577068329 102.77149963
 6368.5000000 6.8525400162 6.1691999435 5.2083110809 5.6030111313 8.3907699585 0.0630199984 2.0075199604 2.4968199730 33.685348511  -999.250000  -999.250000 63.653030396 102.84510040
 6369.0000000 7.0103402138 6.2697801590 5.3449401855 5.8773298264 8.3797101974 0.0628800020 2.0440199375 2.4953000546 38.995891571  -999.250000  -999.250000 63.905281067 102.58200073
 6369.5000000 7.2128701210 6.7657198906 5.6777400970 6.2125000954 8.3575897217 0.0593000017 2.0188200474 2.5172200203 39.998100281  -999.250000  -999.250000 63.918830872 102.17549896
 6370.0000000 7.8502402306 6.9560189247 5.8320798874 6.3994288445 8.3797101974 0.0539700016 1.9887299538 2.5341300964 44.002819061  -999.250000  -999.250000 63.622688293 102.02100372
 6370.5000000 8.1176614761 7.1669411659 5.9465098381 6.4782800674 8.3686504364 0.0580600016 1.9587299824 2.5348799229 32.415279388  -999.250000  -999.250000 63.504299164 102.00090027
 6371.0000000 7.9509301186 7.1196789742 5.8923997879 6.3150501251 8.3760204315 0.0636999980 1.9717099667 2.5170900822 25.528139114  -999.250000  -999.250000 63.548259735 102.00350189
 6371.5000000 8.2840299606 7.2723999023 5.9534301758 6.2776298523 8.3538999557 0.0663100034 1.9733999968 2.5114300251 26.941320419  -999.250000  -999.250000 63.463558197 101.94180298
