~Version Information
VERS  .          2.0                              :CWLS Log Ascii Standard - Version 2.0
WRAP  .          NO                               :One line per depth step
~Well Information Block
#MNEM.UNIT       Data Type                        Information
#---------       ---------                        -------------------------------
STRT  .F         1820.00000                       :START DEPTH
STOP  .F         5250.00000                       :STOP DEPTH
STEP  .F          0.50000                         :INCREMENT
NULL  .          -999.25                          :NULL DATA VALUE
COMP  .          ADM COMPANY                      :COMPANY
WELL  .          VERIFICATION WELL 1              :WELL
FLD   .          WILDCAT                          :FIELD
LOC   .                                           :LOCATION
PROV  .                                           :PROVINCE
STAT  .                                           :STATE
CNTY  .                                           :COUNTY
CTRY  .                                           :COUNTRY
DATE  .                                           :DATE
UWI   .          VERIFICATION WELL 1              :UNIQUE WELL UWI
LIC   .                                           :LICENSE NUMBER
API   .                                           :API NUMBER
SRVC  .                                           :SERVICE COMPANY
~Parameter Information Block
#MNEM.UNIT       Value                            Description
#---------       ---------                        -------------
LONG  .DEG       -88.893356                       :Well Surface Location
LATI  .DEG       39.879810                        :Well Surface Location
XWELL .DEG       -88.893356                       :X-coordinate of Well Head
YWELL .DEG       39.879810                        :Y-coordinate of Well Head
PDAT  .          GROUND LEVEL                     :Permanent Datum               
EPD   .ft        669.00                           :Elevation of Permanent Datum (PDAT) above Mean Sea Level
LMF   .          KELLY BUSHING                    :Logging Measured From (Name of Working Datum)
APD   .ft        15.00                            :Elevation of Working Datum (LMF) Above Permanent Datum
EDF   .ft        683.00                           :Elevation of Derrick Floor Above Mean Sea Level
EGL   .ft        669.00                           :Elevation of Ground Level Above Mean Sea Level
EKB   .ft        684.00                           :Elevation of Kelly Bushing Above Mean Sea Level
~Curve Information Block
#MNEM.UNIT       API Code            Curve    Description
#--------        --------------      -----    -------------------
DEPT  .F                             :0       Index
C44_BH.6PSI                          :1       C44 Referred to the Borehole Axis in a Deviated Well
C55_BH.6PSI                          :2       C55 Referred to the Borehole Axis in a Deviated Well
C66_BH.6PSI                          :3       C66 Referred to the Borehole Axis in a Deviated Well
GR_EDTC.GAPI                          :4       Gamma Ray                     
HD1_PPC1.IN                            :5       PPC1 Hole Diameter 1          
HD1_PPC1.IN                            :6       PPC1 Hole Diameter 1          
HD2_PPC1.IN                            :7       PPC1 Hole Diameter 2          
KINT  .MD                            :8       Intrinsic Permeability        
MAXXENE_OVERALL.                              :9       Overall estimate of maximum cross energy
MINXENE_OVERALL.                              :10      Overall estimate of minimum cross energy
PHIT  .V/V                           :11      Total Porosity_ includes all forms of porosity, including that occupied by bound fluids, and is independent of rock and fluid materials and of environmental effects
PPGI  .PS/F                          :12      Pore Pressure Gradient        
PPRS  .PSI                           :13      Pore Pressure                 
PR_HORIZ_SSA_FSA_DYN.                              :14      Dynamic Horizontal Poissons Ratio - Loading Slow Shear Azimuth - Displacement Fast Shear Azimuth
PR_VERT_FSA_DYN.                              :15      Dynamic Vertical Poissons Ratio - Loading Vertical - Displacement Fast Shear Aximuth
RHOZ  .G/C3                          :16      HRDD Standard Resolution Formation Density
RHOZ  .G/C3                          :17      HRDD Standard Resolution Formation Density
SUWI  .V/V                           :18      Non-Clay Water Intergranular Water Saturation for Undisturbed Zone
TENS  .LBF                           :19      Cable Tension                 
TXSG  .PS/F                          :20      Total Minimum Horizontal Stress Gradient
TXSG  .PS/F                          :21      Total Minimum Horizontal Stress Gradient
TXSP  .PSI                           :22      Total Minimum Horizontal Stress - Sigma X
TXSP  .PSI                           :23      Total Minimum Horizontal Stress - Sigma X
TZSG  .PS/F                          :24      Total Vertical Stress Gradient
TZSP  .PSI                           :25      Total Vertical Stress - Sigma Z
VCL   .V/V                           :26      Volume of Clay Type Material Relative to Total Volume
YME_HORIZ_SSA_DYN.6PSI                          :27      Dynamic Horizontal Youngs Modulus in the Slow Shear Azimuth Direction
YME_HORIZ_SSA_STA.6PSI                          :28      Static Horizontal Youngs Modulus in the Slow Shear Azimuth Direction
YME_VERT_DYN.6PSI                          :29      Dynamic Vertical Youngs Modulus
YME_VERT_STA.6PSI                          :30      Static Vertical Youngs Modulus
~Ascii Data Section
# ...
   3644.00000       3.70765       3.89709       3.56891      37.53353      12.16542      12.19823      12.13260       0.20077       1.04165       0.20406       0.05282       0.43350    1579.67395       0.25074       0.28363       2.74332       2.74332       1.00000    2410.98975       0.64712       0.66895    2358.10547    2437.64966       1.05000    3826.19971       0.08218       8.84470       7.48052      10.00485       8.46173 
   3644.50000       3.70133       3.90444       3.49891      42.02733      12.15600      12.18089      12.13111       0.16551       0.90809       0.19765       0.05302       0.43350    1579.89075       0.25045       0.28579       2.74814       2.74814       1.00000    2391.81152       0.64733       0.67080    2359.20166    2444.73071       1.05000    3826.72485       0.08842       8.79892       7.43791      10.04058       8.48750 
   3645.00000       3.72340       3.91620       3.47053      44.86130      12.15971      12.17800      12.14143       0.09595       0.79316       0.19002       0.05028       0.43350    1580.10742       0.25394       0.28781       2.75543       2.75543       1.00000    2384.72217       0.65101       0.67354    2372.94385    2455.04980       1.05000    3827.24976       0.09049       8.89974       7.57702      10.08665       8.58754 
   3645.50000       3.74051       3.90482       3.44034      41.02287      12.15596      12.16876      12.14317       0.06737       0.70745       0.18298       0.04891       0.43350    1580.32422       0.25461       0.28332       2.74267       2.74268       1.00000    2400.90674       0.65060       0.66967    2371.76050    2441.29028       1.05000    3827.77490       0.08036       9.00678       7.69543      10.02223       8.56303 
   3646.00000       3.73627       3.86472       3.34862      38.21729      12.15091      12.16949      12.13233       0.09678       0.64420       0.17532       0.05132       0.43350    1580.54102       0.24466       0.26596       2.70068       2.70068       1.00000    2424.87964       0.63774       0.65178    2325.18848    2376.38940       1.05000    3828.29980       0.06536       9.00159       7.64305       9.78513       8.30834 
   3646.50000       3.72742       3.82599       3.28977      34.95543      12.13931      12.16758      12.11104       0.21487       0.59409       0.16679       0.05454       0.43350    1580.75769       0.22729       0.24223       2.65058       2.65058       1.00000    2418.27979       0.61771       0.62745    2252.48535    2288.01123       1.05000    3828.82471       0.05262       8.91949       7.50987       9.50549       8.00325 
   3647.00000       3.72371       3.80131       3.20646      34.48447      12.12891      12.14102      12.11679       0.60250       0.55579       0.15994       0.05838       0.43350    1580.97449       0.21512       0.22611       2.60846       2.60846       1.00000    2385.86719       0.60442       0.61154    2204.32275    2230.30273       1.05000    3829.34985       0.04165       8.86845       7.39163       9.32165       7.76935 
   3647.50000       3.75796       3.82119       3.22535      31.27953      12.11735      12.13509      12.09961       0.80889       0.52798       0.15391       0.05702       0.43350    1581.19116       0.21413       0.22294       2.60197       2.60197       1.00000    2420.82129       0.60304       0.60874    2199.57397    2220.38354       1.05000    3829.87476       0.03830       8.97677       7.50889       9.34620       7.81791 
   3648.00000       3.80248       3.87060       3.28436      27.15285      12.14305      12.14334      12.14277       0.86016       0.50954       0.14830       0.05858       0.43350    1581.40796       0.22514       0.23510       2.62182       2.62182       1.00000    2402.42603       0.61451       0.62100    2241.74292    2265.40308       1.05000    3830.39990       0.03899       9.15600       7.62724       9.56119       7.96478 
   3648.50000       3.85092       3.95163       3.37052      23.71421      12.14991      12.15405      12.14577       0.41360       0.50718       0.14444       0.05681       0.43350    1581.62476       0.24051       0.25631       2.66841       2.66840       1.00000    2367.57861       0.63202       0.64240    2305.91724    2343.80078       1.05000    3830.92480       0.05362       9.31677       7.79762       9.92898       8.31001 
   3649.00000       3.87614       4.01997       3.44849      22.86225      12.17228      12.19205      12.15250       0.19770       0.51034       0.14243       0.05468       0.43350    1581.84143       0.25413       0.27824       2.71251       2.71251       1.00000    2349.94678       0.64900       0.66499    2368.19824    2426.55835       1.05000    3831.44971       0.07462       9.38650       7.90016      10.27695       8.64962 
   3649.50000       3.88148       4.05736       3.48574      22.12319      12.18642      12.20840      12.16445       0.05075       0.51129       0.14282       0.04742       0.43350    1582.05823       0.26131       0.29190       2.74631       2.74631       1.00000    2379.03760       0.65880       0.67922    2404.29932    2478.81250       1.05000    3831.97485       0.10415       9.38467       8.04921      10.48338       8.99157 
   3650.00000       3.86188       4.04718       3.45671      23.85576      12.19331      12.21023      12.17638       0.02320       0.52720       0.14555       0.04542       0.43350    1582.27502       0.26297       0.29566       2.76333       2.76333       1.00000    2404.80322       0.66126       0.68311    2413.59399    2493.36938       1.05000    3832.49976       0.12385       9.32778       8.04164      10.48755       9.04150 
   3650.50000       3.81557       3.99524       3.40014      23.54634      12.19427      12.21813      12.17042       0.02453       0.55479       0.14972       0.04858       0.43350    1582.49170       0.25943       0.29097       2.76494       2.76494       1.00000    2395.89453       0.65684       0.67787    2397.78833    2474.57056       1.05000    3833.02490       0.13400       9.19730       7.86492      10.31551       8.82113 
   3651.00000       3.74935       3.91389       3.31399      27.60964      12.18578      12.21308      12.15848       0.04476       0.57825       0.15581       0.05095       0.43350    1582.70850       0.25579       0.28463       2.75770       2.75770       1.00000    2426.86230       0.65198       0.67116    2380.38696    2450.39893       1.05000    3833.54980       0.12479       9.03685       7.68038      10.05577       8.54635 
   3651.50000       3.68357       3.81607       3.29982      31.86753      12.18181      12.22579      12.13783       0.12817       0.60444       0.16354       0.05361       0.43350    1582.92517       0.25738       0.28111       2.74553       2.74553       1.00000    2404.64136       0.65264       0.66840    2383.10083    2440.66772       1.05000    3834.07471       0.10167       8.95245       7.55602       9.77757       8.25243 
   3652.00000       3.62900       3.74566       3.24961      36.53291      12.18146      12.23180      12.13111       0.26502       0.62976       0.17074       0.05579       0.43350    1583.14197       0.25962       0.28100       2.73269       2.73270       1.00000    2391.00000       0.65467       0.66888    2390.83740    2442.76807       1.05000    3834.59985       0.08105       8.86616       7.44047       9.59640       8.05328 
   3652.50000       3.58875       3.73081       3.24208      37.76852      12.18163      12.23277      12.13049       0.40065       0.64317       0.17736       0.05927       0.43350    1583.35876       0.25617       0.28218       2.72381       2.72381       1.00000    2374.17676       0.65177       0.66905    2380.60571    2443.72021       1.05000    3835.12476       0.07497       8.68549       7.22205       9.56711       7.95512 
   3653.00000       3.58968       3.75394       3.24702      39.18115      12.18144      12.23203      12.13085       0.28505       0.68041       0.18525       0.05692       0.43350    1583.57544       0.25192       0.28146       2.72515       2.72514       1.00000    2385.64819       0.64771       0.66732    2366.09302    2437.70532       1.05000    3835.64990       0.08240       8.61120       7.20500       9.62107       8.04996 
