~Version Information
VERS  .          2.0                              :CWLS Log Ascii Standard - Version 2.0
WRAP  .          NO                               :One line per depth step
~Well Information Block
#MNEM.UNIT       Data Type                        Information
#---------       ---------                        -------------------------------
STRT  .F         1820.00000                       :START DEPTH
STOP  .F         5250.00000                       :STOP DEPTH
STEP  .F          0.50000                         :INCREMENT
NULL  .          -999.25                          :NULL DATA VALUE
COMP  .          ADM COMPANY                      :COMPANY
WELL  .          VERIFICATION WELL 1              :WELL
FLD   .          WILDCAT                          :FIELD
LOC   .                                           :LOCATION
PROV  .                                           :PROVINCE
STAT  .                                           :STATE
CNTY  .                                           :COUNTY
CTRY  .                                           :COUNTRY
DATE  .                                           :DATE
UWI   .          VERIFICATION WELL 1              :UNIQUE WELL UWI
LIC   .                                           :LICENSE NUMBER
API   .                                           :API NUMBER
SRVC  .                                           :SERVICE COMPANY
~Parameter Information Block
#MNEM.UNIT       Value                            Description
#---------       ---------                        -------------
LONG  .DEG       -88.893356                       :Well Surface Location
LATI  .DEG       39.879810                        :Well Surface Location
XWELL .DEG       -88.893356                       :X-coordinate of Well Head
YWELL .DEG       39.879810                        :Y-coordinate of Well Head
PDAT  .          GROUND LEVEL                     :Permanent Datum               
EPD   .ft        669.00                           :Elevation of Permanent Datum (PDAT) above Mean Sea Level
LMF   .          KELLY BUSHING                    :Logging Measured From (Name of Working Datum)
APD   .ft        15.00                            :Elevation of Working Datum (LMF) Above Permanent Datum
EDF   .ft        683.00                           :Elevation of Derrick Floor Above Mean Sea Level
EGL   .ft        669.00                           :Elevation of Ground Level Above Mean Sea Level
EKB   .ft        684.00                           :Elevation of Kelly Bushing Above Mean Sea Level
~Curve Information Block
#MNEM.UNIT       API Code            Curve    Description
#--------        --------------      -----    -------------------
DEPT  .F                             :0       Index
C44_BH.6PSI                          :1       C44 Referred to the Borehole Axis in a Deviated Well
C55_BH.6PSI                          :2       C55 Referred to the Borehole Axis in a Deviated Well
C66_BH.6PSI                          :3       C66 Referred to the Borehole Axis in a Deviated Well
GR_EDTC.GAPI                          :4       Gamma Ray                     
HD1_PPC1.IN                            :5       PPC1 Hole Diameter 1          
HD1_PPC1.IN                            :6       PPC1 Hole Diameter 1          
HD2_PPC1.IN                            :7       PPC1 Hole Diameter 2          
KINT  .MD                            :8       Intrinsic Permeability        
MAXXENE_OVERALL.                              :9       Overall estimate of maximum cross energy
MINXENE_OVERALL.                              :10      Overall estimate of minimum cross energy
PHIT  .V/V                           :11      Total Porosity_ includes all forms of porosity, including that occupied by bound fluids, and is independent of rock and fluid materials and of environmental effects
PPGI  .PS/F                          :12      Pore Pressure Gradient        
PPRS  .PSI                           :13      Pore Pressure                 
PR_HORIZ_SSA_FSA_DYN.                              :14      Dynamic Horizontal Poissons Ratio - Loading Slow Shear Azimuth - Displacement Fast Shear Azimuth
PR_VERT_FSA_DYN.                              :15      Dynamic Vertical Poissons Ratio - Loading Vertical - Displacement Fast Shear Aximuth
RHOZ  .G/C3                          :16      HRDD Standard Resolution Formation Density
RHOZ  .G/C3                          :17      HRDD Standard Resolution Formation Density
SUWI  .V/V                           :18      Non-Clay Water Intergranular Water Saturation for Undisturbed Zone
TENS  .LBF                           :19      Cable Tension                 
TXSG  .PS/F                          :20      Total Minimum Horizontal Stress Gradient
TXSG  .PS/F                          :21      Total Minimum Horizontal Stress Gradient
TXSP  .PSI                           :22      Total Minimum Horizontal Stress - Sigma X
TXSP  .PSI                           :23      Total Minimum Horizontal Stress - Sigma X
TZSG  .PS/F                          :24      Total Vertical Stress Gradient
TZSP  .PSI                           :25      Total Vertical Stress - Sigma Z
VCL   .V/V                           :26      Volume of Clay Type Material Relative to Total Volume
YME_HORIZ_SSA_DYN.6PSI                          :27      Dynamic Horizontal Youngs Modulus in the Slow Shear Azimuth Direction
YME_HORIZ_SSA_STA.6PSI                          :28      Static Horizontal Youngs Modulus in the Slow Shear Azimuth Direction
YME_VERT_DYN.6PSI                          :29      Dynamic Vertical Youngs Modulus
YME_VERT_STA.6PSI                          :30      Static Vertical Youngs Modulus
~Ascii Data Section
# ...
   4784.00000       5.08294       5.04441       4.93023      34.05929      12.37971      12.48712      12.27230       0.01000       1.31038       0.37912       0.00696       0.43350    2073.86401       0.29770       0.29770       2.85195       2.85195       1.00000    2620.42847       0.69483       0.69483    3324.07300    3324.07300       1.05000    5023.19971       0.04393      13.02683      12.33794      13.02683      12.33794 
   4784.50000       5.09808       5.04199       4.99163      35.42640      12.37936      12.47955      12.27918       0.01000       1.26000       0.37130       0.00659       0.43350    2074.08081       0.29518       0.29518       2.85066       2.85066       1.00000    2554.28564       0.69169       0.69169    3309.41064    3309.41064       1.05000    5023.72461       0.04097      13.06554      12.38529      13.06554      12.38529 
   4785.00000       5.09106       5.03086       5.06807      33.43358      12.39311      12.47955      12.30668       0.01000       1.22949       0.36667       0.00546       0.43350    2074.29736       0.29361       0.29361       2.84184       2.84184       1.00000    2550.28564       0.68975       0.68975    3300.44995    3300.44995       1.05000    5024.25000       0.03280      13.09996      12.45063      13.09996      12.45063 
   4785.50000       5.03447       4.99077       4.96889      31.59664      12.38761      12.47198      12.30324       0.01000       1.21059       0.36263       0.00851       0.43350    2074.51416       0.29527       0.29527       2.81431       2.81431       1.00000    2615.57153       0.69180       0.69180    3310.62622    3310.62622       1.05000    5024.77490       0.05375      12.94763      12.21858      12.94763      12.21858 
   4786.00000       5.00199       4.96883       4.96593      30.43371      12.39469      12.46895      12.32042       0.01000       1.19561       0.35764       0.01075       0.43350    2074.73096       0.29457       0.29457       2.79802       2.79802       1.00000    2634.14282       0.69093       0.69093    3306.81006    3306.81006       1.05000    5025.29980       0.05668      12.89110      12.10141      12.89110      12.10141 
   4786.50000       5.04975       4.99437       5.00589      29.69341      12.39640      12.46895      12.32385       0.01000       1.17701       0.35304       0.01063       0.43350    2074.94775       0.29350       0.29350       2.81268       2.81268       1.00000    2642.00000       0.68961       0.68961    3300.81787    3300.81787       1.05000    5025.82471       0.06571      12.97811      12.18653      12.97811      12.18653 
   4787.00000       5.11637       5.03108       5.03934      30.63923      12.39758      12.43707      12.35809       0.01000       1.14903       0.34860       0.00921       0.43350    2075.16455       0.29443       0.29443       2.83612       2.83612       1.00000    2681.42847       0.69077       0.69077    3306.70483    3306.70483       1.05000    5026.34961       0.05819      13.10554      12.34732      13.10554      12.34732 
   4787.50000       5.17136       5.07319       5.05690      32.96022      12.38488      12.43975      12.33001       0.01000       1.10971       0.34588       0.00990       0.43350    2075.38110       0.29744       0.29744       2.85885       2.85885       1.00000    2688.57153       0.69450       0.69450    3324.93652    3324.93652       1.05000    5026.87500       0.06251      13.23513      12.44923      13.23513      12.44923 
   4788.00000       5.21761       5.11545       5.02047      31.94375      12.37113      12.43975      12.30251       0.01000       1.07187       0.34851       0.01142       0.43350    2075.59790       0.30029       0.30029       2.87291       2.87291       1.00000    2658.00000       0.69808       0.69808    3342.40210    3342.40210       1.05000    5027.39990       0.07212      13.30936      12.47434      13.30936      12.47434 
   4788.50000       5.24842       5.14559       5.02321      29.73608      12.38076      12.43796      12.32355       0.01000       1.03702       0.35468       0.01229       0.43350    2075.81470       0.30026       0.30026       2.87771       2.87771       1.00000    2661.42847       0.69804       0.69804    3342.58472    3342.58472       1.05000    5027.92480       0.07767      13.36428      12.50012      13.36428      12.50012 
   4789.00000       5.22784       5.12788       4.95046      27.32749      12.37165      12.43662      12.30668       0.01000       1.00372       0.36168       0.01330       0.43350    2076.03149       0.28269       0.29699       2.86560       2.86560       1.00000    2636.00000       0.68026       0.68988    3257.75024    3303.82227       1.05000    5028.44971       0.08401      12.90818      12.04470      13.56090      12.65375 
   4789.50000       5.18181       5.09231       4.85952      27.14826      12.35324      12.42730      12.27918       0.01000       0.97682       0.37103       0.01367       0.43350    2076.24829       0.28434       0.29731       2.84897       2.84897       1.00000    2665.42847       0.68191       0.69065    3266.02832    3307.84766       1.05000    5028.97461       0.08637      12.85847      11.98780      13.44480      12.53443 
   4790.00000       5.17785       5.10179       4.84444      27.24851      12.35676      12.42575      12.28778       0.01000       0.95568       0.38351       0.01564       0.43350    2076.46484       0.28655       0.29764       2.85340       2.85340       1.00000    2670.00000       0.68411       0.69158    3276.89600    3312.68945       1.05000    5029.50000       0.09881      12.93736      12.00502      13.43794      12.46952 
   4790.50000       5.18819       5.11054       4.80335      27.39484      12.34771      12.41726      12.27815       0.01000       0.92445       0.39604       0.01917       0.43350    2076.68164       0.28614       0.29742       2.85654       2.85654       1.00000    2689.19995       0.68366       0.69126    3275.08179    3311.49707       1.05000    5030.02490       0.12114      12.95191      11.91747      13.46253      12.38731 
   4791.00000       5.18283       5.09919       4.97471      27.87285      12.34550      12.40040      12.29061       0.01000       0.88174       0.40611       0.02238       0.43350    2076.89844       0.29845       0.29845       2.84821       2.84821       1.00000    2701.80005       0.69577       0.69577    3333.44238    3333.44238       1.05000    5030.54980       0.14146      13.20676      12.05827      13.20676      12.05827 
   4791.50000       5.15256       5.08741       5.15635      28.67927      12.34602      12.39180      12.30023       0.01000       0.84450       0.41327       0.02341       0.43350    2077.11523       0.29360       0.29360       2.83527       2.83527       1.00000    2683.00000       0.68974       0.68974    3304.86963    3304.86963       1.05000    5031.07471       0.14797      13.27779      12.09290      13.27779      12.09290 
   4792.00000       5.11125       5.08614       5.16474      29.99520      12.34793      12.39366      12.30220       0.01000       0.81692       0.41703       0.02066       0.43350    2077.33203       0.29267       0.29267       2.82484       2.82484       1.00000    2645.00000       0.68859       0.68859    3299.71069    3299.71069       1.05000    5031.59961       0.13057      13.23878      12.13784      13.23878      12.13784 
   4792.50000       5.05921       5.07133       5.09008      32.18611      12.35274      12.39366      12.31183       0.01000       0.80970       0.42086       0.01738       0.43350    2077.54883       0.29389       0.29389       2.81043       2.81043       1.00000    2637.00000       0.69009       0.69009    3307.26855    3307.26855       1.05000    5032.12500       0.10985      13.12920      12.13254      13.12920      12.13254 
   4793.00000       5.01783       5.04730       4.99760      31.89347      12.35331      12.38517      12.32145       0.01000       0.81852       0.42313       0.01395       0.43350    2077.76538       0.29605       0.29605       2.79973       2.79973       1.00000    2655.39990       0.69278       0.69278    3320.48682    3320.48682       1.05000    5032.64990       0.08814      13.01474      12.12544      13.01474      12.12544 
