~Version Information
VERS  .          2.0                              :CWLS Log Ascii Standard - Version 2.0
WRAP  .          NO                               :One line per depth step
~Well Information Block
#MNEM.UNIT       Data Type                        Information
#---------       ---------                        -------------------------------
STRT  .F         5250.00000                       :START DEPTH
STOP  .F         7202.00000                       :STOP DEPTH
STEP  .F          0.50000                         :INCREMENT
NULL  .          -999.25                          :NULL DATA VALUE
COMP  .          ADM COMPANY                      :COMPANY
WELL  .          VERIFICATION WELL 1 Run 2        :WELL
FLD   .          WILDCAT                          :FIELD
LOC   .                                           :LOCATION
PROV  .                                           :PROVINCE
STAT  .                                           :STATE
CNTY  .                                           :COUNTY
CTRY  .                                           :COUNTRY
DATE  .                                           :DATE
UWI   .          VERIFICATION WELL 1 Run 2        :UNIQUE WELL UWI
LIC   .                                           :LICENSE NUMBER
API   .          121152346000                     :API NUMBER
SRVC  .                                           :SERVICE COMPANY
~Parameter Information Block
#MNEM.UNIT       Value                            Description
#---------       ---------                        -------------
LONG  .DEG       -88.893356                       :Well Surface Location
LATI  .DEG       39.879810                        :Well Surface Location
XWELL .DEG       -88.893356                       :X-coordinate of Well Head
YWELL .DEG       39.879810                        :Y-coordinate of Well Head
PDAT  .          GROUND LEVEL                     :Permanent Datum               
EPD   .ft        669.00                           :Elevation of Permanent Datum (PDAT) above Mean Sea Level
LMF   .          KELLY BUSHING                    :Logging Measured From (Name of Working Datum)
APD   .ft        15.00                            :Elevation of Working Datum (LMF) Above Permanent Datum
EDF   .ft        683.00                           :Elevation of Derrick Floor Above Mean Sea Level
EGL   .ft        669.00                           :Elevation of Ground Level Above Mean Sea Level
EKB   .ft        684.00                           :Elevation of Kelly Bushing Above Mean Sea Level
~Curve Information Block
#MNEM.UNIT       API Code            Curve    Description
#--------        --------------      -----    -------------------
DEPT  .F                             :0       Index
C44_BH.6PSI                          :1       C44 Referred to the Borehole Axis in a Deviated Well
C55_BH.6PSI                          :2       C55 Referred to the Borehole Axis in a Deviated Well
C66_BH.6PSI                          :3       C66 Referred to the Borehole Axis in a Deviated Well
GR_EDTC.GAPI                          :4       Gamma Ray                     
HD1_PPC1.IN                            :5       PPC1 Hole Diameter 1          
HD1_PPC1.IN                            :6       PPC1 Hole Diameter 1          
HD2_PPC1.IN                            :7       PPC1 Hole Diameter 2          
KINT  .MD                            :8       Intrinsic Permeability        
MAXXENE_OVERALL.                              :9       Overall estimate of maximum cross energy
MINXENE_OVERALL.                              :10      Overall estimate of minimum cross energy
PHIT  .V/V                           :11      Total Porosity_ includes all forms of porosity, including that occupied by bound fluids, and is independent of rock and fluid materials and of environmental effects
PPGI  .PS/F                          :12      Pore Pressure Gradient        
PPRS  .PSI                           :13      Pore Pressure                 
PR_HORIZ_FSA_SSA_DYN.                              :14      Dynamic Horizontal Poissons Ratio - Loading Fast Shear Azimuth - Displacement Slow Shear Aximuth
PR_VERT_FSA_DYN.                              :15      Dynamic Vertical Poissons Ratio - Loading Vertical - Displacement Fast Shear Aximuth
RHOZ  .G/C3                          :16      HRDD Standard Resolution Formation Density
SUWI  .V/V                           :17      Non-Clay Water Intergranular Water Saturation for Undisturbed Zone
TENS  .LBF                           :18      Cable Tension                 
TXSG  .PS/F                          :19      Total Minimum Horizontal Stress Gradient
TXSG  .PS/F                          :20      Total Minimum Horizontal Stress Gradient
TXSP  .PSI                           :21      Total Minimum Horizontal Stress - Sigma X
TXSP  .PSI                           :22      Total Minimum Horizontal Stress - Sigma X
TZSG  .PS/F                          :23      Total Vertical Stress Gradient
TZSP  .PSI                           :24      Total Vertical Stress - Sigma Z
VCL   .V/V                           :25      Volume of Clay Type Material Relative to Total Volume
YME_HORIZ_SSA_DYN.6PSI                          :26      Dynamic Horizontal Youngs Modulus in the Slow Shear Azimuth Direction
YME_HORIZ_SSA_STA.6PSI                          :27      Static Horizontal Youngs Modulus in the Slow Shear Azimuth Direction
YME_VERT_DYN.6PSI                          :28      Dynamic Vertical Youngs Modulus
YME_VERT_STA.6PSI                          :29      Static Vertical Youngs Modulus
~Ascii Data Section
# ...
   6280.00000       3.24592       2.99634       3.37023      59.18757       8.44126       8.40797       8.47455       4.38670       3.84391       0.53774       0.08176       0.43350    2722.37988       0.17064       0.17837       2.50311       1.00000    3299.43750       0.57806       0.56273    3630.21899    3533.96118       1.05000    6593.99951       0.07283       7.89064       6.16892       7.23717       5.65804 
   6280.50000       3.27816       3.04344       3.48786      48.25561       8.44703       8.41951       8.47455       2.71048       4.06028       0.49457       0.07814       0.43350    2722.59668       0.17322       0.18617       2.50729       1.00000    3248.52930       0.58993       0.56408    3705.07397    3542.68530       1.05000    6594.52490       0.08349       8.18407       6.46380       7.26259       5.73601 
   6281.00000       3.31410       3.08426       3.56853      48.25401       8.44483       8.41935       8.47032       2.77346       4.25436       0.46951       0.07958       0.43350    2722.81348       0.17613       0.19235       2.50495       1.00000    3267.50000       0.59840       0.56703    3758.55688    3561.51880       1.05000    6595.04980       0.08170       8.39410       6.60297       7.32695       5.76352 
   6281.50000       3.35053       3.12565       3.56078      54.25105       8.45416       8.40797       8.50035       3.15111       4.35154       0.46845       0.07582       0.43350    2723.03027       0.18361       0.19783       2.50944       1.00000    3289.37500       0.60127       0.57534    3776.87109    3614.02832       1.05000    6595.57471       0.06571       8.42912       6.70057       7.50582       5.96660 
   6282.00000       3.37260       3.16598       3.58730      72.18291       8.48411       8.44208       8.52614       3.49428       4.41327       0.46288       0.07195       0.43350    2723.24707       0.19145       0.20696       2.51779       1.00000    3293.17651       0.61046       0.58399    3834.93604    3668.63013       1.05000    6596.09961       0.05360       8.54818       6.86832       7.62238       6.12445 
   6282.50000       3.37766       3.18611       3.57282      85.83969       8.49053       8.44208       8.53898       3.30391       4.44078       0.45784       0.06831       0.43350    2723.46362       0.19315       0.20729       2.52820       1.00000    3284.82349       0.60937       0.58531    3828.39014    3677.21753       1.05000    6596.62451       0.05448       8.52581       6.91893       7.67819       6.23107 
   6283.00000       3.37168       3.17781       3.52365      91.69724       8.48896       8.46462       8.51330       3.50841       4.45985       0.46608       0.07155       0.43350    2723.68042       0.18520       0.19543       2.52368       1.00000    3283.43750       0.59495       0.57621    3738.04272    3620.31177       1.05000    6597.14990       0.06517       8.35250       6.71848       7.64993       6.15335 
   6283.50000       3.35569       3.14640       3.48647      88.04060       8.51833       8.51051       8.52614       6.89630       4.50488       0.49443       0.08258       0.43350    2723.89722       0.17528       0.18341       2.51035       1.00000    3279.88232       0.58229       0.56617    3658.82959    3557.50635       1.05000    6597.67480       0.06328       8.19513       6.39212       7.55146       5.89006 
   6284.00000       3.32971       3.10912       3.46885      81.97169       8.50693       8.48771       8.52614      13.85859       4.55079       0.52820       0.09454       0.43350    2724.11401       0.17475       0.18343       2.49766       1.00000    3305.75000       0.58301       0.56586    3663.64404    3555.84180       1.05000    6598.19971       0.05467       8.15008       6.14155       7.46964       5.62880 
   6284.50000       3.30142       3.09174       3.47294      73.63256       8.51911       8.49925       8.53898      17.58970       4.57272       0.53963       0.09559       0.43350    2724.33081       0.18418       0.19578       2.50060       1.00000    3278.05884       0.59688       0.57574    3751.11792    3618.20972       1.05000    6598.72461       0.04403       8.22518       6.17906       7.44812       5.59530 
   6285.00000       3.28185       3.09078       3.48592      73.53810       8.52890       8.50847       8.54933       9.68792       4.57596       0.53371       0.08633       0.43350    2724.54736       0.19335       0.20833       2.50995       1.00000    3281.81177       0.61127       0.58611    3841.82983    3683.69043       1.05000    6599.24951       0.04972       8.31984       6.42044       7.45156       5.75039 
   6285.50000       3.27026       3.09090       3.49578      76.06644       8.55145       8.49694       8.60597       5.90416       4.60291       0.52264       0.07995       0.43350    2724.76416       0.19836       0.21572       2.51705       1.00000    3308.45312       0.62009       0.59229    3897.60059    3722.81934       1.05000    6599.77490       0.05822       8.37839       6.58376       7.44911       5.85353 
   6286.00000       3.26501       3.09100       3.49663      78.94494       8.54425       8.48771       8.60079       3.63767       4.66318       0.50819       0.07443       0.43350    2724.98096       0.20033       0.21849       2.52197       1.00000    3328.43530       0.62331       0.59475    3918.13184    3738.61523       1.05000    6600.29980       0.06860       8.39421       6.69860       7.44932       5.94458 
   6286.50000       3.27611       3.09867       3.43114      78.86485       8.51562       8.49227       8.53898       2.70970       4.72446       0.49320       0.06981       0.43350    2725.19775       0.20078       0.21282       2.53226       1.00000    3322.87720       0.61276       0.59364    3852.11646    3731.94873       1.05000    6600.82471       0.07010       8.24010       6.65975       7.54602       6.09879 
   6287.00000       3.29098       3.09787       3.39332      71.48122       8.52474       8.51051       8.53898       2.62119       4.74881       0.49585       0.06950       0.43350    2725.41455       0.19657       0.20447       2.53653       1.00000    3283.56250       0.60140       0.58878    3780.98657    3701.65625       1.05000    6601.34961       0.06969       8.12069       6.56881       7.58870       6.13849 
   6287.50000       3.25942       3.07490       3.34923      61.12934       8.53449       8.51973       8.54924       3.08054       4.75610       0.50290       0.07340       0.43350    2725.63110       0.19429       0.20114       2.52858       1.00000    3272.38330       0.59723       0.58616    3755.11230    3685.48926       1.05000    6601.87451       0.06762       7.99988       6.40214       7.51961       6.01778 
   6288.00000       3.21688       3.04110       3.33282      55.85898       8.54465       8.52204       8.56727       3.60865       4.78730       0.49415       0.07615       0.43350    2725.84790       0.19262       0.20109       2.51492       1.00000    3308.01025       0.59862       0.58433    3764.13965    3674.25049       1.05000    6602.39990       0.06415       7.94953       6.31353       7.39242       5.87107 
   6288.50000       3.17341       3.00868       3.31693      55.30458       8.54497       8.51753       8.57240       3.19960       4.87160       0.48289       0.07599       0.43350    2726.06470       0.19271       0.20308       2.50511       1.00000    3329.77490       0.60213       0.58443    3786.47681    3675.19531       1.05000    6602.92480       0.06989       7.91229       6.28675       7.27681       5.78182 
   6289.00000       3.12632       2.97522       3.24114      58.47576       8.54012       8.51303       8.56722       3.69533       5.04315       0.47693       0.07890       0.43350    2726.28149       0.19518       0.20368       2.49684       1.00000    3321.19995       0.60089       0.58673    3778.96851    3689.92578       1.05000    6603.44971       0.07269       7.74752       6.10600       7.22157       5.69148 
   6289.50000       3.07744       2.94030       3.19810      63.75725       8.54981       8.52204       8.57758       4.07576       5.21414       0.47818       0.08260       0.43350    2726.49829       0.19888       0.20803       2.48958       1.00000    3310.00024       0.60547       0.59059    3808.11108    3714.54395       1.05000    6603.97461       0.07927       7.66826       5.98083       7.13830       5.56748 
