~Version Information
VERS  .          2.0                              :CWLS Log Ascii Standard - Version 2.0
WRAP  .          NO                               :One line per depth step
~Well Information Block
#MNEM.UNIT       Data Type                        Information
#---------       ---------                        -------------------------------
STRT  .F         1820.00000                       :START DEPTH
STOP  .F         5250.00000                       :STOP DEPTH
STEP  .F          0.50000                         :INCREMENT
NULL  .          -999.25                          :NULL DATA VALUE
COMP  .          ADM COMPANY                      :COMPANY
WELL  .          VERIFICATION WELL 1              :WELL
FLD   .          WILDCAT                          :FIELD
LOC   .                                           :LOCATION
PROV  .                                           :PROVINCE
STAT  .                                           :STATE
CNTY  .                                           :COUNTY
CTRY  .                                           :COUNTRY
DATE  .                                           :DATE
UWI   .          VERIFICATION WELL 1              :UNIQUE WELL UWI
LIC   .                                           :LICENSE NUMBER
API   .                                           :API NUMBER
SRVC  .                                           :SERVICE COMPANY
~Parameter Information Block
#MNEM.UNIT       Value                            Description
#---------       ---------                        -------------
LONG  .DEG       -88.893356                       :Well Surface Location
LATI  .DEG       39.879810                        :Well Surface Location
XWELL .DEG       -88.893356                       :X-coordinate of Well Head
YWELL .DEG       39.879810                        :Y-coordinate of Well Head
PDAT  .          GROUND LEVEL                     :Permanent Datum               
EPD   .ft        669.00                           :Elevation of Permanent Datum (PDAT) above Mean Sea Level
LMF   .          KELLY BUSHING                    :Logging Measured From (Name of Working Datum)
APD   .ft        15.00                            :Elevation of Working Datum (LMF) Above Permanent Datum
EDF   .ft        683.00                           :Elevation of Derrick Floor Above Mean Sea Level
EGL   .ft        669.00                           :Elevation of Ground Level Above Mean Sea Level
EKB   .ft        684.00                           :Elevation of Kelly Bushing Above Mean Sea Level
~Curve Information Block
#MNEM.UNIT       API Code            Curve    Description
#--------        --------------      -----    -------------------
DEPT  .F                             :0       Index
C44_BH.6PSI                          :1       C44 Referred to the Borehole Axis in a Deviated Well
C55_BH.6PSI                          :2       C55 Referred to the Borehole Axis in a Deviated Well
C66_BH.6PSI                          :3       C66 Referred to the Borehole Axis in a Deviated Well
GR_EDTC.GAPI                          :4       Gamma Ray                     
HD1_PPC1.IN                            :5       PPC1 Hole Diameter 1          
HD1_PPC1.IN                            :6       PPC1 Hole Diameter 1          
HD2_PPC1.IN                            :7       PPC1 Hole Diameter 2          
KINT  .MD                            :8       Intrinsic Permeability        
MAXXENE_OVERALL.                              :9       Overall estimate of maximum cross energy
MINXENE_OVERALL.                              :10      Overall estimate of minimum cross energy
PHIT  .V/V                           :11      Total Porosity_ includes all forms of porosity, including that occupied by bound fluids, and is independent of rock and fluid materials and of environmental effects
PPGI  .PS/F                          :12      Pore Pressure Gradient        
PPRS  .PSI                           :13      Pore Pressure                 
PR_HORIZ_SSA_FSA_DYN.                              :14      Dynamic Horizontal Poissons Ratio - Loading Slow Shear Azimuth - Displacement Fast Shear Azimuth
PR_VERT_FSA_DYN.                              :15      Dynamic Vertical Poissons Ratio - Loading Vertical - Displacement Fast Shear Aximuth
RHOZ  .G/C3                          :16      HRDD Standard Resolution Formation Density
RHOZ  .G/C3                          :17      HRDD Standard Resolution Formation Density
SUWI  .V/V                           :18      Non-Clay Water Intergranular Water Saturation for Undisturbed Zone
TENS  .LBF                           :19      Cable Tension                 
TXSG  .PS/F                          :20      Total Minimum Horizontal Stress Gradient
TXSG  .PS/F                          :21      Total Minimum Horizontal Stress Gradient
TXSP  .PSI                           :22      Total Minimum Horizontal Stress - Sigma X
TXSP  .PSI                           :23      Total Minimum Horizontal Stress - Sigma X
TZSG  .PS/F                          :24      Total Vertical Stress Gradient
TZSP  .PSI                           :25      Total Vertical Stress - Sigma Z
VCL   .V/V                           :26      Volume of Clay Type Material Relative to Total Volume
YME_HORIZ_SSA_DYN.6PSI                          :27      Dynamic Horizontal Youngs Modulus in the Slow Shear Azimuth Direction
YME_HORIZ_SSA_STA.6PSI                          :28      Static Horizontal Youngs Modulus in the Slow Shear Azimuth Direction
YME_VERT_DYN.6PSI                          :29      Dynamic Vertical Youngs Modulus
YME_VERT_STA.6PSI                          :30      Static Vertical Youngs Modulus
~Ascii Data Section
# ...
   2504.00000       3.62265       3.81330       3.24808      25.61033      12.21605      12.26480      12.16729       0.01000       0.32297       0.09113       0.01516       0.43350    1085.48401       0.28101       0.32005       2.71526       2.71526       1.00000    2176.00000       0.68479       0.71124    1714.71094    1780.94006       1.05000    2629.19995       0.04111       8.83936       8.21172      10.06751       9.35267 
   2504.50000       3.63950       3.83389       3.20923      24.50597      12.22030      12.27246      12.16814       0.01000       0.32122       0.09181       0.01309       0.43350    1085.70068       0.28505       0.32540       2.71911       2.71911       1.00000    2175.00000       0.69023       0.71765    1728.67419    1797.35754       1.05000    2629.72485       0.03462       8.90248       8.31109      10.16290       9.48778 
   2505.00000       3.67145       3.85270       3.15249      22.49314      12.21059      12.25390      12.16729       0.01000       0.32365       0.09306       0.01153       0.43350    1085.91748       0.28941       0.32734       2.72554       2.72553       1.00000    2173.00000       0.69511       0.72094    1741.24377    1805.94678       1.05000    2630.25000       0.03181       9.04260       8.47308      10.22766       9.58350 
   2505.50000       3.70656       3.87896       3.06051      20.48209      12.22030      12.27246      12.16814       0.01000       0.32662       0.09433       0.00954       0.43350    1086.13428       0.29040       0.32623       2.73859       2.73859       1.00000    2167.00000       0.69578       0.72018    1743.28455    1804.41492       1.05000    2630.77490       0.03094       9.15883       8.62227      10.28875       9.68599 
   2506.00000       3.72470       3.88433       2.99055      19.93361      12.21044      12.26480      12.15608       0.01000       0.32532       0.09490       0.01153       0.43350    1086.35095       0.28877       0.32148       2.73921       2.73921       1.00000    2187.00000       0.69284       0.71507    1736.24768    1791.95325       1.05000    2631.29980       0.02928       9.22160       8.64080      10.26614       9.61955 
   2506.50000       3.73740       3.88531       2.97223      23.00325      12.21605      12.26480      12.16729       0.01000       0.32023       0.09532       0.01538       0.43350    1086.56775       0.28541       0.31512       2.74075       2.74075       1.00000    2151.00000       0.68777       0.70789    1723.88782    1774.33093       1.05000    2631.82495       0.02708       9.25582       8.59410      10.21925       9.48866 
   2507.00000       3.72889       3.87434       3.00233      23.74083      12.21002      12.26480      12.15524       0.01000       0.32025       0.09587       0.01701       0.43350    1086.78442       0.28335       0.31235       2.73542       2.73542       1.00000    2167.00000       0.68500       0.70462    1717.30676    1766.49304       1.05000    2632.34985       0.02808       9.22463       8.53192      10.16900       9.40537 
   2507.50000       3.72432       3.87208       2.99578      24.10648      12.22102      12.26183      12.18020       0.01000       0.32356       0.09513       0.01448       0.43350    1087.00122       0.28460       0.31428       2.73400       2.73400       1.00000    2168.00000       0.68675       0.70685    1722.02917    1772.41724       1.05000    2632.87500       0.02955       9.21682       8.57623      10.17800       9.47061 
   2508.00000       3.73656       3.87306       2.97049      19.57297      12.22179      12.27544      12.16814       0.01000       0.32090       0.09411       0.01099       0.43350    1087.21802       0.29222       0.32041       2.73303       2.73303       1.00000    2157.00000       0.69595       0.71513    1745.45215    1793.54553       1.05000    2633.39990       0.02922       9.32816       8.75178      10.22809       9.59610 
   2508.50000       3.77835       3.88626       2.96834      19.93233      12.21605      12.26480      12.16729       0.01000       0.31553       0.09445       0.00693       0.43350    1087.43469       0.30106       0.32382       2.74119       2.74119       1.00000    2141.00000       0.70575       0.72130    1770.36218    1809.37122       1.05000    2633.92480       0.02695       9.56607       9.06083      10.28943       9.74598 
   2509.00000       3.80238       3.89126       2.97157      18.65772      12.21499      12.26183      12.16814       0.01000       0.31628       0.09443       0.00565       0.43350    1087.65149       0.30365       0.32242       2.74308       2.74308       1.00000    2166.00000       0.70793       0.72076    1776.18494    1808.37439       1.05000    2634.44995       0.03021       9.69256       9.20806      10.29180       9.77734 
   2509.50000       3.78952       3.89285       3.01296      22.68338      12.21499      12.26183      12.16814       0.01000       0.32316       0.09336       0.00627       0.43350    1087.86829       0.29899       0.32053       2.74000       2.74000       1.00000    2160.00000       0.70271       0.71740    1763.45984    1800.30518       1.05000    2634.97485       0.03464       9.59054       9.09800      10.28125       9.75323 
   2510.00000       3.76135       3.88715       3.03094      21.76927      12.21429      12.27246      12.15611       0.01000       0.32658       0.09286       0.00761       0.43350    1088.08496       0.29442       0.32042       2.73100       2.73100       1.00000    2139.00000       0.69814       0.71584    1752.32080    1796.75183       1.05000    2635.50000       0.03920       9.43228       8.91993      10.26537       9.70777 
   2510.50000       3.76017       3.89254       3.12321      22.82482      12.22137      12.27544      12.16729       0.01000       0.32657       0.09264       0.00843       0.43350    1088.30176       0.29281       0.32002       2.73287       2.73287       1.00000    2188.00000       0.69642       0.71493    1748.36121    1794.83252       1.05000    2636.02490       0.03979       9.40261       8.87483      10.27645       9.69962 
   2511.00000       3.76874       3.90742       3.19248      19.51568      12.21499      12.26183      12.16814       0.01000       0.32678       0.09244       0.00990       0.43350    1088.51843       0.29109       0.31935       2.74357       2.74357       1.00000    2144.00000       0.69453       0.71374    1743.97559    1792.21240       1.05000    2636.54980       0.04293       9.39803       8.83998      10.31053       9.69829 
   2511.50000       3.76067       3.91968       3.19491      19.51568      12.21533      12.27544      12.15521       0.01000       0.32797       0.09283       0.01062       0.43350    1088.73523       0.28617       0.31807       2.75079       2.75080       1.00000    2164.00000       0.68932       0.71096    1731.23291    1785.56592       1.05000    2637.07495       0.04936       9.29657       8.72974      10.33279       9.70279 
   2512.00000       3.72159       3.89759       3.17962      20.72511      12.21605      12.26480      12.16729       0.01000       0.33434       0.09359       0.01297       0.43350    1088.95203       0.28414       0.31961       2.73499       2.73499       1.00000    2164.00000       0.68775       0.71180    1727.62634    1788.03345       1.05000    2637.59985       0.04901       9.14515       8.54006      10.28656       9.60595 
   2512.50000       3.70992       3.87994       3.13891      19.82561      12.21534      12.27544      12.15524       0.01000       0.33810       0.09389       0.01311       0.43350    1089.16870       0.28850       0.32350       2.72667       2.72667       1.00000    2154.00000       0.69313       0.71692    1741.47900    1801.26782       1.05000    2638.12500       0.03840       9.15909       8.55024      10.27015       9.58745 
   2513.00000       3.72503       3.87478       3.16516      20.18514      12.20895      12.26183      12.15608       0.01000       0.34255       0.09432       0.01062       0.43350    1089.38550       0.29552       0.32705       2.72706       2.72706       1.00000    2165.00000       0.70114       0.72265    1761.95508    1816.03015       1.05000    2638.64990       0.02861       9.29255       8.72597      10.28403       9.65699 
