# LAS format log file from PETREL
# Project units are specified as depth units
#==================================================================
~Version information
VERS.   2.0:
WRAP.   NO:
#==================================================================
~Well
STRT .ft      5008.0000000          :
STOP .ft      7272.0000000          :
STEP .ft      0.50000000            :
NULL .        -999.250000           :
COMP.                               : COMPANY
WELL.         VW1                   : WELL
FLD.                                : FIELD
LOC.                                : LOCATION
SRVC.                               : SERVICE COMPANY
DATE.         2020-07-27 11:17:52   : Log Export Date {yyyy-MM-dd HH:mm:ss}
PROV.                               : PROVINCE
UWI.          121152346000          : UNIQUE WELL ID
API.          121152346000          : API NUMBER
#==================================================================
~Curve
DEPT .ft                   : DEPTH
RLA2 .ohm.m               : RLA2
RLA3 .ohm.m               : RLA3
RLA4 .ohm.m               : RLA4
RLA5 .ohm.m               : RLA5
HCAL .in                  : HCAL
HTNP .ft3/ft3             : HTNP
PEFZ .b/e                 : PEFZ
RHOZ .g/cm3               : RHOZ
RXOZ .ohm.m               : RXOZ
REFL ._                   : REFL
REFL1 ._                  : REFL 1
DTCO .us/ft               : DTCO
DTSM .us/ft               : DTSM
~Parameter
#==================================================================
~Ascii
# ...
 5448.0000000 7.4546899796 7.3729400635 6.7125601768 6.7078499794 8.6709403992 0.1548800021 3.3835000992 2.4952399731 17.493190765  -999.250000  -999.250000 74.560791016 144.72279358
 5448.5000000 7.2747201920 6.9768710136 6.4247097969 6.4426188469 8.7004299164 0.1698800027 3.4238998890 2.5167000294 8.0514888763  -999.250000  -999.250000 74.518676758 145.78700256
 5449.0000000 6.3705101013 6.0956201553 6.2449002266 6.0743088722 8.8552703857 0.1779199988 3.4547901154 2.5424499512 8.0612487793  -999.250000  -999.250000 75.173950195 146.11450195
 5449.5000000 6.7528100014 6.5904102325 6.5047698021 6.1419610977 8.7004299164 0.1843799949 3.3983800411 2.5492100716 8.9612607956  -999.250000  -999.250000 75.002243042 146.03450012
 5450.0000000 7.2564501762 7.2954301834 6.9347400665 6.8482789993 8.7004299164 0.1611800045 3.4045300484 2.5427498817 19.700830460  -999.250000  -999.250000 74.888313293 145.40319824
 5450.5000000 8.2757396698 8.4912395477 8.0695295334 8.1217393875 8.7004299164 0.1404899955 3.4907200336 2.5590500832 21.814340591  -999.250000  -999.250000 74.400939941 144.61279297
 5451.0000000 10.498970032 11.572219849 10.844260216 11.608519554 8.7151803970 0.1191499978 3.5944900513 2.5803101063 23.586879730  -999.250000  -999.250000 73.825996399 144.19160461
 5451.5000000 12.404140472 12.982580185 12.233200073 12.408989906 8.7004299164 0.1206400022 3.6001000404 2.5909399986 24.067359924  -999.250000  -999.250000 73.219451904 144.29620361
 5452.0000000 11.944789886 13.771140099 13.260680199 13.817629814 8.7114896774 0.1178100035 3.5744199753 2.5879099369 23.058359146  -999.250000  -999.250000 72.776542664 145.08859253
 5452.5000000 12.851960182 14.094960213 13.435750008 14.106860161 8.7004299164 0.1208000034 3.4835200310 2.5933899879 23.822069168  -999.250000  -999.250000 73.192420959 146.42309570
 5453.0000000 13.777480125 14.806719780 14.117239952 14.861240387 8.7225503922 0.1283999979 3.4566700459 2.5947198868 25.247440338  -999.250000  -999.250000 73.308746338 148.16639709
 5453.5000000 14.150710106 15.631939888 14.950300217 15.562859535 8.7299299240 0.1375100017 3.5022399426 2.5902700424 13.381509781  -999.250000  -999.250000 74.196586609 149.41789246
 5454.0000000 15.548640251 16.148220062 15.294839859 15.950920105 8.7815399170 0.1491599977 3.6086099148 2.6123800278 7.7740402222  -999.250000  -999.250000 75.838890076 152.46580505
 5454.5000000 14.657659531 14.579290390 14.774069786 15.425410271 9.1317596436 0.1647700071 3.6383399963 2.6321499348 5.9461898804  -999.250000  -999.250000 76.239097595 155.09660339
 5455.0000000 14.300109863 14.974499702 13.674900055 14.920860291 9.4672298431 0.1703500003 3.5275800228 2.6529099941 7.2653899193  -999.250000  -999.250000 76.709770203 157.11320496
 5455.5000000 13.501040459 14.128589630 12.532150269 12.570670128 9.4745998383 0.1696600020 3.4259300232 2.6300699711 10.893360138  -999.250000  -999.250000 77.151443481 157.59590149
 5456.0000000 13.765089989 14.831009865 12.711389542 14.526189804 8.9437398911 0.1746599972 3.3993999958 2.6087400913 15.001190186  -999.250000  -999.250000 77.049896240 157.61790466
 5456.5000000 15.056389809 16.487819672 15.256580353 15.865830421 9.0469703674 0.1800500005 3.4403300285 2.6180100441 15.685759544  -999.250000  -999.250000 77.026580811 157.12449646
 5457.0000000 11.160759926 12.210749626 12.724840164 13.190620422 9.2202301025 0.1871999949 3.4573800564 2.6394400597 7.2179698944  -999.250000  -999.250000 77.302597046 156.25709534
 5457.5000000 9.3989601135 10.785340309 10.287210464 10.981010437 9.3640098572 0.1789000034 3.4312000275 2.6840600967 6.8878297806  -999.250000  -999.250000 77.263969421 155.50740051
 5458.0000000 11.276370049 12.694410324 11.314279556 10.665479660 8.8700103760 0.1676999927 3.3854799271 2.6756200790 7.9131398201  -999.250000  -999.250000 78.041328430 155.41000366
 5458.5000000 12.743260384 13.487589836 12.248929977 12.302650452 8.9068803787 0.1530900002 3.3111300468 2.6929800510 19.306570053  -999.250000  -999.250000 78.804786682 156.41299438
 5459.0000000 12.849080086 13.715629578 13.162899971 12.871820450 9.1428203583 0.1612699926 3.2386200428 2.6456899643 8.7284097672  -999.250000  -999.250000 79.433036804 158.33030701
 5459.5000000 13.808930397 13.095060349 11.451319695 11.562580109 9.5630798340 0.1850399971 3.1999800205 2.6301798820 5.4966897964  -999.250000  -999.250000 80.357513428 160.56530762
 5460.0000000 13.065389633 14.298839569 11.608139992 11.609029770 10.234020233 0.2059700042 3.2376799583 2.5585401058 4.2519497871  -999.250000  -999.250000 80.744422913 164.27709961
 5460.5000000 13.760250092 14.243479729 11.778659821 11.758009911 10.326180458 0.2199299932 3.3187499046 2.5396199226 4.1405410767  -999.250000  -999.250000 81.527038574 166.63310242
 5461.0000000 13.583709717 13.700630188 11.647720337 11.898349762 10.632160187 0.2218800038 3.4020800591 2.5588901043 4.6418800354  -999.250000  -999.250000 82.368980408 167.47850037
 5461.5000000 13.370140076 13.276659966 10.903240204 11.997850418 11.008179665 0.2258899957 3.4422900677 2.6096799374 5.5560197830  -999.250000  -999.250000 82.269050598 167.61700439
 5462.0000000 13.007880211 13.029800415 11.482439995 13.169810295 9.5114698410 0.2270500064 3.4477601051 2.6332499981 6.8133702278  -999.250000  -999.250000 82.110260010 167.29899597
 5462.5000000 12.710929871 13.148579597 12.032420158 14.101750374 9.8616800308 0.2235399932 3.4263699055 2.5721700191 6.3983998299  -999.250000  -999.250000 81.568397522 166.69239807
 5463.0000000 11.937350273 11.223770142 10.395959854 11.373209953 9.8653697968 0.2244399935 3.4471099377 2.5475499630 6.1307501793  -999.250000  -999.250000 81.360496521 166.30430603
 5463.5000000 11.691690445 11.381999969 10.901430130 11.224590302 8.9216299057 0.2354100049 3.4743700027 2.5742499828 8.4569988251  -999.250000  -999.250000 81.011718750 165.85049438
 5464.0000000 14.857749939 15.139579773 14.410200119 13.743459702 8.9216299057 0.2237599939 3.4435200691 2.6594700813 7.3907299042  -999.250000  -999.250000 81.042022705 165.87699890
 5464.5000000 13.338859558 13.179630280 12.557990074 11.701330185 9.8837995529 0.2256000042 3.3277099133 2.6944899559 5.3816399574  -999.250000  -999.250000 81.209548950 164.76969910
 5465.0000000 13.684709549 12.143489838 10.887709618 10.860389709 10.270879745 0.2429299951 3.2085399628 2.6447999477 3.5586500168  -999.250000  -999.250000 81.349952698 163.98379517
 5465.5000000 11.514430046 12.156089783 10.734479904 10.790550232 10.635849953 0.2491299957 3.1525800228 2.5914599895 4.0117101669  -999.250000  -999.250000 81.433723450 164.77619934
 5466.0000000 12.209540367 14.086999893 11.173469543 11.774239540 10.315119743 0.2424400002 3.1538798809 2.5608000755 5.1458501816  -999.250000  -999.250000 81.739883423 166.55209351
 5466.5000000 13.950249672 15.142609596 12.273389816 12.997559547 9.4008703232 0.2354599983 3.1901400089 2.5987899303 5.5128688812  -999.250000  -999.250000 81.937461853 170.52839661
 5467.0000000 13.264659882 14.584500313 12.020939827 12.626660347 9.9059200287 0.2350399941 3.2775900364 2.6445400715 5.3683300018  -999.250000  -999.250000 82.297149658 171.49899292
 5467.5000000 13.230569839 13.246109962 10.118189812 10.802570343 9.9169797897 0.2357800007 3.4069099426 2.6632900238 5.8129701614  -999.250000  -999.250000 82.786750793 171.54209900
 5468.0000000 12.778599739 12.361220360 8.6742000580 9.5377006531 10.038640022 0.2319799960 3.5176498890 2.6603500843 7.9299597740  -999.250000  -999.250000 83.548240662 170.22219849
 5468.5000000 12.549420357 12.279060364 9.0580101013 9.5562200546 10.130800247 0.2330099940 3.5775101185 2.6511399746 7.3862400055  -999.250000  -999.250000 82.667297363 167.58340454
 5469.0000000 12.885869980 14.616450310 11.007180214 10.464260101 10.746439934 0.2125000060 3.5919799805 2.6321001053 7.1135401726  -999.250000  -999.250000 81.894889832 167.95179749
 5469.5000000 10.105050087 12.676600456 11.519439697 9.7352504730 10.845979691 0.2214799970 3.6020801067 2.6096599102 4.7418298721  -999.250000  -999.250000 83.573883057 169.46659851
