~Version Information
VERS  .          2.0                              :CWLS Log Ascii Standard - Version 2.0
WRAP  .          NO                               :One line per depth step
~Well Information Block
#MNEM.UNIT       Data Type                        Information
#---------       ---------                        -------------------------------
STRT  .F         5250.00000                       :START DEPTH
STOP  .F         7202.00000                       :STOP DEPTH
STEP  .F          0.50000                         :INCREMENT
NULL  .          -999.25                          :NULL DATA VALUE
COMP  .          ADM COMPANY                      :COMPANY
WELL  .          VERIFICATION WELL 1 Run 2        :WELL
FLD   .          WILDCAT                          :FIELD
LOC   .                                           :LOCATION
PROV  .                                           :PROVINCE
STAT  .                                           :STATE
CNTY  .                                           :COUNTY
CTRY  .                                           :COUNTRY
DATE  .                                           :DATE
UWI   .          VERIFICATION WELL 1 Run 2        :UNIQUE WELL UWI
LIC   .                                           :LICENSE NUMBER
API   .          121152346000                     :API NUMBER
SRVC  .                                           :SERVICE COMPANY
~Parameter Information Block
#MNEM.UNIT       Value                            Description
#---------       ---------                        -------------
LONG  .DEG       -88.893356                       :Well Surface Location
LATI  .DEG       39.879810                        :Well Surface Location
XWELL .DEG       -88.893356                       :X-coordinate of Well Head
YWELL .DEG       39.879810                        :Y-coordinate of Well Head
PDAT  .          GROUND LEVEL                     :Permanent Datum               
EPD   .ft        669.00                           :Elevation of Permanent Datum (PDAT) above Mean Sea Level
LMF   .          KELLY BUSHING                    :Logging Measured From (Name of Working Datum)
APD   .ft        15.00                            :Elevation of Working Datum (LMF) Above Permanent Datum
EDF   .ft        683.00                           :Elevation of Derrick Floor Above Mean Sea Level
EGL   .ft        669.00                           :Elevation of Ground Level Above Mean Sea Level
EKB   .ft        684.00                           :Elevation of Kelly Bushing Above Mean Sea Level
~Curve Information Block
#MNEM.UNIT       API Code            Curve    Description
#--------        --------------      -----    -------------------
DEPT  .F                             :0       Index
C44_BH.6PSI                          :1       C44 Referred to the Borehole Axis in a Deviated Well
C55_BH.6PSI                          :2       C55 Referred to the Borehole Axis in a Deviated Well
C66_BH.6PSI                          :3       C66 Referred to the Borehole Axis in a Deviated Well
GR_EDTC.GAPI                          :4       Gamma Ray                     
HD1_PPC1.IN                            :5       PPC1 Hole Diameter 1          
HD1_PPC1.IN                            :6       PPC1 Hole Diameter 1          
HD2_PPC1.IN                            :7       PPC1 Hole Diameter 2          
KINT  .MD                            :8       Intrinsic Permeability        
MAXXENE_OVERALL.                              :9       Overall estimate of maximum cross energy
MINXENE_OVERALL.                              :10      Overall estimate of minimum cross energy
PHIT  .V/V                           :11      Total Porosity_ includes all forms of porosity, including that occupied by bound fluids, and is independent of rock and fluid materials and of environmental effects
PPGI  .PS/F                          :12      Pore Pressure Gradient        
PPRS  .PSI                           :13      Pore Pressure                 
PR_HORIZ_FSA_SSA_DYN.                              :14      Dynamic Horizontal Poissons Ratio - Loading Fast Shear Azimuth - Displacement Slow Shear Aximuth
PR_VERT_FSA_DYN.                              :15      Dynamic Vertical Poissons Ratio - Loading Vertical - Displacement Fast Shear Aximuth
RHOZ  .G/C3                          :16      HRDD Standard Resolution Formation Density
SUWI  .V/V                           :17      Non-Clay Water Intergranular Water Saturation for Undisturbed Zone
TENS  .LBF                           :18      Cable Tension                 
TXSG  .PS/F                          :19      Total Minimum Horizontal Stress Gradient
TXSG  .PS/F                          :20      Total Minimum Horizontal Stress Gradient
TXSP  .PSI                           :21      Total Minimum Horizontal Stress - Sigma X
TXSP  .PSI                           :22      Total Minimum Horizontal Stress - Sigma X
TZSG  .PS/F                          :23      Total Vertical Stress Gradient
TZSP  .PSI                           :24      Total Vertical Stress - Sigma Z
VCL   .V/V                           :25      Volume of Clay Type Material Relative to Total Volume
YME_HORIZ_SSA_DYN.6PSI                          :26      Dynamic Horizontal Youngs Modulus in the Slow Shear Azimuth Direction
YME_HORIZ_SSA_STA.6PSI                          :27      Static Horizontal Youngs Modulus in the Slow Shear Azimuth Direction
YME_VERT_DYN.6PSI                          :28      Dynamic Vertical Youngs Modulus
YME_VERT_STA.6PSI                          :29      Static Vertical Youngs Modulus
~Ascii Data Section
# ...
   6540.00000       2.89945       2.76167       3.09933      34.21441       8.38655       8.36389       8.40921      40.09011       2.19476       0.64916       0.11586       0.43350    2835.08984       0.19510       0.21011       2.46932       1.00000    3327.81787       0.61314       0.58849    4009.92480    3848.74463       1.05000    6866.99951       0.01694       7.40799       5.23329       6.63639       4.68820 
   6540.50000       3.00206       2.88324       3.32162      37.04652       8.39188       8.37383       8.40993      11.06568       2.20244       0.54143       0.09740       0.43350    2835.30664       0.20436       0.23164       2.50527       1.00000    3409.00024       0.64315       0.60375    4206.54688    3948.83569       1.05000    6867.52490       0.04305       8.00085       5.97852       6.84966       5.11831 
   6541.00000       3.10152       2.95643       3.49589      43.44363       8.36890       8.37383       8.36397       3.52088       2.26869       0.48878       0.08205       0.43350    2835.52344       0.20201       0.23675       2.52934       1.00000    3452.45117       0.65385       0.60523    4276.83838    3958.77905       1.05000    6868.04980       0.06582       8.40416       6.56501       6.97584       5.44925 
   6541.50000       3.22204       3.00722       3.55143      49.49937       8.36547       8.38281       8.34812       1.62483       2.32432       0.47099       0.07288       0.43350    2835.74023       0.19813       0.22526       2.53940       1.00000    3486.24854       0.63779       0.59717    4172.08057    3906.40527       1.05000    6868.57471       0.08221       8.51014       6.82027       7.21471       5.78207 
   6542.00000       3.29801       3.04061       3.60425      51.14484       8.36193       8.36997       8.35389       2.24224       2.43028       0.47441       0.07465       0.43350    2835.95703       0.19072       0.21411       2.52803       1.00000    3450.54907       0.62478       0.58702    4087.31152    3840.29419       1.05000    6869.09961       0.07500       8.58331       6.84532       7.31905       5.83706 
   6542.50000       3.33574       3.08716       3.68698      48.01399       8.36219       8.36857       8.35581       4.72498       2.53017       0.47446       0.08061       0.43350    2836.17358       0.18432       0.20980       2.52461       1.00000    3386.58838       0.62247       0.57916    4072.50244    3789.16211       1.05000    6869.62451       0.05727       8.73314       6.84979       7.32828       5.74789 
   6543.00000       3.32327       3.10415       3.70194      42.55030       8.35171       8.35339       8.35004      12.10517       2.45564       0.44177       0.09128       0.43350    2836.39038       0.17833       0.20423       2.50788       1.00000    3312.43970       0.61759       0.57090    4040.90625    3735.41724       1.05000    6870.14990       0.03505       8.72424       6.63707       7.26198       5.52464 
   6543.50000       3.30768       3.10633       3.64608      39.43322       8.33474       8.32425       8.34523      12.04359       2.33016       0.39826       0.09417       0.43350    2836.60718       0.17185       0.19291       2.49699       1.00000    3287.79663       0.60314       0.56142    3946.66309    3673.63745       1.05000    6870.67480       0.03712       8.54533       6.44638       7.23403       5.45717 
   6544.00000       3.29340       3.09418       3.44980      40.12009       8.33233       8.31654       8.34812       8.37669       2.25437       0.37239       0.09228       0.43350    2836.82397       0.16510       0.17380       2.48898       1.00000    3346.16992       0.57435       0.55506    3758.53760    3632.34326       1.05000    6871.19971       0.04792       8.03872       6.09779       7.32462       5.55610 
   6544.50000       3.30597       3.08759       3.38836      39.32296       8.33999       8.32033       8.35965       5.49184       2.16361       0.34611       0.08575       0.43350    2837.04077       0.16353       0.16838       2.49842       1.00000    3361.13745       0.56579       0.55563    3702.82324    3636.33960       1.05000    6871.72461       0.06465       7.88495       6.09494       7.39691       5.71769 
   6545.00000       3.29471       3.06342       3.41081      42.26253       8.36090       8.35070       8.37110       3.23420       2.04692       0.30519       0.07727       0.43350    2837.25757       0.17431       0.18171       2.50980       1.00000    3301.52954       0.58039       0.56608    3798.68359    3704.99365       1.05000    6872.24951       0.07367       8.01071       6.34229       7.39868       5.85772 
   6545.50000       3.23355       3.00768       3.41411      48.16236       8.36025       8.36227       8.35822       3.73448       2.01956       0.28057       0.07894       0.43350    2837.47412       0.18849       0.20144       2.51223       1.00000    3240.06274       0.60367       0.58141    3951.32129    3805.59399       1.05000    6872.77490       0.07275       8.11531       6.39515       7.29807       5.75113 
   6546.00000       3.16734       2.95902       3.40217      53.34152       8.36668       8.36227       8.37110       5.86344       2.11028       0.28430       0.08728       0.43350    2837.69092       0.19534       0.21343       2.50345       1.00000    3250.47046       0.61927       0.59032    4053.74634    3864.20972       1.05000    6873.29980       0.06260       8.13354       6.25959       7.15948       5.50995 
   6546.50000       3.14295       2.93395       3.41003      56.62054       8.36602       8.37383       8.35822      11.96474       2.20481       0.28944       0.09950       0.43350    2837.90771       0.19567       0.21662       2.49289       1.00000    3356.00024       0.62478       0.59185    4090.14990    3874.56128       1.05000    6873.82471       0.05235       8.15458       6.05555       7.07808       5.25615 
   6547.00000       3.14628       2.94069       3.44293      52.06020       8.37239       8.37356       8.37121      13.54943       2.25357       0.29263       0.10359       0.43350    2838.12451       0.19516       0.21857       2.49489       1.00000    3355.00024       0.62865       0.59207    4115.73975    3876.27612       1.05000    6874.34961       0.04942       8.22973       6.03696       7.06079       5.17948 
   6547.50000       3.18925       2.95056       3.43895      50.49659       8.34316       8.32810       8.35822      14.09147       2.22665       0.29659       0.09882       0.43350    2838.34131       0.19334       0.21255       2.50241       1.00000    3451.00000       0.61981       0.58902    4058.19507    3856.61011       1.05000    6874.87451       0.03865       8.20769       6.10733       7.15633       5.32501 
   6548.00000       3.19396       2.94511       3.29699      48.94334       8.34881       8.33941       8.35822      13.60544       2.04565       0.28228       0.09549       0.43350    2838.55786       0.19485       0.20318       2.50487       1.00000    3451.66675       0.60147       0.58877    3938.43677    3855.26025       1.05000    6875.39990       0.03084       7.87878       5.92057       7.29722       5.48355 
   6548.50000       3.17740       2.89812       3.11438      47.74804       8.34316       8.32810       8.35822      14.64093       1.90718       0.27526       0.09568       0.43350    2838.77466       0.19378       0.19174       2.50149       1.00000    3413.05884       0.58126       0.58903    3806.38599    3857.26880       1.05000    6875.92480       0.02706       7.43579       5.58456       7.37856       5.54158 
   6549.00000       3.10424       2.82630       2.99037      40.10592       8.33738       8.31654       8.35822       8.93352       1.94384       0.29449       0.09177       0.43350    2838.99146       0.20150       0.19628       2.50075       1.00000    3450.47070       0.58268       0.59672    3815.95190    3907.90015       1.05000    6876.44971       0.04810       7.18589       5.45897       7.29982       5.54552 
   6549.50000       3.02389       2.73983       2.94976      36.86118       8.34652       8.33916       8.35388       6.23829       2.03501       0.32060       0.08740       0.43350    2839.20825       0.20645       0.20358       2.50138       1.00000    3389.35303       0.59226       0.60141    3879.03613    3938.90356       1.05000    6876.97461       0.06882       7.11746       5.47573       7.09046       5.45495 
