# LAS format log file from PETREL
# Project units are specified as depth units
#==================================================================
~Version information
VERS.   2.0:
WRAP.   NO:
#==================================================================
~Well
STRT .ft      5008.0000000          :
STOP .ft      7272.0000000          :
STEP .ft      0.50000000            :
NULL .        -999.250000           :
COMP.                               : COMPANY
WELL.         VW1                   : WELL
FLD.                                : FIELD
LOC.                                : LOCATION
SRVC.                               : SERVICE COMPANY
DATE.         2020-07-27 11:17:52   : Log Export Date {yyyy-MM-dd HH:mm:ss}
PROV.                               : PROVINCE
UWI.          121152346000          : UNIQUE WELL ID
API.          121152346000          : API NUMBER
#==================================================================
~Curve
DEPT .ft                   : DEPTH
RLA2 .ohm.m               : RLA2
RLA3 .ohm.m               : RLA3
RLA4 .ohm.m               : RLA4
RLA5 .ohm.m               : RLA5
HCAL .in                  : HCAL
HTNP .ft3/ft3             : HTNP
PEFZ .b/e                 : PEFZ
RHOZ .g/cm3               : RHOZ
RXOZ .ohm.m               : RXOZ
REFL ._                   : REFL
REFL1 ._                  : REFL 1
DTCO .us/ft               : DTCO
DTSM .us/ft               : DTSM
~Parameter
#==================================================================
~Ascii
# ...
 6658.0000000 3.2322099209 2.7888400555 2.4015700817 2.8723299503 8.5234804153 0.1185199991 2.2281799316 2.4278099537 17.677219391  -999.250000  -999.250000 71.727752686 122.97059631
 6658.5000000 3.8690099716 3.1319799423 2.6241099834 3.3418200016 8.4571304321 0.1109500006 2.2377200127 2.4419999123 15.765049934  -999.250000  -999.250000 70.374992371 120.78949738
 6659.0000000 3.9154100418 3.2503800392 2.6960599422 3.5792400837 8.4239501953 0.0990599990 2.2133600712 2.4656200409 14.687439919  -999.250000  -999.250000 69.548316956 119.15100098
 6659.5000000 3.6080501080 2.9498100281 2.4392399788 3.2069699764 8.4350099564 0.0938799977 2.2116999626 2.4673099518 14.945469856  -999.250000  -999.250000 69.472007751 118.79119873
 6660.0000000 3.6525299549 2.8230800629 2.2716200352 2.8736600876 8.4460697174 0.1022600010 2.1691000462 2.4604599476 13.741319656  -999.250000  -999.250000 69.522308350 119.23960114
 6660.5000000 3.8731501102 2.8386499882 2.1525700092 2.5501101017 8.4128904343 0.1140900031 2.1544799805 2.4381799698 13.201539993  -999.250000  -999.250000 70.251022339 120.83290100
 6661.0000000 2.8841500282 2.2129199505 1.7643500566 1.9215699434 8.4202604294 0.1260599941 2.1098101139 2.4172799587 10.790949821  -999.250000  -999.250000 71.720550537 123.42800140
 6661.5000000 2.1598999500 1.6939799786 1.3790999651 1.4533200264 8.3981399536 0.1453599930 2.0883901119 2.3825800419 8.9574689865  -999.250000  -999.250000 72.795433044 127.06040192
 6662.0000000 1.9323500395 1.5432800055 1.2716499567 1.2950500250 8.3907699585 0.1630100012 2.0694301128 2.3482298851 7.3546800613  -999.250000  -999.250000 73.797248840 130.97740173
 6662.5000000 1.9053900242 1.4935400486 1.2166899443 1.1845799685 8.3686504364 0.1705300063 2.0610699654 2.3260099888 6.9323801994  -999.250000  -999.250000 76.349029541 134.61570740
 6663.0000000 1.8004300594 1.4289100170 1.1674100161 1.1363899708 8.3465299606 0.1746799946 2.0622899532 2.3186900616 6.6492199898  -999.250000  -999.250000 78.612373352 137.57460022
 6663.5000000 1.6671600342 1.3344000578 1.1026099920 1.0606399775 8.3465299606 0.1792200059 2.0947399139 2.3125300407 6.2251710892  -999.250000  -999.250000 78.715812683 138.62019348
 6664.0000000 1.5996700525 1.3087799549 1.1014100313 1.0582300425 8.3465299606 0.1790699959 2.1204900742 2.3131999969 6.1801099777  -999.250000  -999.250000 77.883712769 139.64999390
 6664.5000000 1.6757199764 1.3928699493 1.1631100178 1.1178200245 8.3465299606 0.1660500020 2.1354200840 2.3202300072 6.5418910980  -999.250000  -999.250000 77.568862915 139.31700134
 6665.0000000 1.7864700556 1.4803600311 1.2370799780 1.1984399557 8.3465299606 0.1528799981 2.1265499592 2.3388800621 6.9935097694  -999.250000  -999.250000 77.112716675 138.00419617
 6665.5000000 1.8509800434 1.5839799643 1.3216999769 1.3020600080 8.3575897217 0.1382900029 2.1209199429 2.3665299416 7.8947010040  -999.250000  -999.250000 75.569320679 136.26730347
 6666.0000000 1.9734899998 1.6884800196 1.3957500458 1.4083000422 8.3797101974 0.1287000030 2.1232600212 2.3959100246 9.3149414063  -999.250000  -999.250000 74.763732910 134.70350647
 6666.5000000 2.1257600784 1.7705800533 1.4368100166 1.4816900492 8.3907699585 0.1279900074 2.1529300213 2.4059600830 10.537480354  -999.250000  -999.250000 74.494003296 133.81770325
 6667.0000000 2.0481400490 1.7258000374 1.3828799725 1.4464299679 8.4018297195 0.1362999976 2.1918599606 2.3952600956 11.255009651  -999.250000  -999.250000 74.746063232 133.98100281
 6667.5000000 1.8868299723 1.5568799973 1.2505099773 1.3135999441 8.3907699585 0.1431200057 2.1994299889 2.3808400631 10.103859901  -999.250000  -999.250000 74.782836914 135.04719543
 6668.0000000 1.8591599464 1.5025899410 1.1656800508 1.2273299694 8.3575897217 0.1487099975 2.1775000095 2.3668000698 11.844099998  -999.250000  -999.250000 74.946273804 136.59390259
 6668.5000000 1.7457200289 1.3999899626 1.1013000011 1.1635799408 8.3760204315 0.1595399976 2.1851699352 2.3537199497 8.5274400711  -999.250000  -999.250000 75.018180847 138.03849792
 6669.0000000 1.4894100428 1.2102500200 0.9767199755 0.9649699926 8.3391599655 0.1748600006 2.2635200024 2.3365600109 6.0016789436  -999.250000  -999.250000 75.836448669 138.93479919
 6669.5000000 1.3171800375 1.0708999634 0.8800699711 0.8458600044 8.3096704483 0.2143899947 2.3710100651 2.3394999504 4.8186798096  -999.250000  -999.250000 76.162193298 139.60189819
 6670.0000000 1.2860100269 1.0343099833 0.8480799794 0.7964900136 8.2728004456 0.2469200045 2.4335498810 2.3310899734 4.9473800659  -999.250000  -999.250000 76.450462341 140.47920227
 6670.5000000 1.2385699749 1.0024700165 0.8259099722 0.7617800236 8.2359399796 0.2488799989 2.3570499420 2.3194699287 4.9256701469  -999.250000  -999.250000 78.151611328 141.47599792
 6671.0000000 1.1636400223 0.9685900211 0.8135700226 0.7359700203 8.2285604477 0.2291000038 2.2395200729 2.2950301170 4.6084399223  -999.250000  -999.250000 79.786903381 142.40139771
 6671.5000000 1.1131500006 0.9570699930 0.8097199798 0.7379299998 8.2469902039 0.1991699934 2.1121699810 2.2890999317 4.8874998093  -999.250000  -999.250000 80.872177124 143.15809631
 6672.0000000 1.1613700390 1.0052800179 0.8574900031 0.7841500044 8.2469902039 0.1737399995 2.0457301140 2.2896399498 4.6523499489  -999.250000  -999.250000 81.601577759 144.05160522
 6672.5000000 1.3420000076 1.1450899839 0.9588299990 0.8799899817 8.2027597427 0.1662700027 1.9821100235 2.2900700569 5.3780798912  -999.250000  -999.250000 81.781349182 144.97479248
 6673.0000000 1.4682300091 1.2398699522 1.0440000296 0.9805799723 8.2691097260 0.1694400012 1.9347000122 2.2927699089 5.1987900734  -999.250000  -999.250000 82.186233521 145.33529663
 6673.5000000 1.4475300312 1.2781300545 1.1129300594 1.0834499598 8.2064399719 0.1706199944 1.9223400354 2.2991600037 6.2538399696  -999.250000  -999.250000 81.952941895 144.91520691
 6674.0000000 1.4791100025 1.3296400309 1.1677199602 1.1895799637 8.2285604477 0.1685699970 1.9460099936 2.3173899651 6.0418400764  -999.250000  -999.250000 80.608306885 142.80560303
 6674.5000000 1.8344000578 1.6276700497 1.3902699947 1.4717400074 8.2285604477 0.1546899974 1.9785699844 2.3545999527 8.1697187424  -999.250000  -999.250000 79.321823120 139.64939880
 6675.0000000 2.3953700066 2.0158801079 1.6795899868 1.8609199524 8.2359399796 0.1290300041 2.0291199684 2.4140300751 11.890740395  -999.250000  -999.250000 78.710762024 138.06709290
 6675.5000000 3.0134398937 2.4021298885 1.9243799448 2.2253398895 8.2580499649 0.1058600023 2.0636999607 2.4590098858 16.521739960  -999.250000  -999.250000 77.582962036 134.86289978
 6676.0000000 3.0710101128 2.4183900356 1.9452500343 2.2848498821 8.2433099747 0.1089200005 2.1015000343 2.4670999050 19.639600754  -999.250000  -999.250000 74.390937805 130.53700256
 6676.5000000 3.0806999207 2.3637499809 1.8805299997 2.1581799984 8.2506799698 0.1272300035 2.1029400826 2.4337499142 18.074539185  -999.250000  -999.250000 73.904190063 127.20880127
 6677.0000000 3.1060600281 2.3489398956 1.8524800539 2.0443100929 8.2728004456 0.1442999989 2.0699100494 2.3952798843 15.814829826  -999.250000  -999.250000 74.005180359 126.12989807
 6677.5000000 2.6858201027 2.0479600430 1.6259800196 1.7107100487 8.2211904526 0.1563699991 2.0011100769 2.3615400791 10.813630104  -999.250000  -999.250000 74.031417847 126.99629974
 6678.0000000 2.2119500637 1.7295999527 1.3820500374 1.3979400396 8.2211904526 0.1665000021 1.9438199997 2.3324499130 7.8597788811  -999.250000  -999.250000 74.520782471 129.43179321
 6678.5000000 1.9488999844 1.5477000475 1.2631599903 1.2407399416 8.2580499649 0.1711499989 1.9381699562 2.3056099415 6.4211602211  -999.250000  -999.250000 77.112289429 132.61810303
 6679.0000000 1.8551800251 1.4838000536 1.2052400112 1.1578600407 8.2469902039 0.1764100045 1.9715299606 2.2901999950 6.2944898605  -999.250000  -999.250000 79.639373779 135.46319580
 6679.5000000 1.7620799541 1.4273699522 1.1651699543 1.1049000025 8.2469902039 0.1732099950 2.0071198940 2.2946100235 6.4280099869  -999.250000  -999.250000 79.816177368 137.63400269
