~Version Information
VERS  .          2.0                              :CWLS Log Ascii Standard - Version 2.0
WRAP  .          NO                               :One line per depth step
~Well Information Block
#MNEM.UNIT       Data Type                        Information
#---------       ---------                        -------------------------------
STRT  .F         5250.00000                       :START DEPTH
STOP  .F         7202.00000                       :STOP DEPTH
STEP  .F          0.50000                         :INCREMENT
NULL  .          -999.25                          :NULL DATA VALUE
COMP  .          ADM COMPANY                      :COMPANY
WELL  .          VERIFICATION WELL 1 Run 2        :WELL
FLD   .          WILDCAT                          :FIELD
LOC   .                                           :LOCATION
PROV  .                                           :PROVINCE
STAT  .                                           :STATE
CNTY  .                                           :COUNTY
CTRY  .                                           :COUNTRY
DATE  .                                           :DATE
UWI   .          VERIFICATION WELL 1 Run 2        :UNIQUE WELL UWI
LIC   .                                           :LICENSE NUMBER
API   .          121152346000                     :API NUMBER
SRVC  .                                           :SERVICE COMPANY
~Parameter Information Block
#MNEM.UNIT       Value                            Description
#---------       ---------                        -------------
LONG  .DEG       -88.893356                       :Well Surface Location
LATI  .DEG       39.879810                        :Well Surface Location
XWELL .DEG       -88.893356                       :X-coordinate of Well Head
YWELL .DEG       39.879810                        :Y-coordinate of Well Head
PDAT  .          GROUND LEVEL                     :Permanent Datum               
EPD   .ft        669.00                           :Elevation of Permanent Datum (PDAT) above Mean Sea Level
LMF   .          KELLY BUSHING                    :Logging Measured From (Name of Working Datum)
APD   .ft        15.00                            :Elevation of Working Datum (LMF) Above Permanent Datum
EDF   .ft        683.00                           :Elevation of Derrick Floor Above Mean Sea Level
EGL   .ft        669.00                           :Elevation of Ground Level Above Mean Sea Level
EKB   .ft        684.00                           :Elevation of Kelly Bushing Above Mean Sea Level
~Curve Information Block
#MNEM.UNIT       API Code            Curve    Description
#--------        --------------      -----    -------------------
DEPT  .F                             :0       Index
C44_BH.6PSI                          :1       C44 Referred to the Borehole Axis in a Deviated Well
C55_BH.6PSI                          :2       C55 Referred to the Borehole Axis in a Deviated Well
C66_BH.6PSI                          :3       C66 Referred to the Borehole Axis in a Deviated Well
GR_EDTC.GAPI                          :4       Gamma Ray                     
HD1_PPC1.IN                            :5       PPC1 Hole Diameter 1          
HD1_PPC1.IN                            :6       PPC1 Hole Diameter 1          
HD2_PPC1.IN                            :7       PPC1 Hole Diameter 2          
KINT  .MD                            :8       Intrinsic Permeability        
MAXXENE_OVERALL.                              :9       Overall estimate of maximum cross energy
MINXENE_OVERALL.                              :10      Overall estimate of minimum cross energy
PHIT  .V/V                           :11      Total Porosity_ includes all forms of porosity, including that occupied by bound fluids, and is independent of rock and fluid materials and of environmental effects
PPGI  .PS/F                          :12      Pore Pressure Gradient        
PPRS  .PSI                           :13      Pore Pressure                 
PR_HORIZ_FSA_SSA_DYN.                              :14      Dynamic Horizontal Poissons Ratio - Loading Fast Shear Azimuth - Displacement Slow Shear Aximuth
PR_VERT_FSA_DYN.                              :15      Dynamic Vertical Poissons Ratio - Loading Vertical - Displacement Fast Shear Aximuth
RHOZ  .G/C3                          :16      HRDD Standard Resolution Formation Density
SUWI  .V/V                           :17      Non-Clay Water Intergranular Water Saturation for Undisturbed Zone
TENS  .LBF                           :18      Cable Tension                 
TXSG  .PS/F                          :19      Total Minimum Horizontal Stress Gradient
TXSG  .PS/F                          :20      Total Minimum Horizontal Stress Gradient
TXSP  .PSI                           :21      Total Minimum Horizontal Stress - Sigma X
TXSP  .PSI                           :22      Total Minimum Horizontal Stress - Sigma X
TZSG  .PS/F                          :23      Total Vertical Stress Gradient
TZSP  .PSI                           :24      Total Vertical Stress - Sigma Z
VCL   .V/V                           :25      Volume of Clay Type Material Relative to Total Volume
YME_HORIZ_SSA_DYN.6PSI                          :26      Dynamic Horizontal Youngs Modulus in the Slow Shear Azimuth Direction
YME_HORIZ_SSA_STA.6PSI                          :27      Static Horizontal Youngs Modulus in the Slow Shear Azimuth Direction
YME_VERT_DYN.6PSI                          :28      Dynamic Vertical Youngs Modulus
YME_VERT_STA.6PSI                          :29      Static Vertical Youngs Modulus
~Ascii Data Section
# ...
   7190.00000       4.12793       3.48036       4.84564     116.32663       8.29951       8.24964       8.34938       0.01000      68.21669       7.41641       0.03320       0.43350    3116.86499       0.20423       0.31221       2.69576       1.00000    3825.76147       0.76994       0.68145    5535.89697    4899.63037       1.05000    7549.49951       0.24620      11.67048      10.37651       8.39006       7.45981 
   7190.50000       4.14027       3.51461       4.65736     120.32458       8.33822       8.27775       8.39869       0.01000      68.94749       6.93487       0.03396       0.43350    3117.08179       0.22864       0.30420       2.70458       1.00000    3787.14307       0.74673       0.68297    5369.34082    4910.88770       1.05000    7550.02441       0.25538      11.44443      10.15630       8.88329       7.88343 
   7191.00000       4.12946       3.53416       4.56319     120.13551       8.35785       8.25805       8.45766       0.01000      69.46711       6.44522       0.03500       0.43350    3117.29834       0.22915       0.28547       2.71062       1.00000    3819.35107       0.71743       0.66395    5159.01904    4774.45605       1.05000    7550.54980       0.27284      11.21767       9.92928       9.02031       7.98430 
   7191.50000       4.08351       3.52424       4.35248     118.58020       8.39324       8.32159       8.46490       0.01000      69.36806       5.84247       0.03690       0.43350    3117.51514       0.21257       0.23890       2.70393       1.00000    3837.44336       0.65200       0.61883    4688.84277    4450.34375       1.05000    7551.07471       0.28344      10.55539       9.29874       9.03582       7.96008 
   7192.00000       3.98934       3.47362       4.07207     120.95182       8.47908       8.38999       8.56818       0.01000      68.47305       5.27776       0.03860       0.43350    3117.73193       0.17624       0.18286       2.67658       1.00000    3780.40967       0.58276       0.57256    4191.19385    4117.83887       1.05000    7551.59961       0.27394       9.57942       8.40298       8.78334       7.70466 
   7192.50000       3.89691       3.41222       3.81345     124.31535       8.61969       8.53357       8.70582       0.01000      66.95804       4.89119       0.04022       0.43350    3117.94873       0.15812       0.15629       2.65304       1.00000    3795.75024       0.55022       0.56051    3957.46997    4031.48071       1.05000    7552.12451       0.25573       8.83283       7.71645       8.66089       7.56624 
   7193.00000       3.88211       3.40056       3.68007     120.22086       8.66362       8.64712       8.68011       0.01000      65.19167       4.55166       0.04080       0.43350    3118.16553       0.16174       0.15511       2.67713       1.00000    3808.47070       0.54415       0.56906    3914.06006    4093.24585       1.05000    7552.64941       0.23767       8.55059       7.45892       8.81561       7.69010 
   7193.50000       3.88304       3.39673       3.72478     118.99349       8.66795       8.68135       8.65454       0.01000      63.35218       4.17268       0.04037       0.43350    3118.38208       0.17713       0.17154       2.71940       1.00000    3821.50000       0.56050       0.58001    4031.92749    4172.29346       1.05000    7553.17480       0.24051       8.76910       7.65786       8.87422       7.74966 
   7194.00000       3.80943       3.33282       3.82358     114.75246       8.64514       8.63588       8.65439       0.01000      61.31934       3.78860       0.03812       0.43350    3118.59888       0.19572       0.19919       2.74294       1.00000    3794.50000       0.59516       0.59341    4281.55762    4269.00586       1.05000    7553.69971       0.24574       9.14382       8.03057       8.63629       7.58483 
   7194.50000       3.69573       3.23544       3.97878     118.78850       8.52697       8.37383       8.68011       0.01000      58.75631       3.30045       0.03562       0.43350    3118.81567       0.20303       0.22837       2.73241       1.00000    3779.52979       0.64108       0.60618    4612.21631    4361.13086       1.05000    7554.22461       0.25474       9.57322       8.46059       8.14725       7.20034 
   7195.00000       3.59537       3.14245       4.17121     117.03989       8.46776       8.29392       8.64161       0.01000      55.51667       2.63185       0.03322       0.43350    3119.03247       0.19664       0.25606       2.70411       1.00000    3804.25024       0.69163       0.62062    4976.24316    4465.38965       1.05000    7554.74951       0.26666       9.98291       8.87562       7.59980       6.75683 
   7195.50000       3.58195       3.10107       4.28113     125.18897       8.43636       8.28260       8.59012       0.01000      51.99023       2.11581       0.03204       0.43350    3119.24927       0.19161       0.27184       2.68531       1.00000    3839.58838       0.71957       0.63336    5177.66504    4557.34961       1.05000    7555.27441       0.27777      10.20289       9.09780       7.39407       6.59320 
   7196.00000       3.64909       3.11396       4.34769     128.60696       8.39984       8.24813       8.55155       0.01000      48.51982       1.95992       0.03184       0.43350    3119.46582       0.19367       0.27755       2.66949       1.00000    3840.82349       0.72720       0.64106    5232.94287    4613.09131       1.05000    7555.79980       0.28403      10.37945       9.25982       7.49947       6.69051 
   7196.50000       3.74649       3.17523       4.40477     126.90168       8.34685       8.27103       8.42267       0.01000      44.71003       2.02338       0.03213       0.43350    3119.68262       0.19962       0.28084       2.66559       1.00000    3789.62500       0.72851       0.64734    5242.71582    4658.60449       1.05000    7556.32471       0.28022      10.56814       9.42138       7.74929       6.90841 
   7197.00000       3.80536       3.22987       4.48373     121.67648       8.28991       8.24786       8.33196       0.01000      40.30152       2.09292       0.03286       0.43350    3119.89941       0.20056       0.28814       2.65987       1.00000    3778.11768       0.73840       0.65475    5314.23242    4712.25732       1.05000    7556.84961       0.27129      10.76597       9.58038       7.84599       6.98196 
   7197.50000       3.88934       3.26205       4.63684     119.63271       8.30715       8.28234       8.33196       0.01000      35.95571       2.02600       0.03403       0.43350    3120.11621       0.19362       0.29269       2.66338       1.00000    3818.18750       0.74890       0.65673    5390.21631    4726.84570       1.05000    7557.37451       0.26802      11.06924       9.82163       7.85339       6.96823 
   7198.00000       4.00647       3.27376       4.75355     121.04412       8.32201       8.35097       8.29305       0.01000      32.04693       1.91303       0.03446       0.43350    3120.33301       0.19127       0.28753       2.67228       1.00000    3839.64722       0.74361       0.65149    5352.48242    4689.43799       1.05000    7557.89941       0.26854      11.32547      10.03822       8.00482       7.09500 
   7198.50000       4.06571       3.27726       4.93595     124.25066       8.27967       8.30523       8.25411       0.01000      28.24254       1.82106       0.03476       0.43350    3120.54980       0.17709       0.29021       2.68289       1.00000    3822.12524       0.75534       0.64804    5437.34619    4664.94043       1.05000    7558.42480       0.27174      11.62014      10.29169       7.84973       6.95233 
   7199.00000       4.03843       3.29053       5.02244     121.25417       8.24382       8.25945       8.22819       0.01000      24.33672       1.75861       0.03470       0.43350    3120.76636       0.16476       0.29736       2.68361       1.00000    3798.75000       0.77089       0.64956    5549.63672    4676.19727       1.05000    7558.94971       0.27343      11.69984      10.36383       7.61105       6.74194 
   7199.50000       4.01231       3.31067       5.04177     112.79276       8.25756       8.24813       8.26699       0.01000      20.70044       1.73405       0.03455       0.43350    3120.98315       0.15979       0.30131       2.67980       1.00000    3787.82349       0.77798       0.65105    5601.07471    4687.22314       1.05000    7559.47461       0.27064      11.69481      10.36326       7.50571       6.65112 
