# LAS format log file from PETREL
# Project units are specified as depth units
#==================================================================
~Version information
VERS.   2.0:
WRAP.   NO:
#==================================================================
~Well
STRT .ft      5008.0000000          :
STOP .ft      7272.0000000          :
STEP .ft      0.50000000            :
NULL .        -999.250000           :
COMP.                               : COMPANY
WELL.         VW1                   : WELL
FLD.                                : FIELD
LOC.                                : LOCATION
SRVC.                               : SERVICE COMPANY
DATE.         2020-07-27 11:17:52   : Log Export Date {yyyy-MM-dd HH:mm:ss}
PROV.                               : PROVINCE
UWI.          121152346000          : UNIQUE WELL ID
API.          121152346000          : API NUMBER
#==================================================================
~Curve
DEPT .ft                   : DEPTH
RLA2 .ohm.m               : RLA2
RLA3 .ohm.m               : RLA3
RLA4 .ohm.m               : RLA4
RLA5 .ohm.m               : RLA5
HCAL .in                  : HCAL
HTNP .ft3/ft3             : HTNP
PEFZ .b/e                 : PEFZ
RHOZ .g/cm3               : RHOZ
RXOZ .ohm.m               : RXOZ
REFL ._                   : REFL
REFL1 ._                  : REFL 1
DTCO .us/ft               : DTCO
DTSM .us/ft               : DTSM
~Parameter
#==================================================================
~Ascii
# ...
 6812.0000000 2.7809600830 2.3132901192 1.9092400074 2.0116000175 8.1916999817 0.1052199975 2.1198298931 2.4219300747 11.895569801  -999.250000  -999.250000 71.047492981 121.13390350
 6812.5000000 3.0039799213 2.4313399792 1.9918199778 2.0043299198 8.1916999817 0.0975800008 2.1395399570 2.4329500198 15.836489677  -999.250000  -999.250000 71.002693176 120.79000092
 6813.0000000 3.1830999851 2.6242198944 2.0902900696 2.0399899483 8.2027597427 0.0993300006 2.1096301079 2.4413599968 14.976209641  -999.250000  -999.250000 70.792266846 120.77549744
 6813.5000000 2.8308300972 2.3966999054 1.9608099461 1.9147100449 8.1916999817 0.1096300036 2.1046400070 2.4239399433 12.796500206  -999.250000  -999.250000 70.928489685 120.65309906
 6814.0000000 2.6231698990 2.2464399338 1.8593699932 1.8185199499 8.1916999817 0.1152099967 2.0751299858 2.4129099846 10.829950333  -999.250000  -999.250000 71.083946228 120.85769653
 6814.5000000 2.6198399067 2.2918000221 1.8843599558 1.8337899446 8.1990699768 0.1124799997 2.0767400265 2.3995499611 10.848799706  -999.250000  -999.250000 70.731773376 121.29949951
 6815.0000000 2.5841999054 2.2838599682 1.8816000223 1.8532400131 8.1990699768 0.1129200011 2.0621299744 2.3983299732 10.633999825  -999.250000  -999.250000 70.471572876 121.57240295
 6815.5000000 2.2959599495 2.0524599552 1.7342599630 1.7269799709 8.2027597427 0.1177399978 2.0750100613 2.3956899643 10.017359734  -999.250000  -999.250000 70.189453125 121.40129852
 6816.0000000 2.2479801178 1.9836499691 1.6741199493 1.7019399405 8.1916999817 0.1136099994 2.0897300243 2.4097499847 10.300519943  -999.250000  -999.250000 69.887016296 121.04070282
 6816.5000000 2.7446200848 2.4073200226 1.9748799801 2.0306999683 8.1990699768 0.1050200015 2.0979900360 2.4372999668 14.094449997  -999.250000  -999.250000 69.735336304 120.45259857
 6817.0000000 3.4350900650 2.9604599476 2.4009099007 2.5418100357 8.2138204575 0.0986699983 2.0790901184 2.4636099339 17.247659683  -999.250000  -999.250000 69.745956421 119.18979645
 6817.5000000 3.9373400211 3.1733899117 2.4462900162 2.6305499077 8.1916999817 0.0961500034 2.0540499687 2.4676001072 18.732120514  -999.250000  -999.250000 69.129440308 117.21859741
 6818.0000000 3.8523499966 3.2435901165 2.4550800323 2.7289600372 8.1990699768 0.0932800025 2.0390698910 2.4545199871 15.871459961  -999.250000  -999.250000 68.705001831 115.22850037
 6818.5000000 4.1595602036 3.2608699799 2.4961199760 2.7710599899 8.1916999817 0.0923499987 2.0449299812 2.4393200874 15.818209648  -999.250000  -999.250000 68.365516663 114.27079773
 6819.0000000 4.1800889969 3.3067300320 2.5341401100 2.7812099457 8.2027597427 0.0936900005 2.0499799252 2.4314899445 16.081129074  -999.250000  -999.250000 68.335792542 114.12629700
 6819.5000000 4.1448698044 3.2587099075 2.5467500687 2.7515399456 8.1990699768 0.0942400023 2.0362999439 2.4327600002 14.819999695  -999.250000  -999.250000 68.332550049 113.83070374
 6820.0000000 4.0394201279 3.3659899235 2.5764300823 2.8295900822 8.2027597427 0.0915800035 2.0134499073 2.4365899563 14.701809883  -999.250000  -999.250000 68.062019348 113.45960236
 6820.5000000 4.4749698639 3.5558099747 2.6290600300 2.8778300285 8.1990699768 0.0878700018 2.0137100220 2.4377999306 14.787549973  -999.250000  -999.250000 67.992439270 113.29000092
 6821.0000000 5.4207701683 3.9364199638 2.8243401051 3.1446399689 8.2138204575 0.0831099972 2.0334999561 2.4372200966 16.304809570  -999.250000  -999.250000 67.696090698 113.53949738
 6821.5000000 5.3133401871 3.7008099556 2.5778100491 2.8418900967 8.2138204575 0.0789600015 2.0651199818 2.4391000271 19.180629730  -999.250000  -999.250000 67.561256409 114.89839935
 6822.0000000 3.3220798969 2.6741600037 2.0205099583 2.1674900055 8.1916999817 0.0807600021 2.1005699635 2.4478099346 15.989139557  -999.250000  -999.250000 67.448867798 116.68949890
 6822.5000000 2.2936298847 1.9312800169 1.5843100548 1.6614600420 8.2064399719 0.0874399990 2.1565599442 2.4564700127 13.889260292  -999.250000  -999.250000 67.568412781 118.64769745
 6823.0000000 2.3826301098 1.9504499435 1.5451899767 1.5763800144 8.1916999817 0.1026600003 2.2300798893 2.4505100250 10.036020279  -999.250000  -999.250000 68.356201172 120.30159760
 6823.5000000 2.3053400517 1.9262499809 1.5487999916 1.5311199427 8.2064399719 0.1203299984 2.2885799408 2.4315500259 8.5667400360  -999.250000  -999.250000 69.792587280 121.85790253
 6824.0000000 2.3144299984 1.7835199833 1.4157799482 1.3650300503 8.1916999817 0.1336099952 2.3220000267 2.4074199200 6.7819900513  -999.250000  -999.250000 70.367080688 123.59889984
 6824.5000000 1.8731000423 1.4856100082 1.2277599573 1.1734000444 8.2027597427 0.1382600069 2.3325700760 2.3936998844 6.1841101646  -999.250000  -999.250000 70.531188965 125.65180206
 6825.0000000 1.6885999441 1.3847199678 1.1773400307 1.0461599827 8.1990699768 0.1360400021 2.2893300056 2.3970398903 6.2516088486  -999.250000  -999.250000 71.409049988 127.93599701
 6825.5000000 1.5473999977 1.3019000292 1.0949800014 0.9943699837 8.2138204575 0.1367900074 2.2139000893 2.4054899216 7.0430102348  -999.250000  -999.250000 72.614906311 130.15820313
 6826.0000000 1.4046000242 1.2066199780 1.0175199509 0.9523299932 8.1990699768 0.1407800019 2.1656200886 2.4032900333 6.0606999397  -999.250000  -999.250000 73.031600952 131.79359436
 6826.5000000 1.2931300402 1.1191600561 0.9474499822 0.8935800195 8.1916999817 0.1410200000 2.1917700768 2.3925299644 6.6006898880  -999.250000  -999.250000 73.950653076 133.34759521
 6827.0000000 1.4527499676 1.2445299625 1.0333900452 0.9783400297 8.1990699768 0.1413200051 2.2643599510 2.3860900402 7.5943999290  -999.250000  -999.250000 74.788040161 134.47760010
 6827.5000000 1.6867200136 1.4283699989 1.1315200329 1.1026999950 8.2027597427 0.1433400065 2.3123400211 2.3837399483 11.227840424  -999.250000  -999.250000 74.963127136 135.40359497
 6828.0000000 1.6190899611 1.3437900543 1.1097899675 1.0568300486 8.1990699768 0.1581799984 2.3182199001 2.3743999004 9.5102195740  -999.250000  -999.250000 75.680160522 136.74079895
 6828.5000000 1.4872599840 1.2788599730 1.0920000076 1.0289700031 8.1916999817 0.1712500006 2.2902998924 2.3559598923 6.8498201370  -999.250000  -999.250000 76.220420837 138.40069580
 6829.0000000 1.3595999479 1.1969499588 1.0236599445 0.9835199714 8.1916999817 0.1671099961 2.2375199795 2.3545200825 6.0976099968  -999.250000  -999.250000 75.636413574 139.50019836
 6829.5000000 1.3245199919 1.1601200104 1.0150500536 0.9786900282 8.2027597427 0.1470199972 2.1627700329 2.3771600723 6.7339801788  -999.250000  -999.250000 75.140998840 139.90719604
 6830.0000000 1.5448499918 1.3008899689 1.1159900427 1.0740699768 8.2027597427 0.1261599958 2.1181199551 2.4047799110 7.9457001686  -999.250000  -999.250000 75.119262695 139.24839783
 6830.5000000 1.9021600485 1.5997999907 1.3832000494 1.3428200483 8.2138204575 0.1148499995 2.0839900970 2.4248099327 9.6025896072  -999.250000  -999.250000 75.034851074 136.66659546
 6831.0000000 2.3624799252 1.9157199860 1.5970599651 1.5470000505 8.1990699768 0.1096000001 2.0882000923 2.4240500927 11.151430130  -999.250000  -999.250000 73.920623779 132.91430664
 6831.5000000 2.4728400707 1.9986799955 1.6739900112 1.6560900211 8.2064399719 0.1049399972 2.0841999054 2.4178800583 13.443039894  -999.250000  -999.250000 73.234962463 130.32820129
 6832.0000000 2.5475800037 2.1000099182 1.7360500097 1.7638900280 8.2138204575 0.1082099974 2.0971601009 2.4115800858 10.718830109  -999.250000  -999.250000 72.491836548 129.03160095
 6832.5000000 2.6422500610 2.1526501179 1.7940499783 1.9171799421 8.1990699768 0.1157400012 2.1131799221 2.4111900330 10.400639534  -999.250000  -999.250000 72.044700623 129.67179871
 6833.0000000 2.5026700497 2.0270600319 1.7082799673 1.8694599867 8.2027597427 0.1250399947 2.1401300430 2.4145300388 9.5341901779  -999.250000  -999.250000 72.576919556 131.50970459
 6833.5000000 2.2975199223 1.8798300028 1.5994800329 1.7871400118 8.1990699768 0.1290799975 2.2064299583 2.4063599110 10.013629913  -999.250000  -999.250000 73.215621948 133.59979248
