~Version Information
VERS  .          2.0                              :CWLS Log Ascii Standard - Version 2.0
WRAP  .          NO                               :One line per depth step
~Well Information Block
#MNEM.UNIT       Data Type                        Information
#---------       ---------                        -------------------------------
STRT  .F         1820.00000                       :START DEPTH
STOP  .F         5250.00000                       :STOP DEPTH
STEP  .F          0.50000                         :INCREMENT
NULL  .          -999.25                          :NULL DATA VALUE
COMP  .          ADM COMPANY                      :COMPANY
WELL  .          VERIFICATION WELL 1              :WELL
FLD   .          WILDCAT                          :FIELD
LOC   .                                           :LOCATION
PROV  .                                           :PROVINCE
STAT  .                                           :STATE
CNTY  .                                           :COUNTY
CTRY  .                                           :COUNTRY
DATE  .                                           :DATE
UWI   .          VERIFICATION WELL 1              :UNIQUE WELL UWI
LIC   .                                           :LICENSE NUMBER
API   .                                           :API NUMBER
SRVC  .                                           :SERVICE COMPANY
~Parameter Information Block
#MNEM.UNIT       Value                            Description
#---------       ---------                        -------------
LONG  .DEG       -88.893356                       :Well Surface Location
LATI  .DEG       39.879810                        :Well Surface Location
XWELL .DEG       -88.893356                       :X-coordinate of Well Head
YWELL .DEG       39.879810                        :Y-coordinate of Well Head
PDAT  .          GROUND LEVEL                     :Permanent Datum               
EPD   .ft        669.00                           :Elevation of Permanent Datum (PDAT) above Mean Sea Level
LMF   .          KELLY BUSHING                    :Logging Measured From (Name of Working Datum)
APD   .ft        15.00                            :Elevation of Working Datum (LMF) Above Permanent Datum
EDF   .ft        683.00                           :Elevation of Derrick Floor Above Mean Sea Level
EGL   .ft        669.00                           :Elevation of Ground Level Above Mean Sea Level
EKB   .ft        684.00                           :Elevation of Kelly Bushing Above Mean Sea Level
~Curve Information Block
#MNEM.UNIT       API Code            Curve    Description
#--------        --------------      -----    -------------------
DEPT  .F                             :0       Index
C44_BH.6PSI                          :1       C44 Referred to the Borehole Axis in a Deviated Well
C55_BH.6PSI                          :2       C55 Referred to the Borehole Axis in a Deviated Well
C66_BH.6PSI                          :3       C66 Referred to the Borehole Axis in a Deviated Well
GR_EDTC.GAPI                          :4       Gamma Ray                     
HD1_PPC1.IN                            :5       PPC1 Hole Diameter 1          
HD1_PPC1.IN                            :6       PPC1 Hole Diameter 1          
HD2_PPC1.IN                            :7       PPC1 Hole Diameter 2          
KINT  .MD                            :8       Intrinsic Permeability        
MAXXENE_OVERALL.                              :9       Overall estimate of maximum cross energy
MINXENE_OVERALL.                              :10      Overall estimate of minimum cross energy
PHIT  .V/V                           :11      Total Porosity_ includes all forms of porosity, including that occupied by bound fluids, and is independent of rock and fluid materials and of environmental effects
PPGI  .PS/F                          :12      Pore Pressure Gradient        
PPRS  .PSI                           :13      Pore Pressure                 
PR_HORIZ_SSA_FSA_DYN.                              :14      Dynamic Horizontal Poissons Ratio - Loading Slow Shear Azimuth - Displacement Fast Shear Azimuth
PR_VERT_FSA_DYN.                              :15      Dynamic Vertical Poissons Ratio - Loading Vertical - Displacement Fast Shear Aximuth
RHOZ  .G/C3                          :16      HRDD Standard Resolution Formation Density
RHOZ  .G/C3                          :17      HRDD Standard Resolution Formation Density
SUWI  .V/V                           :18      Non-Clay Water Intergranular Water Saturation for Undisturbed Zone
TENS  .LBF                           :19      Cable Tension                 
TXSG  .PS/F                          :20      Total Minimum Horizontal Stress Gradient
TXSG  .PS/F                          :21      Total Minimum Horizontal Stress Gradient
TXSP  .PSI                           :22      Total Minimum Horizontal Stress - Sigma X
TXSP  .PSI                           :23      Total Minimum Horizontal Stress - Sigma X
TZSG  .PS/F                          :24      Total Vertical Stress Gradient
TZSP  .PSI                           :25      Total Vertical Stress - Sigma Z
VCL   .V/V                           :26      Volume of Clay Type Material Relative to Total Volume
YME_HORIZ_SSA_DYN.6PSI                          :27      Dynamic Horizontal Youngs Modulus in the Slow Shear Azimuth Direction
YME_HORIZ_SSA_STA.6PSI                          :28      Static Horizontal Youngs Modulus in the Slow Shear Azimuth Direction
YME_VERT_DYN.6PSI                          :29      Dynamic Vertical Youngs Modulus
YME_VERT_STA.6PSI                          :30      Static Vertical Youngs Modulus
~Ascii Data Section
# ...
   2732.00000       1.27583       1.27583       1.23730      90.76996      13.23030      13.64949      12.81112       0.01833      10.85982       0.38824       0.15779       0.43350    1184.32202       0.32078       0.32078       2.54803       2.54801       1.00000    2265.85718       0.72465       0.72465    1979.75049    1979.75049       1.05000    2868.59985       0.42491       3.33625       2.04768       3.33625       2.04768 
   2732.50000       1.30966       1.32300       1.21124      86.49239      13.47646      14.21667      12.73626       0.01000      10.52899       0.37300       0.14112       0.43350    1184.53870       0.31096       0.31932       2.61867       2.61867       1.00000    2193.85718       0.71431       0.72002    1951.84753    1967.46814       1.05000    2869.12476       0.45151       3.39959       2.21181       3.49090       2.27122 
   2733.00000       1.32023       1.35017       1.21929      94.01054      13.99966      15.41503      12.58429       0.01000      10.45215       0.35190       0.13305       0.43350    1184.75549       0.29379       0.31126       2.62212       2.62212       1.00000    2276.00000       0.69490       0.70676    1899.16406    1931.56580       1.05000    2869.64990       0.48436       3.34208       2.23400       3.54084       2.36686 
   2733.50000       1.35396       1.37365       1.32244     103.95647      13.99786      15.39403      12.60168       0.01000      10.75827       0.33346       0.11366       0.43350    1184.97217       0.30649       0.30649       2.61596       2.61595       1.00000    2263.42847       0.70595       0.70595    1929.72791    1929.72791       1.05000    2870.17480       0.50582       3.52757       2.50916       3.52757       2.50916 
   2734.00000       1.41558       1.41855       1.40196     100.66967      13.56878      14.35890      12.77866       0.01000      10.50399       0.32079       0.11270       0.43350    1185.18896       0.31422       0.31422       2.63654       2.63654       1.00000    2260.00000       0.71598       0.71598    1957.49646    1957.49646       1.05000    2870.69995       0.45905       3.71144       2.64783       3.71144       2.64783 
   2734.50000       1.45155       1.45155       1.44195      89.61198      13.16375      13.44156      12.88595       0.01000       9.69107       0.31106       0.12497       0.43350    1185.40576       0.32888       0.32888       2.62922       2.62922       1.00000    2254.00000       0.73561       0.73561    2011.51855    2011.51855       1.05000    2871.22485       0.37794       3.84934       2.64182       3.84934       2.64182 
   2735.00000       1.43956       1.43956       1.39946      78.09411      13.05723      13.25229      12.86217       0.01199       8.56255       0.29969       0.12570       0.43350    1185.62244       0.33378       0.33378       2.57649       2.57650       1.00000    2216.00000       0.74237       0.74237    2030.39478    2030.39478       1.05000    2871.74976       0.33586       3.80447       2.60488       3.80447       2.60488 
   2735.50000       1.37438       1.37438       1.33428      78.64282      13.66894      14.45194      12.88595       0.02254       7.30963       0.29661       0.13469       0.43350    1185.83923       0.32712       0.32712       2.47079       2.47081       1.00000    2262.00000       0.73321       0.73321    2005.70642    2005.70642       1.05000    2872.27490       0.32485       3.61247       2.40165       3.61247       2.40165 
   2736.00000       1.28546       1.28546       1.23284      91.62412      14.21007      15.53423      12.88591       0.04094       6.83448       0.29787       0.14643       0.43350    1186.05603       0.30823       0.30823       2.33664       2.33665       1.00000    2217.00000       0.70819       0.70819    1937.60828    1937.60828       1.05000    2872.79980       0.33284       3.31745       2.11944       3.31745       2.11944 
   2736.50000       1.24887       1.24887       1.21545     103.34061      14.40165      15.91737      12.88593       0.05255       7.17707       0.28024       0.14298       0.43350    1186.27271       0.29160       0.29160       2.28682       2.28681       1.00000    2249.00000       0.68727       0.68727    1880.70325    1880.70325       1.05000    2873.32495       0.34373       3.19730       2.06705       3.19730       2.06705 
   2737.00000       1.27590       1.27590       1.27364     108.09612      14.66587      16.46974      12.86200       0.03706       7.68376       0.25856       0.13653       0.43350    1186.48950       0.28889       0.28889       2.34415       2.34413       1.00000    2276.00000       0.68395       0.68395    1871.97656    1871.97656       1.05000    2873.84985       0.34663       3.28703       2.17192       3.28703       2.17192 
   2737.50000       1.32560       1.32560       1.34315      99.48675      13.90950      14.96889      12.85011       0.02270       7.91417       0.25633       0.13162       0.43350    1186.70618       0.29968       0.29968       2.45034       2.45032       1.00000    2284.00000       0.69731       0.69731    1908.89270    1908.89270       1.05000    2874.37476       0.36299       3.46092       2.32438       3.46092       2.32438 
   2738.00000       1.34113       1.34113       1.35387      97.29190      13.10483      13.28822      12.92144       0.01141       7.89740       0.25766       0.13005       0.43350    1186.92297       0.31087       0.31087       2.50439       2.50439       1.00000    2232.00000       0.71161       0.71161    1948.39087    1948.39087       1.05000    2874.89990       0.38863       3.52723       2.38115       3.52723       2.38115 
   2738.50000       1.32390       1.32390       1.22897      98.65580      13.39746      13.88536      12.90956       0.01000       7.59169       0.25891       0.13262       0.43350    1187.13977       0.33690       0.31824       2.49298       2.49298       1.00000    2264.00000       0.70802       0.71972    1938.91174    1970.96582       1.05000    2875.42480       0.40591       3.28604       2.19966       3.54169       2.37079 
   2739.00000       1.32183       1.34009       1.23770     100.86355      13.14156      13.32595      12.95717       0.01000       7.11907       0.26085       0.13363       0.43350    1187.35645       0.31094       0.32230       2.51370       2.51370       1.00000    2167.00000       0.71521       0.72299    1958.95996    1980.27771       1.05000    2875.94995       0.39314       3.41908       2.28109       3.54399       2.36442 
   2739.50000       1.32969       1.38007       1.24941      94.27900      13.10067      13.25614      12.94520       0.01000       6.72846       0.25365       0.12760       0.43350    1187.57324       0.29682       0.32666       2.55767       2.55766       1.00000    2295.00000       0.70233       0.72270    1924.03577    1979.84790       1.05000    2876.47485       0.38039       3.32726       2.26417       3.66178       2.49181 
   2740.00000       1.36146       1.41623       1.41799      92.91510      13.12383      13.26684      12.98082       0.01000       6.38375       0.24439       0.12826       0.43350    1187.78992       0.32067       0.32067       2.62151       2.62151       1.00000    2216.00000       0.72451       0.72451    1985.15918    1985.15918       1.05000    2876.99976       0.38585       3.69407       2.50839       3.69407       2.50839 
   2740.50000       1.37732       1.41980       1.46225      96.39028      13.13927      13.28581      12.99274       0.01000       6.03118       0.24421       0.12439       0.43350    1188.00671       0.30625       0.31576       2.64367       2.64367       1.00000    2217.00000       0.72580       0.72057    1989.05164    1974.71082       1.05000    2877.52490       0.40854       3.82012       2.62666       3.66720       2.52152 
   2741.00000       1.37707       1.42564       1.49548     101.13177      13.14419      13.28380      13.00459       0.01000       5.77466       0.24704       0.12188       0.43350    1188.22351       0.30074       0.31558       2.65618       2.65618       1.00000    2137.00000       0.72938       0.72077    1999.23120    1975.62732       1.05000    2878.04980       0.41257       3.89046       2.69661       3.65842       2.53577 
