~Version Information
VERS  .          2.0                              :CWLS Log Ascii Standard - Version 2.0
WRAP  .          NO                               :One line per depth step
~Well Information Block
#MNEM.UNIT       Data Type                        Information
#---------       ---------                        -------------------------------
STRT  .F         1820.00000                       :START DEPTH
STOP  .F         5250.00000                       :STOP DEPTH
STEP  .F          0.50000                         :INCREMENT
NULL  .          -999.25                          :NULL DATA VALUE
COMP  .          ADM COMPANY                      :COMPANY
WELL  .          VERIFICATION WELL 1              :WELL
FLD   .          WILDCAT                          :FIELD
LOC   .                                           :LOCATION
PROV  .                                           :PROVINCE
STAT  .                                           :STATE
CNTY  .                                           :COUNTY
CTRY  .                                           :COUNTRY
DATE  .                                           :DATE
UWI   .          VERIFICATION WELL 1              :UNIQUE WELL UWI
LIC   .                                           :LICENSE NUMBER
API   .                                           :API NUMBER
SRVC  .                                           :SERVICE COMPANY
~Parameter Information Block
#MNEM.UNIT       Value                            Description
#---------       ---------                        -------------
LONG  .DEG       -88.893356                       :Well Surface Location
LATI  .DEG       39.879810                        :Well Surface Location
XWELL .DEG       -88.893356                       :X-coordinate of Well Head
YWELL .DEG       39.879810                        :Y-coordinate of Well Head
PDAT  .          GROUND LEVEL                     :Permanent Datum               
EPD   .ft        669.00                           :Elevation of Permanent Datum (PDAT) above Mean Sea Level
LMF   .          KELLY BUSHING                    :Logging Measured From (Name of Working Datum)
APD   .ft        15.00                            :Elevation of Working Datum (LMF) Above Permanent Datum
EDF   .ft        683.00                           :Elevation of Derrick Floor Above Mean Sea Level
EGL   .ft        669.00                           :Elevation of Ground Level Above Mean Sea Level
EKB   .ft        684.00                           :Elevation of Kelly Bushing Above Mean Sea Level
~Curve Information Block
#MNEM.UNIT       API Code            Curve    Description
#--------        --------------      -----    -------------------
DEPT  .F                             :0       Index
C44_BH.6PSI                          :1       C44 Referred to the Borehole Axis in a Deviated Well
C55_BH.6PSI                          :2       C55 Referred to the Borehole Axis in a Deviated Well
C66_BH.6PSI                          :3       C66 Referred to the Borehole Axis in a Deviated Well
GR_EDTC.GAPI                          :4       Gamma Ray                     
HD1_PPC1.IN                            :5       PPC1 Hole Diameter 1          
HD1_PPC1.IN                            :6       PPC1 Hole Diameter 1          
HD2_PPC1.IN                            :7       PPC1 Hole Diameter 2          
KINT  .MD                            :8       Intrinsic Permeability        
MAXXENE_OVERALL.                              :9       Overall estimate of maximum cross energy
MINXENE_OVERALL.                              :10      Overall estimate of minimum cross energy
PHIT  .V/V                           :11      Total Porosity_ includes all forms of porosity, including that occupied by bound fluids, and is independent of rock and fluid materials and of environmental effects
PPGI  .PS/F                          :12      Pore Pressure Gradient        
PPRS  .PSI                           :13      Pore Pressure                 
PR_HORIZ_SSA_FSA_DYN.                              :14      Dynamic Horizontal Poissons Ratio - Loading Slow Shear Azimuth - Displacement Fast Shear Azimuth
PR_VERT_FSA_DYN.                              :15      Dynamic Vertical Poissons Ratio - Loading Vertical - Displacement Fast Shear Aximuth
RHOZ  .G/C3                          :16      HRDD Standard Resolution Formation Density
RHOZ  .G/C3                          :17      HRDD Standard Resolution Formation Density
SUWI  .V/V                           :18      Non-Clay Water Intergranular Water Saturation for Undisturbed Zone
TENS  .LBF                           :19      Cable Tension                 
TXSG  .PS/F                          :20      Total Minimum Horizontal Stress Gradient
TXSG  .PS/F                          :21      Total Minimum Horizontal Stress Gradient
TXSP  .PSI                           :22      Total Minimum Horizontal Stress - Sigma X
TXSP  .PSI                           :23      Total Minimum Horizontal Stress - Sigma X
TZSG  .PS/F                          :24      Total Vertical Stress Gradient
TZSP  .PSI                           :25      Total Vertical Stress - Sigma Z
VCL   .V/V                           :26      Volume of Clay Type Material Relative to Total Volume
YME_HORIZ_SSA_DYN.6PSI                          :27      Dynamic Horizontal Youngs Modulus in the Slow Shear Azimuth Direction
YME_HORIZ_SSA_STA.6PSI                          :28      Static Horizontal Youngs Modulus in the Slow Shear Azimuth Direction
YME_VERT_DYN.6PSI                          :29      Dynamic Vertical Youngs Modulus
YME_VERT_STA.6PSI                          :30      Static Vertical Youngs Modulus
~Ascii Data Section
# ...
   5240.00000       2.73900       2.78316       2.82814     196.58319      12.25500      12.21822      12.29177       0.01000       1.52281       0.34394       0.03256       0.43350    2271.54004       0.36105       0.36105       2.70753       2.70753       1.00000    2779.66675       0.78187       0.78187    4096.98047    4096.98047       1.05000    5501.99951       0.20580       7.57679       6.74742       7.57679       6.74742 
   5240.50000       2.83108       2.90512       3.01866     196.58319      12.26339      12.23542      12.29135       0.01000       1.57712       0.36252       0.03069       0.43350    2271.75659       0.33769       0.36391       2.71220       2.71220       1.00000    2781.77783       0.79595       0.78195    4171.18799    4097.82178       1.05000    5502.52490       0.19397       8.07608       7.22544       7.54775       6.75276 
   5241.00000       2.86053       2.92168       3.08237     196.58319      12.26059      12.24621      12.27498       0.01000       1.63533       0.38816       0.03321       0.43350    2271.97339       0.32572       0.36091       2.70634       2.70634       1.00000    2768.00000       0.79435       0.77454    4163.21240    4059.37036       1.05000    5503.04980       0.20991       8.17272       7.26638       7.47348       6.64469 
   5241.50000       2.83198       2.85021       3.01110     196.58319      12.26059      12.24621      12.27498       0.01000       1.70486       0.41445       0.04023       0.43350    2272.19019       0.32027       0.35258       2.69463       2.69463       1.00000    2747.66675       0.78128       0.76145    4095.10376    3991.12305       1.05000    5503.57471       0.25430       7.95092       6.94582       7.31075       6.38658 
   5242.00000       2.74246       2.74246       2.91511     196.58319      12.26059      12.24621      12.27498       0.01000       1.78673       0.43730       0.05233       0.43350    2272.40698       0.30848       0.33996       2.69439       2.69439       1.00000    2761.88892       0.76409       0.74280    4005.33813    3893.74731       1.05000    5504.09961       0.33081       7.62874       6.46036       6.99406       5.92289 
   5242.50000       2.58731       2.58731       2.77581     196.58319      12.26059      12.24621      12.27498       0.01000       1.86603       0.45620       0.06602       0.43350    2272.62378       0.29464       0.32624       2.68699       2.68700       1.00000    2772.00000       0.74710       0.72386    3916.68872    3794.84595       1.05000    5504.62451       0.41735       7.18734       5.86910       6.53503       5.33644 
   5243.00000       2.40358       2.40358       2.64655     196.58319      12.26059      12.24621      12.27498       0.01000       1.92948       0.46936       0.07623       0.43350    2272.84058       0.27988       0.31941       2.66698       2.66698       1.00000    2716.00000       0.74339       0.71343    3897.57202    3740.50269       1.05000    5505.14990       0.48195       6.77451       5.37913       5.97789       4.74659 
   5243.50000       2.23314       2.23314       2.54368     196.58319      12.26059      12.24621      12.27498       0.01000       1.93106       0.49905       0.07516       0.43350    2273.05713       0.26834       0.32009       2.63124       2.63124       1.00000    2766.00000       0.75137       0.71308    3939.82593    3739.05127       1.05000    5505.67480       0.47518       6.45250       5.13870       5.47487       4.36013 
   5244.00000       2.10435       2.13589       2.51567     196.58319      12.26059      12.24621      12.27498       0.01000       1.78334       0.55961       0.07452       0.43350    2273.27393       0.25593       0.32156       2.59915       2.59915       1.00000    2739.00000       0.76170       0.71487    3994.33789    3748.77637       1.05000    5506.19971       0.47111       6.31901       5.04133       5.12972       4.09250 
   5244.50000       2.05943       2.12516       2.52753     196.58319      12.26059      12.24621      12.27498       0.01000       1.66325       0.61310       0.07750       0.43350    2273.49072       0.24504       0.31025       2.60675       2.60675       1.00000    2730.00000       0.75041       0.70080    3935.53687    3675.34912       1.05000    5506.72461       0.48994       6.29374       4.97971       5.03133       3.98088 
   5245.00000       2.08081       2.14693       2.61355     196.58319      12.26059      12.24621      12.27498       0.01000       1.65070       0.64939       0.08272       0.43350    2273.70752       0.22378       0.28804       2.62069       2.62069       1.00000    2731.00000       0.72765       0.67011    3816.50903    3514.74487       1.05000    5507.24951       0.52296       6.39683       4.98749       4.97516       3.87903 
   5245.50000       2.16599       2.24586       2.71293     196.58319      12.26059      12.24621      12.27498       0.01000       1.66375       0.69446       0.06639       0.43350    2273.92432       0.21731       0.27572       2.66049       2.66049       1.00000    2758.00000       0.71152       0.65393    3732.28345    3430.19653       1.05000    5507.77490       0.41969       6.60495       5.38813       5.15949       4.20896 
   5246.00000       2.31594       2.39057       2.90587     196.58319      12.26059      12.24621      12.27498       0.01000       1.69649       0.72858       0.04929       0.43350    2274.14087       0.21595       0.28169       2.69044       2.69044       1.00000    2718.00000       0.72079       0.65726    3781.27856    3447.96680       1.05000    5508.29980       0.31161       7.06679       6.03196       5.44830       4.65048 
   5246.50000       2.57183       2.58550       3.20997     196.58319      12.26059      12.24621      12.27498       0.01000       1.71546       0.73661       0.03689       0.43350    2274.35767       0.21753       0.31232       2.72723       2.72723       1.00000    2739.00000       0.76375       0.68676    4007.03198    3603.07080       1.05000    5508.82471       0.22903       7.81645       6.88606       5.82415       5.13089 
   5247.00000       2.87172       2.81754       3.32785     196.58319      12.26059      12.24621      12.27498       0.01000       1.72591       0.73700       0.03298       0.43350    2274.57446       0.25384       0.33317       2.74740       2.74740       1.00000    2752.00000       0.77664       0.72040    4075.02026    3779.92969       1.05000    5509.34961       0.20844       8.34519       7.42397       6.69476       5.95573 
   5247.50000       3.12543       3.04124       3.36782     196.58319      12.26059      12.24621      12.27498       0.01000       1.72538       0.73174       0.03294       0.43350    2274.79126       0.29963       0.34635       2.75523       2.75523       1.00000    2777.71436       0.77884       0.74895    4086.95728    3930.12305       1.05000    5509.87451       0.20819       8.75384       7.78829       7.72821       6.87578 
   5248.00000       3.20546       3.15354       3.05911     196.58319      12.26059      12.24621      12.27498       0.01000       1.76228       0.73131       0.03516       0.43350    2275.00806       0.35107       0.35107       2.75670       2.75670       1.00000    2724.28564       0.76703       0.76703    4025.37280    4025.37280       1.05000    5510.39990       0.22223       8.48303       7.50572       8.48303       7.50572 
   5248.50000       3.06095       3.05613       2.70361     196.58319      12.26059      12.24621      12.27498       0.01000       1.79790       0.75511       0.03754       0.43350    2275.22461       0.35368       0.35520       2.74355       2.74355       1.00000    2732.57153       0.77145       0.77252    4048.96655    4054.56958       1.05000    5510.92480       0.23733       8.26103       7.26585       8.29640       7.29696 
   5249.00000       2.76513       2.77195       2.46235     196.58319      12.26059      12.24621      12.27498       0.01000       1.93108       0.86878       0.06354       0.43350    2275.44141       0.35315       0.35552       2.70271       2.70271       1.00000    2761.71436       0.77100       0.77266    4046.95850    4055.69897       1.05000    5511.44971       0.27140       7.46493       6.13670       7.51485       6.17774 
