# LAS format log file from PETREL
# Project units are specified as depth units
#==================================================================
~Version information
VERS.   2.0:
WRAP.   NO:
#==================================================================
~Well
STRT .ft      5008.0000000          :
STOP .ft      7272.0000000          :
STEP .ft      0.50000000            :
NULL .        -999.250000           :
COMP.                               : COMPANY
WELL.         VW1                   : WELL
FLD.                                : FIELD
LOC.                                : LOCATION
SRVC.                               : SERVICE COMPANY
DATE.         2020-07-27 11:17:52   : Log Export Date {yyyy-MM-dd HH:mm:ss}
PROV.                               : PROVINCE
UWI.          121152346000          : UNIQUE WELL ID
API.          121152346000          : API NUMBER
#==================================================================
~Curve
DEPT .ft                   : DEPTH
RLA2 .ohm.m               : RLA2
RLA3 .ohm.m               : RLA3
RLA4 .ohm.m               : RLA4
RLA5 .ohm.m               : RLA5
HCAL .in                  : HCAL
HTNP .ft3/ft3             : HTNP
PEFZ .b/e                 : PEFZ
RHOZ .g/cm3               : RHOZ
RXOZ .ohm.m               : RXOZ
REFL ._                   : REFL
REFL1 ._                  : REFL 1
DTCO .us/ft               : DTCO
DTSM .us/ft               : DTSM
~Parameter
#==================================================================
~Ascii
# ...
 5602.0000000 5.2543802261 4.1395702362 2.9563999176 2.7767000198 8.2138204575 0.0701299980 1.8195099831 2.4546499252 10.231389999  -999.250000  -999.250000 63.679821014 100.42610168
 5602.5000000 4.5117111206 3.6490900517 2.6699099541 2.4822700024 8.2138204575 0.0763799995 1.8273600340 2.4436500072 9.3018398285  -999.250000  -999.250000 63.860000610 100.58519745
 5603.0000000 3.3435699940 2.8512101173 2.1810100079 2.0520200729 8.1916999817 0.0782100037 1.8335299492 2.4370400906 8.5601902008  -999.250000  -999.250000 64.102851868 100.76550293
 5603.5000000 2.9261300564 2.4208700657 1.8967900276 1.7608699799 8.2027597427 0.0788699985 1.8356499672 2.4354000092 8.2858495712  -999.250000  -999.250000 64.201881409 101.10220337
 5604.0000000 2.5007100105 2.1144199371 1.6914900541 1.5768599510 8.2064399719 0.0796699971 1.8151299953 2.4419600964 8.3046998978  -999.250000  -999.250000 64.281806946 101.55419922
 5604.5000000 2.3472700119 1.9725899696 1.5992100239 1.4709999561 8.1990699768 0.0794399977 1.7770199776 2.4536900520 8.8930091858  -999.250000  -999.250000 64.165046692 102.13189697
 5605.0000000 2.4264199734 1.9938299656 1.5980399847 1.4570300579 8.2027597427 0.0805199966 1.7607899904 2.4594399929 9.1463613510  -999.250000  -999.250000 64.382949829 102.67710114
 5605.5000000 2.6909298897 2.1548299789 1.7069400549 1.5340100527 8.1916999817 0.0776299983 1.7868700027 2.4549899101 9.3171691895  -999.250000  -999.250000 64.131057739 102.24710083
 5606.0000000 2.8959000111 2.3376400471 1.8362100124 1.6241600513 8.2064399719 0.0731199980 1.8299100399 2.4482600689 9.8290805817  -999.250000  -999.250000 64.134162903 102.47760010
 5606.5000000 3.2191801071 2.5831398964 1.9949400425 1.7150199413 8.2027597427 0.0687500015 1.8547099829 2.4485399723 10.865830421  -999.250000  -999.250000 64.170593262 102.70140076
 5607.0000000 3.5952100754 2.8694100380 2.1758699417 1.9023499489 8.2027597427 0.0675399974 1.8629800081 2.4573500156 12.364049911  -999.250000  -999.250000 64.011993408 102.44039917
 5607.5000000 3.6177999973 2.9945399761 2.2735300064 1.9933300018 8.2064399719 0.0773300007 1.8966799974 2.4591600895 12.648019791  -999.250000  -999.250000 64.073440552 102.30380249
 5608.0000000 3.4783298969 2.9445800781 2.2785000801 2.0252399445 8.1916999817 0.0888900012 1.9394700527 2.4530301094 11.991900444  -999.250000  -999.250000 64.137687683 101.85880280
 5608.5000000 3.7677700520 3.2092499733 2.4484200478 2.2239999771 8.1806402206 0.0876699984 1.9522099495 2.4481499195 10.976249695  -999.250000  -999.250000 63.860309601 101.54959869
 5609.0000000 4.5412302017 3.8693199158 2.8703799248 2.6152598858 8.1990699768 0.0749799982 1.9466899633 2.4502201080 10.996720314  -999.250000  -999.250000 63.480560303 100.76589966
 5609.5000000 5.5190300941 4.5453100204 3.2423501015 2.9405000210 8.1916999817 0.0632599965 1.9634300470 2.4534900188 11.775489807  -999.250000  -999.250000 63.121860504 100.29599762
 5610.0000000 5.7462100983 4.7041301727 3.4258499146 3.1235899925 8.2027597427 0.0599699989 1.9873100519 2.4592099190 12.983759880  -999.250000  -999.250000 63.227218628 100.59690094
 5610.5000000 6.1556911469 4.9934811592 3.6152799129 3.3013899326 8.1990699768 0.0581299998 2.0055000782 2.4647998810 14.040550232  -999.250000  -999.250000 63.088630676 101.66940308
 5611.0000000 6.2642202377 5.0786399841 3.7374799252 3.3543000221 8.1916999817 0.0570000000 2.0428800583 2.4697499275 15.968810081  -999.250000  -999.250000 63.329570770 103.13559723
 5611.5000000 6.2924499512 5.1964101791 3.8150000572 3.5273299217 8.2064399719 0.0619600005 2.1556899548 2.4660201073 18.926179886  -999.250000  -999.250000 64.099906921 104.84590149
 5612.0000000 6.7110099792 5.5207200050 3.9245400429 3.6340200901 8.2469902039 0.0835499987 2.3187100887 2.4531700611 24.466129303  -999.250000  -999.250000 64.112792969 106.89330292
 5612.5000000 6.9360499382 5.6160311699 4.0484800339 3.7270400524 8.2506799698 0.1053000018 2.4366500378 2.4383299351 25.678249359  -999.250000  -999.250000 64.537719727 108.64240265
 5613.0000000 6.7048702240 5.6501097679 4.1309800148 3.7744300365 8.2359399796 0.1192200035 2.4702699184 2.4240899086 23.708290100  -999.250000  -999.250000 65.451591492 109.27140045
 5613.5000000 6.4024100304 5.4865198135 4.0650901794 3.7818000317 8.2064399719 0.1159799993 2.4290099144 2.4204699993 19.021570206  -999.250000  -999.250000 65.501876831 108.80599976
 5614.0000000 6.5989198685 5.6639399529 4.1876897812 3.9278600216 8.2138204575 0.1102500036 2.3618700504 2.4275999069 18.580099106  -999.250000  -999.250000 65.469299316 107.25140381
 5614.5000000 7.2768402100 6.2820601463 4.5696101189 4.2619099617 8.1843299866 0.0962599963 2.2676799297 2.4454898834 20.896610260  -999.250000  -999.250000 65.169273376 105.06770325
 5615.0000000 7.5361599922 6.5634398460 4.7032599449 4.4885001183 8.1769504547 0.0869499967 2.1589601040 2.4668400288 25.717510223  -999.250000  -999.250000 64.633666992 103.40350342
 5615.5000000 7.7985801697 6.8215699196 4.9175601006 4.6540799141 8.2064399719 0.0752900019 2.0457899570 2.4903500080 29.157730103  -999.250000  -999.250000 64.300041199 102.02069855
 5616.0000000 7.9786601067 7.2137699127 5.2216601372 4.9241390228 8.2027597427 0.0672700033 1.9754500389 2.5099699497 27.383329391  -999.250000  -999.250000 63.713989258 100.67839813
 5616.5000000 8.4200696945 7.7578001022 5.6092100143 5.2807288170 8.1622104645 0.0628399998 1.9936300516 2.5142199993 31.056659698  -999.250000  -999.250000 63.288970947 99.754356384
 5617.0000000 8.2045602798 7.6437001228 5.5536699295 5.3133001328 8.1695804596 0.0734099969 2.0435700417 2.5055499077 30.665149689  -999.250000  -999.250000 62.436500549 99.174880981
 5617.5000000 8.1768398285 7.6417498589 5.5704898834 5.3673810959 8.1695804596 0.0855500028 2.0653700829 2.4895699024 26.728439331  -999.250000  -999.250000 61.938861847 98.637992859
 5618.0000000 8.6887502670 8.2622604370 5.8887801170 5.7825598717 8.1548299789 0.0839100033 1.9988800287 2.4856400490 21.866989136  -999.250000  -999.250000 61.577671051 97.951683044
 5618.5000000 9.3836698532 8.9133205414 6.1908698082 6.1282401085 8.1548299789 0.0714600012 1.9044699669 2.4945299625 21.550619125  -999.250000  -999.250000 61.713859558 97.255729675
 5619.0000000 9.9180202484 9.4125299454 6.5280199051 6.4483799934 8.1474599838 0.0590399988 1.8557300568 2.5031099319 25.387470245  -999.250000  -999.250000 61.085109711 96.670196533
 5619.5000000 10.184519768 9.8139600754 6.7585811615 6.7080597878 8.1474599838 0.0523499995 1.8397200108 2.5122001171 29.525859833  -999.250000  -999.250000 60.375228882 96.153282166
 5620.0000000 10.324110031 9.8800201416 6.9028301239 6.9740500450 8.1622104645 0.0460200012 1.8558399677 2.5162100792 36.229961395  -999.250000  -999.250000 60.420471191 95.800323486
 5620.5000000 11.501839638 11.023949623 7.4957900047 7.6802802086 8.1548299789 0.0433700010 1.8682800531 2.5240499973 43.765968323  -999.250000  -999.250000 60.005500793 95.765556335
 5621.0000000 12.574029922 12.149669647 8.1868696213 8.5418195724 8.1474599838 0.0431400016 1.9067599773 2.5301699638 46.770538330  -999.250000  -999.250000 59.968578339 96.003341675
 5621.5000000 13.899200439 13.270290375 8.8830995560 9.6814098358 8.1916999817 0.0487300009 2.0035600662 2.5305299759 40.158889771  -999.250000  -999.250000 60.470779419 97.041526794
 5622.0000000 14.673549652 14.340970039 9.5374288559 11.104169846 8.1916999817 0.0610000007 2.1207299232 2.5375800133 42.177101135  -999.250000  -999.250000 60.913509369 99.127799988
 5622.5000000 15.248940468 15.160240173 10.571260452 12.564470291 8.2359399796 0.0820500031 2.2581200600 2.5428700447 49.229309082  -999.250000  -999.250000 61.560150146 101.81410217
 5623.0000000 17.839939117 17.486759186 11.861889839 15.668230057 8.2359399796 0.1061000004 2.3706400394 2.5559599400 62.830009460  -999.250000  -999.250000 62.055339813 104.57550049
 5623.5000000 20.994020462 20.789680481 13.406450272 19.606389999 8.2469902039 0.1301800013 2.4847099781 2.5713400841 62.438228607  -999.250000  -999.250000 62.562660217 107.01000214
