# LAS format log file from PETREL
# Project units are specified as depth units
#==================================================================
~Version information
VERS.   2.0:
WRAP.   NO:
#==================================================================
~Well
STRT .ft      5008.0000000          :
STOP .ft      7272.0000000          :
STEP .ft      0.50000000            :
NULL .        -999.250000           :
COMP.                               : COMPANY
WELL.         VW1                   : WELL
FLD.                                : FIELD
LOC.                                : LOCATION
SRVC.                               : SERVICE COMPANY
DATE.         2020-07-27 11:17:52   : Log Export Date {yyyy-MM-dd HH:mm:ss}
PROV.                               : PROVINCE
UWI.          121152346000          : UNIQUE WELL ID
API.          121152346000          : API NUMBER
#==================================================================
~Curve
DEPT .ft                   : DEPTH
RLA2 .ohm.m               : RLA2
RLA3 .ohm.m               : RLA3
RLA4 .ohm.m               : RLA4
RLA5 .ohm.m               : RLA5
HCAL .in                  : HCAL
HTNP .ft3/ft3             : HTNP
PEFZ .b/e                 : PEFZ
RHOZ .g/cm3               : RHOZ
RXOZ .ohm.m               : RXOZ
REFL ._                   : REFL
REFL1 ._                  : REFL 1
DTCO .us/ft               : DTCO
DTSM .us/ft               : DTSM
~Parameter
#==================================================================
~Ascii
# ...
 5756.0000000 2.8573000431 2.3142399788 1.7971700430 1.6053299904 8.2211904526 0.0777499974 1.8075000048 2.4546499252 9.7698497772  -999.250000  -999.250000 65.827552795 104.07089996
 5756.5000000 2.8408200741 2.1918098927 1.7339799404 1.5529099703 8.2138204575 0.0767199993 1.8379600048 2.4482200146 9.7277002335  -999.250000  -999.250000 65.845443726 103.89510345
 5757.0000000 2.6087999344 2.1470599174 1.7228100300 1.5417000055 8.2248802185 0.0767399967 1.8412799835 2.4431200027 10.173410416  -999.250000  -999.250000 65.429641724 103.88430023
 5757.5000000 2.5432400703 2.1006100178 1.7313899994 1.5580600500 8.2211904526 0.0815699995 1.8372700214 2.4356000423 9.8819103241  -999.250000  -999.250000 64.992889404 104.07140350
 5758.0000000 2.6470999718 2.2295598984 1.8358299732 1.6568200588 8.2211904526 0.0823599994 1.8154400587 2.4458799362 9.2772798538  -999.250000  -999.250000 64.945266724 104.51920319
 5758.5000000 2.6796700954 2.3121199608 2.0201900005 1.8209600449 8.2285604477 0.0802699998 1.8756999969 2.4694299698 10.063790321  -999.250000  -999.250000 64.936607361 105.22699738
 5759.0000000 3.0986099243 2.6496200562 2.2666800022 1.9981800318 8.2469902039 0.0741000026 2.0679099560 2.5047199726 14.207329750  -999.250000  -999.250000 64.376983643 106.08300018
 5759.5000000 4.1073899269 3.5806601048 2.8926000595 2.7602400780 8.2433099747 0.0759700015 2.3536300659 2.5420799255 30.233600616  -999.250000  -999.250000 64.041847229 106.78959656
 5760.0000000 6.4035401344 5.7914199829 4.2933602333 4.3549399376 8.2580499649 0.0820299983 2.5797500610 2.5615999699 66.136398315  -999.250000  -999.250000 64.076980591 107.02079773
 5760.5000000 9.4060010910 7.3839998245 4.9316201210 5.4856600761 8.2691097260 0.0918800011 2.5880899429 2.5592100620 60.832359314  -999.250000  -999.250000 63.569931030 106.78029633
 5761.0000000 9.2320899963 7.5038089752 5.0672698021 6.1715397835 8.2875499725 0.0964300036 2.3869199753 2.5382299423 35.894229889  -999.250000  -999.250000 63.111530304 106.26499939
 5761.5000000 9.9079694748 7.6501598358 4.9299798012 6.1182298660 8.2248802185 0.0836099982 2.1405699253 2.5185399055 26.444290161  -999.250000  -999.250000 63.009899139 105.61319733
 5762.0000000 10.336549759 7.1603899002 4.6600399017 5.6229000092 8.2211904526 0.0698100030 2.0152099133 2.5027599335 22.857830048  -999.250000  -999.250000 62.726539612 104.86640167
 5762.5000000 8.3739795685 6.0053701401 3.9854800701 4.5120401382 8.2691097260 0.0738499984 1.9970099926 2.4911000729 20.579450607  -999.250000  -999.250000 63.124919891 104.01529694
 5763.0000000 5.4477009773 4.7031211853 3.3939299583 3.4474101067 8.2580499649 0.0882499963 1.9709000587 2.4803099632 15.990599632  -999.250000  -999.250000 62.981029510 103.19219971
 5763.5000000 4.4649209976 3.7678198814 2.9327600002 2.8757300377 8.2248802185 0.0842600018 1.9018299580 2.4657599926 12.613690376  -999.250000  -999.250000 63.341629028 102.56410217
 5764.0000000 5.1561698914 4.1126499176 2.9810800552 2.6170899868 8.2433099747 0.0756099969 1.8274400234 2.4549300671 11.088780403  -999.250000  -999.250000 63.637870789 102.13839722
 5764.5000000 4.6506910324 3.9225900173 2.9133899212 2.5312700272 8.2359399796 0.0724700019 1.7875000238 2.4492700100 10.247360229  -999.250000  -999.250000 63.791938782 101.75029755
 5765.0000000 2.9750699997 2.5988600254 2.0709099770 1.8554699421 8.2285604477 0.0741700009 1.7629799843 2.4504899979 9.1667289734  -999.250000  -999.250000 64.289787292 101.38980103
 5765.5000000 2.3513998985 2.0625700951 1.7229900360 1.5274499655 8.2469902039 0.0781499967 1.7551699877 2.4485399723 8.2589302063  -999.250000  -999.250000 64.547973633 101.22389984
 5766.0000000 1.8676899672 1.7079999447 1.4481500387 1.3492300510 8.2138204575 0.0830599964 1.7739800215 2.4381699562 7.7601799965  -999.250000  -999.250000 64.705009460 101.31430054
 5766.5000000 1.6092100143 1.4719599485 1.2862800360 1.2187800407 8.2285604477 0.0893500000 1.7799099684 2.4330499172 7.8063588142  -999.250000  -999.250000 64.475143433 101.64140320
 5767.0000000 1.4649900198 1.3398799896 1.2056299448 1.1666300297 8.2138204575 0.0913600028 1.7793600559 2.4334099293 7.9686498642  -999.250000  -999.250000 64.628379822 102.20469666
 5767.5000000 1.4013700485 1.3035000563 1.1865400076 1.1657899618 8.2211904526 0.0896499977 1.7988799810 2.4434599876 7.9531102180  -999.250000  -999.250000 64.742408752 103.07810211
 5768.0000000 1.5032099485 1.3764599562 1.2621799707 1.2567100525 8.2580499649 0.0855199993 1.9254100323 2.4650700092 8.4591913223  -999.250000  -999.250000 64.810638428 104.27799988
 5768.5000000 2.0382499695 1.8721899986 1.6920800209 1.7168799639 8.2359399796 0.0785700008 2.2008199692 2.4988899231 12.404100418  -999.250000  -999.250000 64.705352783 105.71060181
 5769.0000000 3.0582399368 2.8241100311 2.5005700588 2.5715699196 8.2801704407 0.0839800015 2.5407199860 2.5364000797 22.380569458  -999.250000  -999.250000 64.712097168 107.29460144
 5769.5000000 4.4613800049 3.8523399830 3.2582700253 3.5055699348 8.3244104385 0.0954200029 2.7319200039 2.5525898933 49.774799347  -999.250000  -999.250000 64.601722717 108.77490234
 5770.0000000 6.4606399536 5.4965000153 4.3566198349 5.0067100525 8.3391599655 0.1161800027 2.6209499836 2.5492100716 43.345588684  -999.250000  -999.250000 64.192016602 109.58989716
 5770.5000000 8.0253095627 7.0349888802 5.1508188248 6.0541200638 8.3465299606 0.1106600016 2.3110499382 2.5273599625 25.570280075  -999.250000  -999.250000 63.981369019 109.58470154
 5771.0000000 8.1665096283 6.6650910378 4.9058198929 5.8707900047 8.2506799698 0.0915300027 2.0234200954 2.5025401115 16.700469971  -999.250000  -999.250000 63.957801819 108.86550140
 5771.5000000 8.2352714539 6.3760910034 4.5941600800 5.5065097809 8.2359399796 0.0710100010 1.9134999514 2.4771399498 14.281689644  -999.250000  -999.250000 63.757980347 107.56020355
 5772.0000000 8.3518495560 6.4195389748 4.3661899567 5.0841498375 8.2138204575 0.0652299970 1.9272799492 2.4600501060 15.137140274  -999.250000  -999.250000 63.595348358 106.06880188
 5772.5000000 7.9298200607 5.7709999084 4.1216301918 4.2273697853 8.2138204575 0.0649899989 1.9357700348 2.4632298946 15.829990387  -999.250000  -999.250000 63.474739075 104.69989777
 5773.0000000 6.4966502190 5.1151700020 3.7165799141 3.6117200851 8.1916999817 0.0679799989 1.8999300003 2.4757299423 16.329320908  -999.250000  -999.250000 63.596088409 103.45169830
 5773.5000000 5.9497499466 4.6574997902 3.4423201084 3.2056899071 8.2138204575 0.0677900016 1.8640099764 2.4827299118 17.475820541  -999.250000  -999.250000 63.027160645 102.20099640
 5774.0000000 5.2891597748 4.4001197815 3.2934699059 2.9799399376 8.2138204575 0.0682300031 1.8625600338 2.4799098969 18.378780365  -999.250000  -999.250000 63.076099396 101.05329895
 5774.5000000 5.2992401123 4.4395699501 3.3053500652 2.9328598976 8.2138204575 0.0697399974 1.8909300566 2.4715399742 15.912300110  -999.250000  -999.250000 63.123371124 100.29180145
 5775.0000000 5.8278298378 4.9330210686 3.5527799129 3.0859200954 8.2027597427 0.0768499970 1.8953100443 2.4700200558 14.978269577  -999.250000  -999.250000 63.062908173 100.05809784
 5775.5000000 5.1905798912 4.4623799324 3.3322598934 2.9056899548 8.2138204575 0.0806199983 1.8858900070 2.4690198898 13.460379601  -999.250000  -999.250000 63.248229980 100.15309906
 5776.0000000 4.5552701950 4.0783309937 3.1240000725 2.7709400654 8.2064399719 0.0785299987 1.8672100306 2.4665501118 13.565830231  -999.250000  -999.250000 63.143459320 100.26779938
 5776.5000000 4.0746498108 3.6571600437 2.8333299160 2.5292000771 8.2027597427 0.0742999986 1.8296899796 2.4688498974 13.266289711  -999.250000  -999.250000 63.531539917 100.24469757
 5777.0000000 3.5432300568 3.2114799023 2.6182599068 2.4513299465 8.2211904526 0.0730300024 1.8416399956 2.4669198990 12.595680237  -999.250000  -999.250000 63.409179688 100.04630280
 5777.5000000 2.9929099083 2.7287099361 2.3103499413 2.2431499958 8.2138204575 0.0770099983 1.9137899876 2.4775500298 12.417969704  -999.250000  -999.250000 63.404270172 99.759628296
