# LAS format log file from PETREL
# Project units are specified as depth units
#==================================================================
~Version information
VERS.   2.0:
WRAP.   NO:
#==================================================================
~Well
STRT .ft      5008.0000000          :
STOP .ft      7272.0000000          :
STEP .ft      0.50000000            :
NULL .        -999.250000           :
COMP.                               : COMPANY
WELL.         VW1                   : WELL
FLD.                                : FIELD
LOC.                                : LOCATION
SRVC.                               : SERVICE COMPANY
DATE.         2020-07-27 11:17:52   : Log Export Date {yyyy-MM-dd HH:mm:ss}
PROV.                               : PROVINCE
UWI.          121152346000          : UNIQUE WELL ID
API.          121152346000          : API NUMBER
#==================================================================
~Curve
DEPT .ft                   : DEPTH
RLA2 .ohm.m               : RLA2
RLA3 .ohm.m               : RLA3
RLA4 .ohm.m               : RLA4
RLA5 .ohm.m               : RLA5
HCAL .in                  : HCAL
HTNP .ft3/ft3             : HTNP
PEFZ .b/e                 : PEFZ
RHOZ .g/cm3               : RHOZ
RXOZ .ohm.m               : RXOZ
REFL ._                   : REFL
REFL1 ._                  : REFL 1
DTCO .us/ft               : DTCO
DTSM .us/ft               : DTSM
~Parameter
#==================================================================
~Ascii
# ...
 7098.0000000 789.82348633 1950.0000000 1950.0000000 742.66082764 8.3465299606 0.0372599997 3.4895501137 2.6551098824 3186.7160645  -999.250000  -999.250000 53.447238922 91.968086243
 7098.5000000 1201.2419434 1950.0000000 1084.4379883 371.24081421 8.3391599655 0.0353499986 3.4832301140 2.6526000500 2636.7580566  -999.250000  -999.250000 53.439620972 91.448722839
 7099.0000000 1612.7669678 1950.0000000 635.84100342 245.32609558 8.3391599655 0.0341599993 3.6278100014 2.6636099815 286.83920288  -999.250000  -999.250000 52.527709961 91.107360840
 7099.5000000 1872.4339600 1950.0000000 463.08081055 193.31210327 8.3538999557 0.0340100005 3.7763600349 2.6657099724 179.42999268  -999.250000  -999.250000 51.600780487 90.573097229
 7100.0000000 1950.0000000 1950.0000000 386.62380981 176.82400513 8.3760204315 0.0334299989 3.8408501148 2.6815199852 134.91610718  -999.250000  -999.250000 51.277561188 90.141578674
 7100.5000000 1950.0000000 1950.0000000 364.81610107 186.21640015 8.3612804413 0.0339299999 3.7650799751 2.6644299030 149.85690308  -999.250000  -999.250000 51.143581390 89.906761169
 7101.0000000 1950.0000000 1950.0000000 386.27099609 224.34809875 8.3465299606 0.0346099995 3.6320800781 2.6627800465 177.63000488  -999.250000  -999.250000 50.422290802 90.035911560
 7101.5000000 1950.0000000 1950.0000000 454.58480835 305.85079956 8.3317899704 0.0341700017 3.5249300003 2.6543300152 333.46780396  -999.250000  -999.250000 50.711059570 90.037178040
 7102.0000000 1950.0000000 1950.0000000 582.16412354 460.51699829 8.3170404434 0.0340300016 3.4596099854 2.6584899426 2581.1999512  -999.250000  -999.250000 50.577060699 90.162651062
 7102.5000000 1950.0000000 1950.0000000 776.85272217 726.82067871 8.3096704483 0.0347799994 3.4676399231 2.6541099548 3485.0739746  -999.250000  -999.250000 50.838958740 90.280227661
 7103.0000000 1950.0000000 1950.0000000 994.26922607 1096.7939453 8.3096704483 0.0357099995 3.4903900623 2.6545600891 3441.8239746  -999.250000  -999.250000 50.510818481 90.384277344
 7103.5000000 1950.0000000 1950.0000000 1095.3630371 1426.0219727 8.2875499725 0.0365899988 3.5315499306 2.6564800739 3697.4460449  -999.250000  -999.250000 50.464309692 90.395278931
 7104.0000000 1950.0000000 1950.0000000 994.38220215 1535.2259521 8.2875499725 0.0357300006 3.5615899563 2.6635000706 3900.5979004  -999.250000  -999.250000 50.430820465 90.478897095
 7104.5000000 1950.0000000 1950.0000000 799.96179199 1456.1920166 8.2949199677 0.0359999985 3.5482199192 2.6727199554 4027.5991211  -999.250000  -999.250000 50.439929962 90.616416931
 7105.0000000 1950.0000000 1950.0000000 628.24957275 1305.1929932 8.2912302017 0.0344000012 3.5315799713 2.6750299931 4012.4030762  -999.250000  -999.250000 50.437210083 90.773078918
 7105.5000000 1950.0000000 1950.0000000 509.29870605 1139.8719482 8.3096704483 0.0337899998 3.5213999748 2.6699399948 3926.9528809  -999.250000  -999.250000 50.582511902 91.178863525
 7106.0000000 1950.0000000 1950.0000000 434.66409302 972.87567139 8.3096704483 0.0352800004 3.5101799965 2.6605300903 3882.1831055  -999.250000  -999.250000 50.818000793 91.590980530
 7106.5000000 1950.0000000 1950.0000000 392.80310059 822.68731689 8.2654304504 0.0372299999 3.5057299137 2.6514201164 3803.3879395  -999.250000  -999.250000 51.177871704 91.531517029
 7107.0000000 1950.0000000 1950.0000000 376.89221191 710.80358887 8.2875499725 0.0376899987 3.5262598991 2.6447899342 3619.7299805  -999.250000  -999.250000 50.893001556 91.347221375
 7107.5000000 1950.0000000 1950.0000000 382.94180298 642.20080566 8.2801704407 0.0364300013 3.5941600800 2.6402399540 3464.8720703  -999.250000  -999.250000 50.794250488 91.646881104
 7108.0000000 1950.0000000 1950.0000000 405.72210693 605.55102539 8.2801704407 0.0351700000 3.6660099030 2.6402199268 3430.2099609  -999.250000  -999.250000 50.771080017 91.679656982
 7108.5000000 1950.0000000 1950.0000000 433.64828491 577.63012695 8.2875499725 0.0335999988 3.6789600849 2.6485900879 3477.4160156  -999.250000  -999.250000 50.662830353 91.497596741
 7109.0000000 1950.0000000 1950.0000000 450.24710083 537.06097412 8.2949199677 0.0333699994 3.6941800117 2.6516900063 3617.5161133  -999.250000  -999.250000 50.535629272 90.786453247
 7109.5000000 1950.0000000 1950.0000000 446.93951416 480.92849731 8.2875499725 0.0320600010 3.6916699409 2.6547799110 3833.0800781  -999.250000  -999.250000 50.476211548 90.120567322
 7110.0000000 1950.0000000 1950.0000000 432.73889160 427.24688721 8.2875499725 0.0324300006 3.7168099880 2.6524000168 3889.6440430  -999.250000  -999.250000 50.493709564 90.291053772
 7110.5000000 1950.0000000 1950.0000000 423.07269287 392.95788574 8.2875499725 0.0307800006 3.7323300838 2.6488099098 3743.6569824  -999.250000  -999.250000 50.356731415 90.206222534
 7111.0000000 1950.0000000 1950.0000000 426.51239014 384.84310913 8.2875499725 0.0310100000 3.7438099384 2.6433799267 3657.6320801  -999.250000  -999.250000 50.330200195 90.946403503
 7111.5000000 1950.0000000 1950.0000000 444.50268555 404.25030518 8.2875499725 0.0311699994 3.7525000572 2.6376900673 3726.6770020  -999.250000  -999.250000 50.363960266 90.990440369
 7112.0000000 1950.0000000 1950.0000000 471.83529663 447.70989990 8.2949199677 0.0313999988 3.7193500996 2.6412498951 4093.7548828  -999.250000  -999.250000 50.411758423 91.103141785
 7112.5000000 1950.0000000 1950.0000000 493.88351440 498.04458618 8.2875499725 0.0308999997 3.6288700104 2.6550400257 4155.8051758  -999.250000  -999.250000 50.370868683 90.809402466
 7113.0000000 1950.0000000 1950.0000000 491.58129883 521.17272949 8.2801704407 0.0299600009 3.5704200268 2.6610898972 4181.3242188  -999.250000  -999.250000 50.399761200 90.263511658
 7113.5000000 1950.0000000 1950.0000000 461.89309692 499.50048828 8.2912302017 0.0291900001 3.5282599926 2.6638801098 4170.4902344  -999.250000  -999.250000 50.451129913 90.236518860
 7114.0000000 1950.0000000 1950.0000000 425.11450195 459.53689575 8.2654304504 0.0288900007 3.5262999535 2.6584599018 4080.5791016  -999.250000  -999.250000 50.534820557 90.126159668
 7114.5000000 1950.0000000 1950.0000000 404.15618896 435.92230225 8.2875499725 0.0300699994 3.5089099407 2.6555199623 3404.2949219  -999.250000  -999.250000 51.084430695 90.223358154
 7115.0000000 1950.0000000 1950.0000000 411.15930176 444.66299438 8.2875499725 0.0305199996 3.5098900795 2.6509900093 3098.8779297  -999.250000  -999.250000 50.650749207 90.286209106
 7115.5000000 1950.0000000 1950.0000000 450.21130371 488.85461426 8.2801704407 0.0306000002 3.5728499889 2.6400399208 3216.2780762  -999.250000  -999.250000 50.718978882 90.248497009
 7116.0000000 1950.0000000 1950.0000000 518.11767578 560.52008057 8.2875499725 0.0290900003 3.5679900646 2.6443400383 3783.7099609  -999.250000  -999.250000 50.800609589 90.116691589
 7116.5000000 1885.1870117 1950.0000000 596.61761475 635.22589111 8.2949199677 0.0283000004 3.5497999191 2.6502599716 4054.0400391  -999.250000  -999.250000 51.254070282 90.243690491
 7117.0000000 1697.6579590 1950.0000000 653.31427002 681.99987793 8.3022899628 0.0279799998 3.5285201073 2.6549899578 4028.1831055  -999.250000  -999.250000 51.373111725 90.374267578
 7117.5000000 1399.0419922 1950.0000000 665.82409668 689.05212402 8.3022899628 0.0271199998 3.5672399998 2.6468598843 4031.8139648  -999.250000  -999.250000 51.358798981 90.491477966
 7118.0000000 1062.1309814 1950.0000000 632.83612061 652.46441650 8.3022899628 0.0255699996 3.5895500183 2.6387300491 4015.4440918  -999.250000  -999.250000 52.099189758 90.566841125
 7118.5000000 777.72662354 1950.0000000 519.61462402 577.63812256 8.3096704483 0.0272100009 3.5191600323 2.6442000866 3692.2329102  -999.250000  -999.250000 51.439178467 90.915802002
 7119.0000000 580.48797607 1950.0000000 407.72229004 424.63848877 8.3170404434 0.0284400005 3.4544699192 2.6469199657 3326.1269531  -999.250000  -999.250000 51.531570435 91.184402466
 7119.5000000 458.62051392 1950.0000000 282.01739502 311.03601074 8.3244104385 0.0308200009 3.3826999664 2.6527400017 2971.9909668  -999.250000  -999.250000 51.587718964 91.392227173
