# LAS format log file from PETREL
# Project units are specified as depth units
#==================================================================
~Version information
VERS.   2.0:
WRAP.   NO:
#==================================================================
~Well
STRT .ft      5008.0000000          :
STOP .ft      7272.0000000          :
STEP .ft      0.50000000            :
NULL .        -999.250000           :
COMP.                               : COMPANY
WELL.         VW1                   : WELL
FLD.                                : FIELD
LOC.                                : LOCATION
SRVC.                               : SERVICE COMPANY
DATE.         2020-07-27 11:17:52   : Log Export Date {yyyy-MM-dd HH:mm:ss}
PROV.                               : PROVINCE
UWI.          121152346000          : UNIQUE WELL ID
API.          121152346000          : API NUMBER
#==================================================================
~Curve
DEPT .ft                   : DEPTH
RLA2 .ohm.m               : RLA2
RLA3 .ohm.m               : RLA3
RLA4 .ohm.m               : RLA4
RLA5 .ohm.m               : RLA5
HCAL .in                  : HCAL
HTNP .ft3/ft3             : HTNP
PEFZ .b/e                 : PEFZ
RHOZ .g/cm3               : RHOZ
RXOZ .ohm.m               : RXOZ
REFL ._                   : REFL
REFL1 ._                  : REFL 1
DTCO .us/ft               : DTCO
DTSM .us/ft               : DTSM
~Parameter
#==================================================================
~Ascii
# ...
 5910.0000000 3.6230599880 3.5307700634 3.3564701080 3.4389700890 8.4718704224 0.0902900025 1.9209100008 2.4794399738 12.614179611  -999.250000  -999.250000 65.325767517 108.93209839
 5910.5000000 4.4653501511 4.1752099991 3.9841101170 4.0165400505 8.4903001785 0.0765300021 1.8989700079 2.5026299953 16.232139587  -999.250000  -999.250000 64.922836304 108.57070160
 5911.0000000 6.6247501373 6.1848888397 5.7544798851 5.9163398743 8.4939899445 0.0603299998 1.8856999874 2.5168099403 29.712190628  -999.250000  -999.250000 64.704437256 107.02480316
 5911.5000000 10.962340355 10.226499557 8.9534797668 9.1339511871 8.5087404251 0.0530299991 1.8804600239 2.5146799088 54.829139709  -999.250000  -999.250000 64.018203735 104.61129761
 5912.0000000 10.965970039 9.9540700912 8.7910604477 9.1627597809 8.5529699326 0.0584600009 1.8723599911 2.5043299198 44.165149689  -999.250000  -999.250000 63.363330841 101.67939758
 5912.5000000 8.9825696945 8.5557403564 7.6477899551 8.0090799332 8.5787801743 0.0634299964 1.8445400000 2.5061299801 30.573829651  -999.250000  -999.250000 62.567871094 100.16549683
 5913.0000000 8.5675296783 8.2614803314 7.3993201256 7.5630002022 8.6045904160 0.0635899976 1.8461199999 2.5137600899 24.985820770  -999.250000  -999.250000 63.123649597 100.37270355
 5913.5000000 8.9535903931 8.3445196152 7.3743100166 7.4310398102 8.6451396942 0.0703499988 1.8534599543 2.5290200710 31.189430237  -999.250000  -999.250000 63.101119995 101.56410217
 5914.0000000 9.1425008774 8.3236103058 7.3131198883 7.2352399826 8.6783199310 0.0804800019 1.8659100533 2.5318300724 24.559719086  -999.250000  -999.250000 63.211631775 103.01959991
 5914.5000000 9.1541500092 8.2507085800 7.2204790115 7.0123701096 8.6930599213 0.0877000019 1.8907599449 2.5105800629 21.509849548  -999.250000  -999.250000 64.270507813 104.34970093
 5915.0000000 8.3644599915 7.8567600250 6.9833397865 6.6878499985 8.6783199310 0.0884499997 1.8919299841 2.4875600338 16.753490448  -999.250000  -999.250000 64.522689819 105.51399994
 5915.5000000 7.8219399452 7.6156902313 6.8335099220 6.5062198639 8.7078104019 0.0826700032 1.9031200409 2.4724500179 19.181339264  -999.250000  -999.250000 64.718963623 106.21130371
 5916.0000000 7.8491702080 7.3864598274 6.7577400208 6.4681811333 8.7446699142 0.0749400035 1.8986899853 2.4818201065 22.440629959  -999.250000  -999.250000 65.016403198 106.58090210
 5916.5000000 8.0003299713 7.7646398544 7.0249199867 6.7287788391 8.7446699142 0.0743200034 1.8897600174 2.4939200878 27.785430908  -999.250000  -999.250000 65.609001160 106.87329865
 5917.0000000 7.2167901993 7.1917400360 6.6167402267 6.5276198387 8.7299299240 0.0860399976 1.8564100266 2.4969298840 25.036130905  -999.250000  -999.250000 65.603698730 106.92040253
 5917.5000000 6.9156088829 6.8474001884 6.4399800301 6.4004411697 8.6709403992 0.0976900011 1.8036299944 2.4897100925 22.976139069  -999.250000  -999.250000 65.600502014 106.80979919
 5918.0000000 6.5849299431 6.5626502037 6.2807202339 6.4377498627 8.6119604111 0.1064200029 1.8065500259 2.4728701115 24.219400406  -999.250000  -999.250000 65.545349121 106.52490234
 5918.5000000 7.0163002014 7.0083799362 6.6965098381 7.1885399818 8.6193304062 0.1104900017 1.8546700478 2.4612300396 27.179559708  -999.250000  -999.250000 65.263862610 106.25180054
 5919.0000000 7.4628000259 7.3697299957 7.0712289810 8.0847301483 8.5972099304 0.1083000004 1.9361000061 2.4596800804 29.453840256  -999.250000  -999.250000 65.221496582 106.05020142
 5919.5000000 8.1281700134 7.8357901573 7.5098199844 8.5802097321 8.6045904160 0.0984499976 1.9873499870 2.4758400917 28.977750778  -999.250000  -999.250000 65.102371216 105.79010010
 5920.0000000 8.7422590256 8.3877096176 7.8219399452 9.1566295624 8.6230201721 0.0814099982 2.0085101128 2.4965300560 23.059709549  -999.250000  -999.250000 64.458862305 105.35710144
 5920.5000000 8.3200798035 7.9318399429 7.3777599335 8.6296501160 8.6119604111 0.0734300017 1.9940400124 2.5124800205 21.218759537  -999.250000  -999.250000 64.132629395 104.84950256
 5921.0000000 7.6793899536 7.1270599365 6.5393800735 7.5243902206 8.6414499283 0.0723100007 1.9599900246 2.5192201138 21.190200806  -999.250000  -999.250000 63.783370972 104.53060150
 5921.5000000 7.5596289635 6.7864599228 6.2388300896 6.9842700958 8.6414499283 0.0719899982 1.9247599840 2.5211000443 23.465299606  -999.250000  -999.250000 64.027999878 104.41600037
 5922.0000000 7.4573688507 6.6468009949 5.9417700768 6.4773502350 8.6562004089 0.0713400021 1.9021899700 2.5162799358 25.210550308  -999.250000  -999.250000 63.904308319 104.49269867
 5922.5000000 7.1654009819 6.2820100784 5.5899901390 5.9484701157 8.6488199234 0.0707900003 1.8719400167 2.5112199783 26.919500351  -999.250000  -999.250000 64.150093079 104.78589630
 5923.0000000 7.0937500000 6.1452798843 5.3743600845 5.5826997757 8.5898399353 0.0726599991 1.8365700245 2.5021600723 27.171039581  -999.250000  -999.250000 64.635772705 105.20130157
 5923.5000000 6.9406099319 5.9935989380 5.2771010399 5.3554701805 8.5898399353 0.0766500011 1.8378200531 2.4795100689 20.758369446  -999.250000  -999.250000 64.801063538 105.57379913
 5924.0000000 6.4856200218 5.6891598701 5.0118699074 5.0060000420 8.6562004089 0.0767799988 1.8384599686 2.4643399715 15.469400406  -999.250000  -999.250000 64.921058655 105.75399780
 5924.5000000 5.9315700531 5.2906498909 4.7443699837 4.6931700706 8.6930599213 0.0755300000 1.8502399921 2.4626801014 15.965370178  -999.250000  -999.250000 64.687469482 105.47299957
 5925.0000000 6.9859199524 6.2738599777 5.4791698456 5.3667998314 8.6672601700 0.0736000016 1.8397500515 2.4850499630 22.767990112  -999.250000  -999.250000 64.600402832 104.41239929
 5925.5000000 9.1306295395 7.9990000725 6.8116388321 6.6230401993 8.6193304062 0.0693700016 1.8511799574 2.5013799667 49.804370880  -999.250000  -999.250000 64.331802368 102.57070160
 5926.0000000 11.278360367 9.7859802246 8.1230297089 7.8832001686 8.5013599396 0.0634900033 1.8736799955 2.5051200390 72.223663330  -999.250000  -999.250000 64.006652832 100.80280304
 5926.5000000 12.780369759 11.942319870 9.6318407059 9.3877401352 8.5013599396 0.0628399998 1.8776700497 2.5030798912 64.722633362  -999.250000  -999.250000 63.642440796 99.913757324
 5927.0000000 12.930120468 11.593020439 9.2495698929 9.2841701508 8.5087404251 0.0655499995 1.8872799873 2.4972200394 48.231281281  -999.250000  -999.250000 63.161128998 99.729087830
 5927.5000000 13.284469604 11.512049675 9.2072000504 9.4362802505 8.5087404251 0.0677300021 1.8653000593 2.5020799637 42.665649414  -999.250000  -999.250000 63.194190979 99.900451660
 5928.0000000 13.158379555 11.284159660 9.0848302841 9.4082498550 8.4792499542 0.0679299980 1.8609000444 2.5034799576 42.705551147  -999.250000  -999.250000 63.529369354 100.28279877
 5928.5000000 12.762760162 10.664779663 8.4838390350 8.4930496216 8.5234804153 0.0712400004 1.8470799923 2.5060698986 43.762058258  -999.250000  -999.250000 63.437778473 100.73789978
 5929.0000000 12.200269699 10.359310150 8.1741304398 8.1261997223 8.5308599472 0.0754799992 1.8444700241 2.5029098988 41.769489288  -999.250000  -999.250000 63.583068848 101.15709686
 5929.5000000 11.855739594 10.068849564 7.9173111916 7.8401999474 8.5382299423 0.0747300014 1.8270900249 2.5020899773 41.488449097  -999.250000  -999.250000 63.639739990 101.50530243
 5930.0000000 11.455309868 9.8808498383 7.6805200577 7.6043100357 8.5124197006 0.0709799975 1.8221700191 2.4964098930 41.197940826  -999.250000  -999.250000 63.702800751 101.74790192
 5930.5000000 10.918829918 9.4185695648 7.5766301155 7.4101800919 8.5087404251 0.0683899969 1.8425099850 2.4850099087 43.401050568  -999.250000  -999.250000 64.063781738 101.88040161
 5931.0000000 11.170820236 9.7591695786 7.8000998497 7.5507798195 8.4718704224 0.0670000017 1.8459199667 2.4794299603 46.889759064  -999.250000  -999.250000 64.238647461 101.95819855
 5931.5000000 11.358779907 10.152409554 8.0138797760 7.6729297638 8.4792499542 0.0706000030 1.8437999487 2.4766299725 40.760288239  -999.250000  -999.250000 64.169952393 101.81759644
