~Version Information
VERS  .          2.0                              :CWLS Log Ascii Standard - Version 2.0
WRAP  .          NO                               :One line per depth step
~Well Information Block
#MNEM.UNIT       Data Type                        Information
#---------       ---------                        -------------------------------
STRT  .F         5250.00000                       :START DEPTH
STOP  .F         7202.00000                       :STOP DEPTH
STEP  .F          0.50000                         :INCREMENT
NULL  .          -999.25                          :NULL DATA VALUE
COMP  .          ADM COMPANY                      :COMPANY
WELL  .          VERIFICATION WELL 1 Run 2        :WELL
FLD   .          WILDCAT                          :FIELD
LOC   .                                           :LOCATION
PROV  .                                           :PROVINCE
STAT  .                                           :STATE
CNTY  .                                           :COUNTY
CTRY  .                                           :COUNTRY
DATE  .                                           :DATE
UWI   .          VERIFICATION WELL 1 Run 2        :UNIQUE WELL UWI
LIC   .                                           :LICENSE NUMBER
API   .          121152346000                     :API NUMBER
SRVC  .                                           :SERVICE COMPANY
~Parameter Information Block
#MNEM.UNIT       Value                            Description
#---------       ---------                        -------------
LONG  .DEG       -88.893356                       :Well Surface Location
LATI  .DEG       39.879810                        :Well Surface Location
XWELL .DEG       -88.893356                       :X-coordinate of Well Head
YWELL .DEG       39.879810                        :Y-coordinate of Well Head
PDAT  .          GROUND LEVEL                     :Permanent Datum               
EPD   .ft        669.00                           :Elevation of Permanent Datum (PDAT) above Mean Sea Level
LMF   .          KELLY BUSHING                    :Logging Measured From (Name of Working Datum)
APD   .ft        15.00                            :Elevation of Working Datum (LMF) Above Permanent Datum
EDF   .ft        683.00                           :Elevation of Derrick Floor Above Mean Sea Level
EGL   .ft        669.00                           :Elevation of Ground Level Above Mean Sea Level
EKB   .ft        684.00                           :Elevation of Kelly Bushing Above Mean Sea Level
~Curve Information Block
#MNEM.UNIT       API Code            Curve    Description
#--------        --------------      -----    -------------------
DEPT  .F                             :0       Index
C44_BH.6PSI                          :1       C44 Referred to the Borehole Axis in a Deviated Well
C55_BH.6PSI                          :2       C55 Referred to the Borehole Axis in a Deviated Well
C66_BH.6PSI                          :3       C66 Referred to the Borehole Axis in a Deviated Well
GR_EDTC.GAPI                          :4       Gamma Ray                     
HD1_PPC1.IN                            :5       PPC1 Hole Diameter 1          
HD1_PPC1.IN                            :6       PPC1 Hole Diameter 1          
HD2_PPC1.IN                            :7       PPC1 Hole Diameter 2          
KINT  .MD                            :8       Intrinsic Permeability        
MAXXENE_OVERALL.                              :9       Overall estimate of maximum cross energy
MINXENE_OVERALL.                              :10      Overall estimate of minimum cross energy
PHIT  .V/V                           :11      Total Porosity_ includes all forms of porosity, including that occupied by bound fluids, and is independent of rock and fluid materials and of environmental effects
PPGI  .PS/F                          :12      Pore Pressure Gradient        
PPRS  .PSI                           :13      Pore Pressure                 
PR_HORIZ_FSA_SSA_DYN.                              :14      Dynamic Horizontal Poissons Ratio - Loading Fast Shear Azimuth - Displacement Slow Shear Aximuth
PR_VERT_FSA_DYN.                              :15      Dynamic Vertical Poissons Ratio - Loading Vertical - Displacement Fast Shear Aximuth
RHOZ  .G/C3                          :16      HRDD Standard Resolution Formation Density
SUWI  .V/V                           :17      Non-Clay Water Intergranular Water Saturation for Undisturbed Zone
TENS  .LBF                           :18      Cable Tension                 
TXSG  .PS/F                          :19      Total Minimum Horizontal Stress Gradient
TXSG  .PS/F                          :20      Total Minimum Horizontal Stress Gradient
TXSP  .PSI                           :21      Total Minimum Horizontal Stress - Sigma X
TXSP  .PSI                           :22      Total Minimum Horizontal Stress - Sigma X
TZSG  .PS/F                          :23      Total Vertical Stress Gradient
TZSP  .PSI                           :24      Total Vertical Stress - Sigma Z
VCL   .V/V                           :25      Volume of Clay Type Material Relative to Total Volume
YME_HORIZ_SSA_DYN.6PSI                          :26      Dynamic Horizontal Youngs Modulus in the Slow Shear Azimuth Direction
YME_HORIZ_SSA_STA.6PSI                          :27      Static Horizontal Youngs Modulus in the Slow Shear Azimuth Direction
YME_VERT_DYN.6PSI                          :28      Dynamic Vertical Youngs Modulus
YME_VERT_STA.6PSI                          :29      Static Vertical Youngs Modulus
~Ascii Data Section
# ...
   6800.00000       1.56149       1.50127       1.47005      84.46376       8.28369       8.26189       8.30549      46.54080       1.30199       0.75236       0.16152       0.43350    2947.80005       0.28620       0.28620       2.38140       1.00000    3434.84717       0.65571       0.67354    4458.85205    4580.08350       1.05000    7139.99951       0.08591       3.64106       2.20475       4.01678       2.43226 
   6800.50000       1.50893       1.45010       1.39099      80.18711       8.28563       8.26920       8.30207      53.29804       1.31559       0.75553       0.16812       0.43350    2948.01660       0.28357       0.28357       2.36461       1.00000    3472.45776       0.65269       0.67048    4438.63477    4559.57275       1.05000    7140.52490       0.09403       3.50827       2.07317       3.87362       2.28907 
   6801.00000       1.49218       1.43396       1.40137      82.65293       8.28060       8.25913       8.30207      47.36518       1.32829       0.70296       0.16851       0.43350    2948.23340       0.28549       0.28549       2.35965       1.00000    3480.11768       0.65470       0.67266    4452.59082    4574.74707       1.05000    7141.04980       0.10676       3.47377       2.04979       3.83638       2.26376 
   6801.50000       1.50514       1.44398       1.44120      82.39922       8.27274       8.25190       8.29358      44.98312       1.36478       0.65176       0.16455       0.43350    2948.45020       0.29606       0.29606       2.36015       1.00000    3389.48779       0.69278       0.69278    4711.94531    4711.94531       1.05000    7141.57471       0.11871       3.79341       2.27160       3.79341       2.27160 
   6802.00000       1.54074       1.47669       1.51033      94.91525       8.26454       8.24418       8.28491      37.44213       1.44711       0.67652       0.15951       0.43350    2948.66699       0.29925       0.29925       2.36831       1.00000    3373.36279       0.69677       0.69677    4739.42432    4739.42432       1.05000    7142.09961       0.12697       3.92179       2.39216       3.92179       2.39216 
   6802.50000       1.58526       1.50638       1.46441     106.74557       8.26440       8.24813       8.28068      31.19465       1.58726       0.78106       0.15769       0.43350    2948.88379       0.30026       0.30026       2.37671       1.00000    3373.25000       0.66360       0.68770    4514.16602    4678.09326       1.05000    7142.62451       0.12880       3.62842       2.22781       4.12251       2.53118 
   6803.00000       1.63326       1.53565       1.54298     111.57531       8.26770       8.26339       8.27201      26.12756       1.78874       0.89108       0.15796       0.43350    2949.10034       0.29715       0.29715       2.38297       1.00000    3435.36523       0.65423       0.68229    4450.69531    4641.58789       1.05000    7143.14990       0.12635       3.63738       2.23114       4.23719       2.59906 
   6803.50000       1.67064       1.57098       1.61917     109.35995       8.29433       8.29373       8.29494      22.86712       2.03533       0.91860       0.15252       0.43350    2949.31714       0.29369       0.29369       2.38903       1.00000    3418.78198       0.65081       0.67838    4427.79590    4615.38232       1.05000    7143.67480       0.13148       3.71311       2.32224       4.32258       2.70341 
   6804.00000       1.70775       1.61212       1.62150     103.18549       8.28243       8.27128       8.29358      19.68936       2.27439       0.91818       0.14419       0.43350    2949.53394       0.28637       0.28637       2.39916       1.00000    3401.17651       0.64563       0.67079    4392.86035    4564.08154       1.05000    7144.19971       0.12966       3.81188       2.45419       4.39358       2.82870 
   6804.50000       1.72980       1.63319       1.66126     103.80080       8.26063       8.25070       8.27055      21.70209       2.41967       0.91213       0.14584       0.43350    2949.75073       0.27747       0.27747       2.39853       1.00000    3405.79761       0.63694       0.66101    4334.08740    4497.86475       1.05000    7144.72461       0.12288       3.83930       2.45784       4.41955       2.82930 
   6805.00000       1.74140       1.64510       1.69649     108.34818       8.27299       8.24813       8.29785      27.87531       2.47397       0.89934       0.15279       0.43350    2949.96753       0.27226       0.26863       2.38751       1.00000    3436.22217       0.65917       0.66471    4485.65479    4523.33350       1.05000    7145.24951       0.11762       4.31676       2.69719       4.35302       2.71985 
   6805.50000       1.74214       1.65041       1.67970     114.96392       8.26867       8.24813       8.28920      36.81598       2.51122       0.87338       0.15988       0.43350    2950.18408       0.26840       0.26840       2.36868       1.00000    3456.17163       0.62983       0.65166    4286.33984    4434.87842       1.05000    7145.77490       0.11489       3.87330       2.35942       4.41945       2.69211 
   6806.00000       1.75074       1.66374       1.72044     116.02217       8.27111       8.25442       8.28780      43.99328       2.54690       0.83598       0.15748       0.43350    2950.40088       0.26994       0.26796       2.36033       1.00000    3444.72559       0.65956       0.66330    4488.99707    4514.41846       1.05000    7146.29980       0.10899       4.36971       2.68498       4.37382       2.68751 
   6806.50000       1.77673       1.69088       1.80694     114.26649       8.27651       8.25945       8.29358      38.74315       2.57554       0.79668       0.14789       0.43350    2950.61768       0.26569       0.27136       2.36546       1.00000    3412.33325       0.66980       0.66608    4559.02588    4533.67383       1.05000    7146.82471       0.10754       4.57406       2.90750       4.40995       2.80318 
   6807.00000       1.82735       1.73498       1.93226     114.92901       8.27246       8.25567       8.28924      32.09607       2.60493       0.75942       0.13910       0.43350    2950.83447       0.25847       0.27393       2.38585       1.00000    3389.43750       0.68058       0.66765    4632.72510    4544.66895       1.05000    7147.34961       0.10605       4.86340       3.18589       4.48266       2.93648 
   6807.50000       1.89534       1.78549       2.06923     121.20921       8.26704       8.25064       8.28343      23.64337       2.56659       0.71701       0.13284       0.43350    2951.05127       0.25027       0.27481       2.40945       1.00000    3387.77075       0.68877       0.66732    4688.76807    4542.80664       1.05000    7147.87451       0.11302       5.17419       3.46107       4.58042       3.06389 
   6808.00000       1.97150       1.83619       2.18102     134.72179       8.27781       8.26070       8.29491      17.60806       2.48153       0.67631       0.12232       0.43350    2951.26807       0.24548       0.27469       2.43189       1.00000    3373.45752       0.69241       0.66657    4713.89697    4538.02100       1.05000    7148.39990       0.11563       5.43283       3.76039       4.70971       3.25988 
   6808.50000       2.04191       1.89713       2.24143     136.75977       8.28862       8.27076       8.30647      10.93193       2.31504       0.61632       0.10890       0.43350    2951.48462       0.24790       0.27593       2.45929       1.00000    3330.11768       0.69262       0.66802    4715.72461    4548.23096       1.05000    7148.92480       0.11887       5.59414       4.03796       4.88286       3.52455 
   6809.00000       2.10573       1.97980       2.24498     124.93890       8.28211       8.27076       8.29346       6.45691       2.10233       0.53001       0.09753       0.43350    2951.70142       0.25605       0.27581       2.48614       1.00000    3294.50000       0.68563       0.66846    4668.45898    4551.55518       1.05000    7149.44971       0.11695       5.63959       4.21248       5.11225       3.81859 
   6809.50000       2.17417       2.05747       2.21114     100.09719       8.28296       8.25945       8.30647       8.09031       1.94335       0.48320       0.10147       0.43350    2951.91821       0.25956       0.26576       2.49913       1.00000    3394.25024       0.66384       0.65928    4520.42529    4489.38428       1.05000    7149.97461       0.09998       5.57015       4.11211       5.35098       3.95031 
