~Version Information
VERS  .          2.0                              :CWLS Log Ascii Standard - Version 2.0
WRAP  .          NO                               :One line per depth step
~Well Information Block
#MNEM.UNIT       Data Type                        Information
#---------       ---------                        -------------------------------
STRT  .F         5250.00000                       :START DEPTH
STOP  .F         7202.00000                       :STOP DEPTH
STEP  .F          0.50000                         :INCREMENT
NULL  .          -999.25                          :NULL DATA VALUE
COMP  .          ADM COMPANY                      :COMPANY
WELL  .          VERIFICATION WELL 1 Run 2        :WELL
FLD   .          WILDCAT                          :FIELD
LOC   .                                           :LOCATION
PROV  .                                           :PROVINCE
STAT  .                                           :STATE
CNTY  .                                           :COUNTY
CTRY  .                                           :COUNTRY
DATE  .                                           :DATE
UWI   .          VERIFICATION WELL 1 Run 2        :UNIQUE WELL UWI
LIC   .                                           :LICENSE NUMBER
API   .          121152346000                     :API NUMBER
SRVC  .                                           :SERVICE COMPANY
~Parameter Information Block
#MNEM.UNIT       Value                            Description
#---------       ---------                        -------------
LONG  .DEG       -88.893356                       :Well Surface Location
LATI  .DEG       39.879810                        :Well Surface Location
XWELL .DEG       -88.893356                       :X-coordinate of Well Head
YWELL .DEG       39.879810                        :Y-coordinate of Well Head
PDAT  .          GROUND LEVEL                     :Permanent Datum               
EPD   .ft        669.00                           :Elevation of Permanent Datum (PDAT) above Mean Sea Level
LMF   .          KELLY BUSHING                    :Logging Measured From (Name of Working Datum)
APD   .ft        15.00                            :Elevation of Working Datum (LMF) Above Permanent Datum
EDF   .ft        683.00                           :Elevation of Derrick Floor Above Mean Sea Level
EGL   .ft        669.00                           :Elevation of Ground Level Above Mean Sea Level
EKB   .ft        684.00                           :Elevation of Kelly Bushing Above Mean Sea Level
~Curve Information Block
#MNEM.UNIT       API Code            Curve    Description
#--------        --------------      -----    -------------------
DEPT  .F                             :0       Index
C44_BH.6PSI                          :1       C44 Referred to the Borehole Axis in a Deviated Well
C55_BH.6PSI                          :2       C55 Referred to the Borehole Axis in a Deviated Well
C66_BH.6PSI                          :3       C66 Referred to the Borehole Axis in a Deviated Well
GR_EDTC.GAPI                          :4       Gamma Ray                     
HD1_PPC1.IN                            :5       PPC1 Hole Diameter 1          
HD1_PPC1.IN                            :6       PPC1 Hole Diameter 1          
HD2_PPC1.IN                            :7       PPC1 Hole Diameter 2          
KINT  .MD                            :8       Intrinsic Permeability        
MAXXENE_OVERALL.                              :9       Overall estimate of maximum cross energy
MINXENE_OVERALL.                              :10      Overall estimate of minimum cross energy
PHIT  .V/V                           :11      Total Porosity_ includes all forms of porosity, including that occupied by bound fluids, and is independent of rock and fluid materials and of environmental effects
PPGI  .PS/F                          :12      Pore Pressure Gradient        
PPRS  .PSI                           :13      Pore Pressure                 
PR_HORIZ_FSA_SSA_DYN.                              :14      Dynamic Horizontal Poissons Ratio - Loading Fast Shear Azimuth - Displacement Slow Shear Aximuth
PR_VERT_FSA_DYN.                              :15      Dynamic Vertical Poissons Ratio - Loading Vertical - Displacement Fast Shear Aximuth
RHOZ  .G/C3                          :16      HRDD Standard Resolution Formation Density
SUWI  .V/V                           :17      Non-Clay Water Intergranular Water Saturation for Undisturbed Zone
TENS  .LBF                           :18      Cable Tension                 
TXSG  .PS/F                          :19      Total Minimum Horizontal Stress Gradient
TXSG  .PS/F                          :20      Total Minimum Horizontal Stress Gradient
TXSP  .PSI                           :21      Total Minimum Horizontal Stress - Sigma X
TXSP  .PSI                           :22      Total Minimum Horizontal Stress - Sigma X
TZSG  .PS/F                          :23      Total Vertical Stress Gradient
TZSP  .PSI                           :24      Total Vertical Stress - Sigma Z
VCL   .V/V                           :25      Volume of Clay Type Material Relative to Total Volume
YME_HORIZ_SSA_DYN.6PSI                          :26      Dynamic Horizontal Youngs Modulus in the Slow Shear Azimuth Direction
YME_HORIZ_SSA_STA.6PSI                          :27      Static Horizontal Youngs Modulus in the Slow Shear Azimuth Direction
YME_VERT_DYN.6PSI                          :28      Dynamic Vertical Youngs Modulus
YME_VERT_STA.6PSI                          :29      Static Vertical Youngs Modulus
~Ascii Data Section
# ...
   6410.00000       2.39849       2.21032       2.37142      30.72187       8.42030       8.40484       8.43576     132.00084       5.25880       0.54170       0.15599       0.43350    2778.73486       0.20784       0.20764       2.39575       1.00000    3418.16357       0.59792       0.60126    3832.65161    3854.04712       1.05000    6730.49951       0.01578       5.72862       3.53884       5.63047       3.47820 
   6410.50000       2.41083       2.22891       2.40158      31.61654       8.41341       8.39970       8.42711     139.51849       4.89257       0.54547       0.15455       0.43350    2778.95166       0.20711       0.20813       2.40859       1.00000    3384.45093       0.59951       0.60065    3843.15039    3850.46094       1.05000    6731.02490       0.01187       5.79797       3.60013       5.65209       3.50955 
   6411.00000       2.40539       2.23146       2.46612      32.79080       8.41253       8.40227       8.42279     127.55220       4.52771       0.53475       0.14935       0.43350    2779.16846       0.21007       0.21650       2.41580       1.00000    3345.53809       0.61294       0.60545    3929.57446    3881.56445       1.05000    6731.54980       0.01173       5.96837       3.77452       5.61998       3.55419 
   6411.50000       2.38997       2.22618       2.56258      34.46331       8.41224       8.40741       8.41707      88.45542       4.23286       0.52102       0.14241       0.43350    2779.38525       0.21129       0.22769       2.42154       1.00000    3361.14600       0.63305       0.61177    4058.80322    3922.35107       1.05000    6732.07471       0.02007       6.20805       4.02132       5.53677       3.58649 
   6412.00000       2.35427       2.20216       2.60975      36.75978       8.41728       8.40741       8.42715      64.63928       4.03489       0.50360       0.14239       0.43350    2779.60205       0.20994       0.23460       2.40931       1.00000    3402.13745       0.64702       0.61552    4148.68213    3946.69702       1.05000    6732.59961       0.03455       6.31531       4.09109       5.41461       3.50761 
   6412.50000       2.32426       2.18011       2.56732      39.00486       8.43721       8.40998       8.46444      70.96343       3.92170       0.47348       0.15010       0.43350    2779.81860       0.21023       0.23358       2.39799       1.00000    3396.43799       0.64488       0.61491    4135.31836    3943.14014       1.05000    6733.12451       0.03864       6.21408       3.91962       5.36016       3.38100 
   6413.00000       2.30504       2.16375       2.50953      39.76660       8.44551       8.41515       8.47588      98.81082       3.86131       0.44425       0.15671       0.43350    2780.03540       0.20930       0.22846       2.38878       1.00000    3356.79761       0.63623       0.61102    4080.14624    3918.44434       1.05000    6733.64990       0.02942       6.06956       3.73979       5.33290       3.28590 
   6413.50000       2.30618       2.16742       2.49565      38.44944       8.43598       8.38457       8.48740     140.14993       3.83763       0.43204       0.15756       0.43350    2780.25220       0.20962       0.22729       2.39618       1.00000    3318.94116       0.63369       0.61033    4064.19995    3914.36646       1.05000    6734.17480       0.01336       6.03760       3.70876       5.34688       3.28446 
   6414.00000       2.31973       2.18603       2.49311      36.01106       8.42386       8.37329       8.47444     144.22000       3.86309       0.41960       0.15237       0.43350    2780.46899       0.21351       0.23008       2.41315       1.00000    3374.17651       0.63522       0.61384    4074.27905    3937.16016       1.05000    6734.69971       0.00406       6.05082       3.78628       5.40986       3.38521 
   6414.50000       2.33042       2.19912       2.45020      33.87637       8.42308       8.38457       8.46159     126.43894       3.91445       0.40012       0.14758       0.43350    2780.68579       0.21855       0.23047       2.41774       1.00000    3405.81250       0.63129       0.61652    4049.39185    3954.65381       1.05000    6735.22461       0.00321       5.97138       3.79979       5.48931       3.49303 
   6415.00000       2.33165       2.20192       2.38221      30.12209       8.43034       8.37329       8.48740     112.45599       3.98425       0.38243       0.14633       0.43350    2780.90234       0.21871       0.22432       2.40809       1.00000    3384.76465       0.61930       0.61307    3972.80688    3932.81201       1.05000    6735.74951       0.00612       5.80647       3.71090       5.53179       3.53534 
   6415.50000       2.32037       2.18581       2.28736      28.59702       8.39874       8.36172       8.43576     140.14639       4.06390       0.36866       0.15787       0.43350    2781.11914       0.20928       0.20817       2.38201       1.00000    3297.82349       0.59668       0.60075    3828.01001    3854.11621       1.05000    6736.27490       0.00954       5.53212       3.39446       5.50232       3.37618 
   6416.00000       2.29952       2.15570       2.21253      25.71457       8.39161       8.37329       8.40993     181.52034       4.16418       0.33388       0.17003       0.43350    2781.33594       0.18507       0.18507       2.35483       1.00000    3247.87500       0.55381       0.56986    3553.22217    3656.21924       1.05000    6736.79980       0.01123       4.70602       2.76110       5.45019       3.19772 
   6416.50000       2.26104       2.11512       2.19387      23.94679       8.37939       8.36172       8.39706     228.92332       4.23563       0.29859       0.17751       0.43350    2781.55273       0.18194       0.17920       2.33930       1.00000    3391.82349       0.56708       0.57537    3638.69775    3691.84058       1.05000    6737.32471       0.00880       5.18605       2.95701       5.24276       2.98935 
   6417.00000       2.23587       2.09197       2.21707      19.93202       8.38498       8.37300       8.39695     286.31552       4.33337       0.29341       0.18000       0.43350    2781.76953       0.18374       0.18374       2.34676       1.00000    3413.70605       0.57453       0.57684    3686.73291    3701.60938       1.05000    6737.84961       0.00185       5.24885       2.96393       5.16495       2.91656 
   6417.50000       2.23963       2.09905       2.23360      19.97755       8.39725       8.38457       8.40993     229.79706       4.52334       0.29663       0.17349       0.43350    2781.98608       0.19265       0.19347       2.37393       1.00000    3407.29419       0.58457       0.58531    3751.45728    3756.22119       1.05000    6738.37451       0.00530       5.32783       3.08518       5.21031       3.01713 
   6418.00000       2.27466       2.12556       2.25751      20.23260       8.39161       8.37329       8.40993     115.45482       4.86518       0.31862       0.15700       0.43350    2782.20288       0.20689       0.20709       2.40850       1.00000    3422.47070       0.59723       0.59934    3833.00098    3846.57593       1.05000    6738.89990       0.01878       5.44910       3.35400       5.35740       3.29755 
   6418.50000       2.33288       2.15034       2.24075      23.23587       8.42872       8.39585       8.46159      55.95200       5.53050       0.36782       0.13854       0.43350    2782.41968       0.20899       0.20899       2.42675       1.00000    3371.70581       0.56760       0.59037    3643.13794    3789.26318       1.05000    6739.42480       0.03132       4.68022       3.07169       5.64084       3.70216 
   6419.00000       2.39246       2.16626       2.20806      24.90475       8.42086       8.38437       8.45735      34.23825       6.06094       0.42749       0.13105       0.43350    2782.63647       0.20506       0.20506       2.42494       1.00000    3367.41187       0.55944       0.58574    3591.05103    3759.87988       1.05000    6739.94971       0.04447       4.60674       3.09972       5.76609       3.87981 
   6419.50000       2.41506       2.16687       2.17117      26.63454       8.40289       8.39585       8.40993      37.53214       6.29297       0.47277       0.13515       0.43350    2782.85327       0.19838       0.19838       2.41032       1.00000    3388.00000       0.55216       0.57934    3544.58740    3719.08154       1.05000    6740.47461       0.05191       4.54157       3.01472       5.78832       3.84231 
