~Version Information
VERS  .          2.0                              :CWLS Log Ascii Standard - Version 2.0
WRAP  .          NO                               :One line per depth step
~Well Information Block
#MNEM.UNIT       Data Type                        Information
#---------       ---------                        -------------------------------
STRT  .F         1820.00000                       :START DEPTH
STOP  .F         5250.00000                       :STOP DEPTH
STEP  .F          0.50000                         :INCREMENT
NULL  .          -999.25                          :NULL DATA VALUE
COMP  .          ADM COMPANY                      :COMPANY
WELL  .          VERIFICATION WELL 1              :WELL
FLD   .          WILDCAT                          :FIELD
LOC   .                                           :LOCATION
PROV  .                                           :PROVINCE
STAT  .                                           :STATE
CNTY  .                                           :COUNTY
CTRY  .                                           :COUNTRY
DATE  .                                           :DATE
UWI   .          VERIFICATION WELL 1              :UNIQUE WELL UWI
LIC   .                                           :LICENSE NUMBER
API   .                                           :API NUMBER
SRVC  .                                           :SERVICE COMPANY
~Parameter Information Block
#MNEM.UNIT       Value                            Description
#---------       ---------                        -------------
LONG  .DEG       -88.893356                       :Well Surface Location
LATI  .DEG       39.879810                        :Well Surface Location
XWELL .DEG       -88.893356                       :X-coordinate of Well Head
YWELL .DEG       39.879810                        :Y-coordinate of Well Head
PDAT  .          GROUND LEVEL                     :Permanent Datum               
EPD   .ft        669.00                           :Elevation of Permanent Datum (PDAT) above Mean Sea Level
LMF   .          KELLY BUSHING                    :Logging Measured From (Name of Working Datum)
APD   .ft        15.00                            :Elevation of Working Datum (LMF) Above Permanent Datum
EDF   .ft        683.00                           :Elevation of Derrick Floor Above Mean Sea Level
EGL   .ft        669.00                           :Elevation of Ground Level Above Mean Sea Level
EKB   .ft        684.00                           :Elevation of Kelly Bushing Above Mean Sea Level
~Curve Information Block
#MNEM.UNIT       API Code            Curve    Description
#--------        --------------      -----    -------------------
DEPT  .F                             :0       Index
C44_BH.6PSI                          :1       C44 Referred to the Borehole Axis in a Deviated Well
C55_BH.6PSI                          :2       C55 Referred to the Borehole Axis in a Deviated Well
C66_BH.6PSI                          :3       C66 Referred to the Borehole Axis in a Deviated Well
GR_EDTC.GAPI                          :4       Gamma Ray                     
HD1_PPC1.IN                            :5       PPC1 Hole Diameter 1          
HD1_PPC1.IN                            :6       PPC1 Hole Diameter 1          
HD2_PPC1.IN                            :7       PPC1 Hole Diameter 2          
KINT  .MD                            :8       Intrinsic Permeability        
MAXXENE_OVERALL.                              :9       Overall estimate of maximum cross energy
MINXENE_OVERALL.                              :10      Overall estimate of minimum cross energy
PHIT  .V/V                           :11      Total Porosity_ includes all forms of porosity, including that occupied by bound fluids, and is independent of rock and fluid materials and of environmental effects
PPGI  .PS/F                          :12      Pore Pressure Gradient        
PPRS  .PSI                           :13      Pore Pressure                 
PR_HORIZ_SSA_FSA_DYN.                              :14      Dynamic Horizontal Poissons Ratio - Loading Slow Shear Azimuth - Displacement Fast Shear Azimuth
PR_VERT_FSA_DYN.                              :15      Dynamic Vertical Poissons Ratio - Loading Vertical - Displacement Fast Shear Aximuth
RHOZ  .G/C3                          :16      HRDD Standard Resolution Formation Density
RHOZ  .G/C3                          :17      HRDD Standard Resolution Formation Density
SUWI  .V/V                           :18      Non-Clay Water Intergranular Water Saturation for Undisturbed Zone
TENS  .LBF                           :19      Cable Tension                 
TXSG  .PS/F                          :20      Total Minimum Horizontal Stress Gradient
TXSG  .PS/F                          :21      Total Minimum Horizontal Stress Gradient
TXSP  .PSI                           :22      Total Minimum Horizontal Stress - Sigma X
TXSP  .PSI                           :23      Total Minimum Horizontal Stress - Sigma X
TZSG  .PS/F                          :24      Total Vertical Stress Gradient
TZSP  .PSI                           :25      Total Vertical Stress - Sigma Z
VCL   .V/V                           :26      Volume of Clay Type Material Relative to Total Volume
YME_HORIZ_SSA_DYN.6PSI                          :27      Dynamic Horizontal Youngs Modulus in the Slow Shear Azimuth Direction
YME_HORIZ_SSA_STA.6PSI                          :28      Static Horizontal Youngs Modulus in the Slow Shear Azimuth Direction
YME_VERT_DYN.6PSI                          :29      Dynamic Vertical Youngs Modulus
YME_VERT_STA.6PSI                          :30      Static Vertical Youngs Modulus
~Ascii Data Section
# ...
   3188.00000       4.21429       4.30414       4.40643      20.80915      12.32846      12.40528      12.25164       0.01000       0.81684       0.17262       0.00984       0.43350    1381.99792       0.31289       0.31289       2.79596       2.79597       1.00000    2284.00000       0.71424       0.71424    2276.99048    2276.99048       1.05000    3347.39990       0.04915      11.31262      10.64237      11.31262      10.64237 
   3188.50000       4.17963       4.28232       4.26941      20.26044      12.32788      12.41613      12.23961       0.01000       0.86933       0.16870       0.01886       0.43350    1382.21472       0.30615       0.30615       2.78102       2.78102       1.00000    2306.00000       0.70552       0.70552    2249.54907    2249.54907       1.05000    3347.92480       0.04677      11.08604      10.20822      11.08604      10.20822 
   3189.00000       4.15058       4.23098       4.13853      18.01240      12.33991      12.41613      12.26369       0.01000       0.93300       0.15826       0.03028       0.43350    1382.43152       0.29809       0.29809       2.75129       2.75130       1.00000    2303.00000       0.69532       0.69532    2217.37427    2217.37427       1.05000    3348.44995       0.04952      10.83481       9.70342      10.83481       9.70342 
   3189.50000       4.13300       4.17937       3.94341      18.38078      12.33389      12.41613      12.25164       0.04026       1.01939       0.15236       0.04051       0.43350    1382.64819       0.28281       0.29100       2.72346       2.72346       1.00000    2321.00000       0.67878       0.68428    2164.95288    2182.50732       1.05000    3348.97485       0.05464      10.48735       9.15513      10.79116       9.42035 
   3190.00000       4.11950       4.14091       3.87066      15.71745      12.33358      12.42676      12.24040       0.07537       1.08481       0.15173       0.04613       0.43350    1382.86499       0.28538       0.28920       2.70649       2.70649       1.00000    2274.00000       0.68072       0.68329    2171.48804    2179.68750       1.05000    3349.49976       0.06039      10.53571       9.06649      10.67693       9.18801 
   3190.50000       4.08555       4.10577       3.79555      17.09026      12.34935      12.43425      12.26445       0.06875       1.10718       0.15376       0.04806       0.43350    1383.08167       0.28542       0.28907       2.69203       2.69203       1.00000    2293.00000       0.68073       0.68317    2171.85669    2179.66528       1.05000    3350.02490       0.07510      10.45184       8.94973      10.58521       9.06393 
   3191.00000       4.04833       4.09405       3.90479      18.18446      12.42447      12.60933      12.23961       0.11784       1.10178       0.15731       0.05151       0.43350    1383.29846       0.29081       0.29081       2.68803       2.68803       1.00000    2291.00000       0.68631       0.68631    2190.00122    2190.00122       1.05000    3350.54980       0.06842      10.36709       8.79812      10.36709       8.79812 
   3191.50000       4.03035       4.10572       3.92452      19.21824      12.33814      12.42387      12.25242       0.25397       1.08199       0.16076       0.05518       0.43350    1383.51526       0.28660       0.28660       2.69207       2.69207       1.00000    2298.00000       0.68117       0.68117    2173.95337    2173.95337       1.05000    3351.07495       0.05246      10.34476       8.69526      10.34476       8.69526 
   3192.00000       4.04191       4.13076       4.01999      17.93792      12.32857      12.40551      12.25164       0.33875       1.06667       0.16316       0.05601       0.43350    1383.73193       0.28495       0.28495       2.69891       2.69891       1.00000    2306.00000       0.67918       0.67918    2167.93555    2167.93555       1.05000    3351.59985       0.04565      10.44464       8.76005      10.44464       8.76005 
   3192.50000       4.08199       4.16705       4.02638      17.36607      12.31180      12.38401      12.23959       0.17294       1.02879       0.16700       0.05032       0.43350    1383.94873       0.29291       0.29291       2.70914       2.70914       1.00000    2303.00000       0.68888       0.68888    2199.25220    2199.25220       1.05000    3352.12476       0.04780      10.58066       9.00718      10.58066       9.00718 
   3193.00000       4.14910       4.21931       4.10946      19.91014      12.30638      12.37315      12.23961       0.02094       0.96085       0.17013       0.03564       0.43350    1384.16553       0.30346       0.30346       2.72755       2.72755       1.00000    2296.00000       0.70209       0.70209    2241.75781    2241.75781       1.05000    3352.64990       0.05319      10.84292       9.58223      10.84292       9.58223 
   3193.50000       4.23689       4.28641       4.08122      21.37459      12.31240      12.37315      12.25164       0.01000       0.90189       0.17266       0.02057       0.43350    1384.38220       0.31324       0.31324       2.75356       2.75356       1.00000    2295.00000       0.71469       0.71469    2282.36548    2282.36548       1.05000    3353.17480       0.05321      11.03516      10.11966      11.03516      10.11966 
   3194.00000       4.31718       4.35740       4.17364      20.66933      12.31240      12.37315      12.25164       0.01000       0.85977       0.17561       0.00881       0.43350    1384.59900       0.31417       0.31417       2.77816       2.77816       1.00000    2277.00000       0.71591       0.71591    2286.60693    2286.60693       1.05000    3353.69995       0.04552      11.25648      10.61518      11.25648      10.61518 
   3194.50000       4.35565       4.40960       4.19461      18.12770      12.30579      12.38401      12.22756       0.01000       0.80912       0.18269       0.00586       0.43350    1384.81567       0.31472       0.31472       2.78692       2.78692       1.00000    2305.00000       0.71663       0.71663    2289.28320    2289.28320       1.05000    3354.22485       0.03085      11.35907      10.78599      11.35907      10.78599 
   3195.00000       4.36953       4.44209       4.45139      18.67520      12.31668      12.38094      12.25242       0.01000       0.72877       0.19493       0.00309       0.43350    1385.03247       0.31259       0.31259       2.78483       2.78483       1.00000    2299.00000       0.71384       0.71384    2280.72339    2280.72339       1.05000    3354.74976       0.01665      11.60591      11.09143      11.60591      11.09143 
   3195.50000       4.36928       4.45466       4.46476      20.50424      12.30579      12.38401      12.22756       0.01000       0.65754       0.19927       0.00161       0.43350    1385.24927       0.31507       0.31507       2.77730       2.77730       1.00000    2284.00000       0.71709       0.71709    2291.44751    2291.44751       1.05000    3355.27490       0.00881      11.65034      11.17200      11.65034      11.17200 
   3196.00000       4.35822       4.45340       4.48301      21.71317      12.30638      12.37315      12.23961       0.01000       0.62695       0.19595       0.00294       0.43350    1385.46594       0.31401       0.31401       2.76737       2.76737       1.00000    2304.00000       0.71570       0.71570    2287.36670    2287.36670       1.05000    3355.79980       0.01130      11.64615      11.13375      11.64615      11.13375 
   3196.50000       4.34298       4.45457       4.33387      21.16446      12.30036      12.37315      12.22756       0.01000       0.61296       0.19305       0.00701       0.43350    1385.68274       0.31315       0.31315       2.76118       2.76118       1.00000    2297.00000       0.71457       0.71457    2284.13184    2284.13184       1.05000    3356.32495       0.02131      11.49566      10.88648      11.49566      10.88648 
   3197.00000       4.32960       4.46512       4.44347      22.28022      12.30637      12.37315      12.23959       0.01000       0.58992       0.19264       0.01176       0.43350    1385.89941       0.30749       0.30749       2.75988       2.75987       1.00000    2306.00000       0.70723       0.70723    2261.03003    2261.03003       1.05000    3356.84985       0.03566      11.53917      10.80654      11.53917      10.80654 
