# LAS format log file from PETREL
# Project units are specified as depth units
#==================================================================
~Version information
VERS.   2.0:
WRAP.   NO:
#==================================================================
~Well
STRT .ft      5008.0000000          :
STOP .ft      7272.0000000          :
STEP .ft      0.50000000            :
NULL .        -999.250000           :
COMP.                               : COMPANY
WELL.         VW1                   : WELL
FLD.                                : FIELD
LOC.                                : LOCATION
SRVC.                               : SERVICE COMPANY
DATE.         2020-07-27 11:17:52   : Log Export Date {yyyy-MM-dd HH:mm:ss}
PROV.                               : PROVINCE
UWI.          121152346000          : UNIQUE WELL ID
API.          121152346000          : API NUMBER
#==================================================================
~Curve
DEPT .ft                   : DEPTH
RLA2 .ohm.m               : RLA2
RLA3 .ohm.m               : RLA3
RLA4 .ohm.m               : RLA4
RLA5 .ohm.m               : RLA5
HCAL .in                  : HCAL
HTNP .ft3/ft3             : HTNP
PEFZ .b/e                 : PEFZ
RHOZ .g/cm3               : RHOZ
RXOZ .ohm.m               : RXOZ
REFL ._                   : REFL
REFL1 ._                  : REFL 1
DTCO .us/ft               : DTCO
DTSM .us/ft               : DTSM
~Parameter
#==================================================================
~Ascii
 5008.0000000 18.914489746 17.240539551 16.418180466 15.820030212 12.127320290 0.0919599980 2.3831799030 2.5718400478 32.308319092  -999.250000  -999.250000 54.901531219 95.664901733
 5008.5000000 24.493160248 25.900880814 23.056529999 23.596189499 12.149330139 0.0791300014 2.6372299194 2.6531500816 35.870769501  -999.250000  -999.250000 52.365921021 94.055603027
 5009.0000000 62.284290314 56.548309326 57.254459381 54.327468872 12.149330139 0.0747300014 2.9800899029 2.7160298824 79.675407410  -999.250000  -999.250000 51.997680664 92.758262634
 5009.5000000 131.55799866 113.15280151 106.93399811 102.24369812 12.215330124 0.0808100030 3.2782700062 2.7678399086 202.49310303  -999.250000  -999.250000 51.627288818 91.950469971
 5010.0000000 170.28900146 133.25059509 133.53570557 125.06980133 12.259329796 0.0862400010 3.3751499653 2.7676000595 225.96769714  -999.250000  -999.250000 49.669601440 91.605957031
 5010.5000000 279.20541382 202.73190308 194.03300476 184.61970520 12.215330124 0.0865600035 3.3391599655 2.7772300243 291.45761108  -999.250000  -999.250000 49.043430328 91.460060120
 5011.0000000 320.04348755 242.47230530 228.05960083 214.36590576 12.545379639 0.0752300024 3.3125700951 2.8137800694 362.28338623  -999.250000  -999.250000 48.801059723 91.228782654
 5011.5000000 350.22970581 297.14459229 270.11599731 256.10159302 12.281339645 0.0727600008 3.3264698982 2.8289799690 462.66738892  -999.250000  -999.250000 48.396308899 90.756652832
 5012.0000000 399.33990479 405.94448853 359.50448608 335.81561279 12.391349792 0.0656400025 3.3670001030 2.8423800468 668.14990234  -999.250000  -999.250000 48.189689636 90.085563660
 5012.5000000 477.04180908 606.92547607 527.41088867 500.57159424 12.369350433 0.0604400001 3.3993899822 2.8192200661 952.92932129  -999.250000  -999.250000 47.823860168 89.469978333
 5013.0000000 470.39968872 613.79888916 512.84960938 493.47100830 12.369339943 0.0601399988 3.4073500633 2.8222999573 956.58142090  -999.250000  -999.250000 47.476108551 89.101989746
 5013.5000000 470.47738647 637.01531982 538.56048584 509.84451294 12.369339943 0.0645200014 3.4434299469 2.8223199844 1012.4829712  -999.250000  -999.250000 47.612430573 88.930107117
 5014.0000000 510.43069458 842.31622314 689.43542480 657.47668457 12.369350433 0.0675899982 3.4764199257 2.8202199936 1314.5970459  -999.250000  -999.250000 47.278350830 88.875762939
 5014.5000000 539.37432861 1037.2099609 823.14227295 781.58288574 12.369339943 0.0624600016 3.5228500366 2.8162100315 1587.6560059  -999.250000  -999.250000 47.653209686 88.998466492
 5015.0000000 544.15069580 1017.7839966 807.51788330 763.63677979 12.369350433 0.0656099990 3.5632300377 2.8364400864 1560.6199951  -999.250000  -999.250000 47.608280182 89.414390564
 5015.5000000 501.43438721 764.26007080 622.13140869 571.78491211 12.369350433 0.0724299997 3.5724899769 2.8237800598 1242.3339844  -999.250000  -999.250000 48.976989746 90.292823792
 5016.0000000 506.17630005 769.01971436 642.37042236 585.36718750 12.369339943 0.0781600028 3.5667200089 2.8293199539 1260.7449951  -999.250000  -999.250000 49.257511139 91.884750366
 5016.5000000 474.16641235 661.40362549 553.45861816 505.85769653 12.369339943 0.0773399994 3.5059700012 2.8088200092 1086.7609863  -999.250000  -999.250000 49.598228455 94.290969849
 5017.0000000 438.17428589 519.77490234 443.80090332 410.13040161 12.369339943 0.0794200003 3.4504199028 2.8190500736 842.21478271  -999.250000  -999.250000 50.629188538 99.071746826
 5017.5000000 355.34509277 350.79409790 314.55191040 288.74301147 12.391349792 0.0780600011 3.4451398849 2.7905900478 571.49371338  -999.250000  -999.250000 56.409618378 102.49389648
 5018.0000000 302.56921387 249.27349854 231.09880066 211.46609497 12.391349792 0.0856100023 3.4807000160 2.7525699139 387.45910645  -999.250000  -999.250000 56.400051117 106.48660278
 5018.5000000 213.96949768 155.96080017 138.04989624 122.77649689 12.435350418 0.0966999978 3.5086901188 2.7146599293 288.12149048  -999.250000  -999.250000 56.582801819 108.88179779
 5019.0000000 117.51770020 101.80010223 91.616523743 82.451896667 12.479350090 0.1098399982 3.4588499069 2.6927399635 216.89979553  -999.250000  -999.250000 59.058460236 110.95999908
 5019.5000000 46.935050964 40.748168945 38.240760803 33.936061859 12.468359947 0.1237699986 3.3961200714 2.6948299408 76.957359314  -999.250000  -999.250000 59.242938995 112.44480133
 5020.0000000 43.674060822 39.366760254 36.071670532 32.176479340 12.655369759 0.1481599957 3.3038899899 2.6836800575 77.322853088  -999.250000  -999.250000 59.803691864 113.36730194
 5020.5000000 64.650611877 57.320400238 55.527309418 48.593711853 12.501370430 0.1572400033 3.2861499786 2.6750600338 140.00970459  -999.250000  -999.250000 60.850280762 113.88880157
 5021.0000000 81.661499023 68.804740906 62.025138855 54.568389893 12.545350075 0.1446699947 3.2928299904 2.6673300266 202.87570190  -999.250000  -999.250000 61.370151520 114.13490295
 5021.5000000 107.41049957 89.272102356 80.899971008 70.828002930 12.413350105 0.1276199967 3.3895399570 2.6926898956 173.68620300  -999.250000  -999.250000 61.511520386 114.37039948
 5022.0000000 127.17639923 108.74800110 99.404457092 87.453292847 12.875340462 0.1153300032 3.4398300648 2.7417700291 206.97070313  -999.250000  -999.250000 61.764839172 114.80419922
 5022.5000000 77.866790771 65.930709839 59.457218170 52.721248627 12.435350418 0.1136500016 3.4390199184 2.7599000931 181.28950500  -999.250000  -999.250000 60.929981232 114.88430023
 5023.0000000 77.726242065 69.448097229 68.123229980 57.946018219 12.457389832 0.1195899993 3.3782000542 2.7474400997 150.95689392  -999.250000  -999.250000 60.420509338 114.19000244
 5023.5000000 58.288349152 53.741741180 52.762710571 45.457080841 12.391349792 0.1358200014 3.3473200798 2.7278599739 69.982696533  -999.250000  -999.250000 60.119148254 113.42859650
 5024.0000000 55.337581635 51.180938721 53.070541382 45.927299500 12.369339943 0.1549499929 3.3447999954 2.7267599106 69.513496399  -999.250000  -999.250000 59.834350586 112.97019958
 5024.5000000 87.728797913 82.713600159 88.582572937 75.739120483 12.391349792 0.1582500041 3.3458900452 2.7474200726 131.20069885  -999.250000  -999.250000 59.607299805 112.52559662
 5025.0000000 122.65640259 116.86199951 115.97209930 101.74289703 12.391349792 0.1338399947 3.3431699276 2.7539899349 195.24699402  -999.250000  -999.250000 59.925071716 112.32119751
 5025.5000000 141.07910156 139.63380432 138.89100647 123.43309784 12.369339943 0.1067399979 3.3223800659 2.7576899529 212.38409424  -999.250000  -999.250000 60.475788116 113.03130341
 5026.0000000 133.13099670 126.05210114 115.92350006 106.19979858 12.358340263 0.0952000022 3.3461298943 2.7527799606 210.94799805  -999.250000  -999.250000 61.184478760 113.68109894
 5026.5000000 121.20890045 116.01930237 104.35870361 94.195808411 12.369339943 0.1025800034 3.3754599094 2.7357399464 208.31669617  -999.250000  -999.250000 61.063781738 114.58129883
 5027.0000000 76.966056824 73.417228699 67.592529297 61.169719696 12.347339630 0.1070400029 3.4274199009 2.7227098942 141.69729614  -999.250000  -999.250000 60.993659973 114.93900299
 5027.5000000 51.330558777 48.120170593 45.328041077 41.249900818 12.391340256 0.1220799983 3.4530498981 2.7149000168 84.201377869  -999.250000  -999.250000 61.264999390 114.87400055
 5028.0000000 40.760730743 38.515861511 36.502361298 33.651119232 12.347339630 0.1281400025 3.4795498848 2.7125599384 68.858848572  -999.250000  -999.250000 61.218910217 114.33789825
 5028.5000000 46.829551697 45.996089935 44.217510223 41.318630219 12.402339935 0.1370600015 3.5220699310 2.7116599083 54.989151001  -999.250000  -999.250000 60.544879913 113.13710022
 5029.0000000 79.447212219 76.925827026 73.609771729 68.701568604 12.347350121 0.1375100017 3.5823400021 2.7025699615 125.69779968  -999.250000  -999.250000 60.148880005 111.44219971
 5029.5000000 116.94419861 117.45279694 115.06359863 108.84030151 12.325340271 0.1294299960 3.6861000061 2.7024300098 153.77569580  -999.250000  -999.250000 59.235061646 109.95729828
