~Version Information
VERS  .          2.0                              :CWLS Log Ascii Standard - Version 2.0
WRAP  .          NO                               :One line per depth step
~Well Information Block
#MNEM.UNIT       Data Type                        Information
#---------       ---------                        -------------------------------
STRT  .F         1820.00000                       :START DEPTH
STOP  .F         5250.00000                       :STOP DEPTH
STEP  .F          0.50000                         :INCREMENT
NULL  .          -999.25                          :NULL DATA VALUE
COMP  .          ADM COMPANY                      :COMPANY
WELL  .          VERIFICATION WELL 1              :WELL
FLD   .          WILDCAT                          :FIELD
LOC   .                                           :LOCATION
PROV  .                                           :PROVINCE
STAT  .                                           :STATE
CNTY  .                                           :COUNTY
CTRY  .                                           :COUNTRY
DATE  .                                           :DATE
UWI   .          VERIFICATION WELL 1              :UNIQUE WELL UWI
LIC   .                                           :LICENSE NUMBER
API   .                                           :API NUMBER
SRVC  .                                           :SERVICE COMPANY
~Parameter Information Block
#MNEM.UNIT       Value                            Description
#---------       ---------                        -------------
LONG  .DEG       -88.893356                       :Well Surface Location
LATI  .DEG       39.879810                        :Well Surface Location
XWELL .DEG       -88.893356                       :X-coordinate of Well Head
YWELL .DEG       39.879810                        :Y-coordinate of Well Head
PDAT  .          GROUND LEVEL                     :Permanent Datum               
EPD   .ft        669.00                           :Elevation of Permanent Datum (PDAT) above Mean Sea Level
LMF   .          KELLY BUSHING                    :Logging Measured From (Name of Working Datum)
APD   .ft        15.00                            :Elevation of Working Datum (LMF) Above Permanent Datum
EDF   .ft        683.00                           :Elevation of Derrick Floor Above Mean Sea Level
EGL   .ft        669.00                           :Elevation of Ground Level Above Mean Sea Level
EKB   .ft        684.00                           :Elevation of Kelly Bushing Above Mean Sea Level
~Curve Information Block
#MNEM.UNIT       API Code            Curve    Description
#--------        --------------      -----    -------------------
DEPT  .F                             :0       Index
C44_BH.6PSI                          :1       C44 Referred to the Borehole Axis in a Deviated Well
C55_BH.6PSI                          :2       C55 Referred to the Borehole Axis in a Deviated Well
C66_BH.6PSI                          :3       C66 Referred to the Borehole Axis in a Deviated Well
GR_EDTC.GAPI                          :4       Gamma Ray                     
HD1_PPC1.IN                            :5       PPC1 Hole Diameter 1          
HD1_PPC1.IN                            :6       PPC1 Hole Diameter 1          
HD2_PPC1.IN                            :7       PPC1 Hole Diameter 2          
KINT  .MD                            :8       Intrinsic Permeability        
MAXXENE_OVERALL.                              :9       Overall estimate of maximum cross energy
MINXENE_OVERALL.                              :10      Overall estimate of minimum cross energy
PHIT  .V/V                           :11      Total Porosity_ includes all forms of porosity, including that occupied by bound fluids, and is independent of rock and fluid materials and of environmental effects
PPGI  .PS/F                          :12      Pore Pressure Gradient        
PPRS  .PSI                           :13      Pore Pressure                 
PR_HORIZ_SSA_FSA_DYN.                              :14      Dynamic Horizontal Poissons Ratio - Loading Slow Shear Azimuth - Displacement Fast Shear Azimuth
PR_VERT_FSA_DYN.                              :15      Dynamic Vertical Poissons Ratio - Loading Vertical - Displacement Fast Shear Aximuth
RHOZ  .G/C3                          :16      HRDD Standard Resolution Formation Density
RHOZ  .G/C3                          :17      HRDD Standard Resolution Formation Density
SUWI  .V/V                           :18      Non-Clay Water Intergranular Water Saturation for Undisturbed Zone
TENS  .LBF                           :19      Cable Tension                 
TXSG  .PS/F                          :20      Total Minimum Horizontal Stress Gradient
TXSG  .PS/F                          :21      Total Minimum Horizontal Stress Gradient
TXSP  .PSI                           :22      Total Minimum Horizontal Stress - Sigma X
TXSP  .PSI                           :23      Total Minimum Horizontal Stress - Sigma X
TZSG  .PS/F                          :24      Total Vertical Stress Gradient
TZSP  .PSI                           :25      Total Vertical Stress - Sigma Z
VCL   .V/V                           :26      Volume of Clay Type Material Relative to Total Volume
YME_HORIZ_SSA_DYN.6PSI                          :27      Dynamic Horizontal Youngs Modulus in the Slow Shear Azimuth Direction
YME_HORIZ_SSA_STA.6PSI                          :28      Static Horizontal Youngs Modulus in the Slow Shear Azimuth Direction
YME_VERT_DYN.6PSI                          :29      Dynamic Vertical Youngs Modulus
YME_VERT_STA.6PSI                          :30      Static Vertical Youngs Modulus
~Ascii Data Section
# ...
   2276.00000       2.29383       2.40291       2.91598      59.36176      12.24118      12.27708      12.20527       0.11328       0.30195       0.20851       0.11029       0.43350     986.64600       0.22113       0.29245       2.63080       2.63080       1.00000    2126.42847       0.73510       0.67184    1673.09106    1529.10730       1.05000    2389.79980       0.27082       7.12161       5.11864       5.46595       3.92864 
   2276.50000       2.28361       2.39937       2.83252      58.10193      12.25019      12.28775      12.21263       0.29598       0.29759       0.21110       0.11668       0.43350     986.86273       0.23125       0.29162       2.63692       2.63692       1.00000    2118.42847       0.72766       0.67425    1656.52051    1534.93884       1.05000    2390.32495       0.22128       6.97506       4.91481       5.54529       3.90735 
   2277.00000       2.26586       2.39265       2.80124      56.60423      12.25275      12.30205      12.20345       0.68394       0.29396       0.21399       0.12206       0.43350     987.07947       0.23477       0.29249       2.63674       2.63674       1.00000    2128.42847       0.72717       0.67679    1655.76172    1541.04590       1.05000    2390.84985       0.18210       6.91778       4.79219       5.55094       3.84533 
   2277.50000       2.24156       2.37500       2.78684      59.04950      12.25828      12.31263      12.20393       0.75583       0.28926       0.21799       0.12320       0.43350     987.29620       0.23481       0.29379       2.62318       2.62319       1.00000    2125.00000       0.72953       0.67875    1661.49805    1545.84570       1.05000    2391.37500       0.17820       6.88246       4.75038       5.50325       3.79843 
   2278.00000       2.21121       2.35358       2.76946      59.91242      12.26522      12.31815      12.21230       0.40258       0.28553       0.22073       0.11980       0.43350     987.51300       0.23479       0.29536       2.60682       2.60682       1.00000    2105.28564       0.73243       0.68115    1668.48132    1551.67102       1.05000    2391.89990       0.20018       6.83940       4.77206       5.44435       3.79869 
   2278.50000       2.18913       2.34455       2.77055      62.29129      12.26726      12.31902      12.21550       0.24967       0.28387       0.22406       0.11802       0.43350     987.72974       0.23437       0.29780       2.60785       2.60785       1.00000    2124.14282       0.73698       0.68446    1679.20911    1559.53076       1.05000    2392.42480       0.22891       6.83977       4.79922       5.40439       3.79206 
   2279.00000       2.17699       2.33252       2.77160      62.06499      12.27802      12.34054      12.21550       0.24837       0.28369       0.22518       0.11952       0.43350     987.94647       0.23342       0.29968       2.60883       2.60883       1.00000    2153.00000       0.74066       0.68652    1687.96228    1564.58191       1.05000    2392.94995       0.23435       6.83711       4.77469       5.36463       3.74638 
   2279.50000       2.18309       2.32067       2.77445      62.23872      12.27773      12.33993      12.21554       0.31586       0.28614       0.22564       0.12302       0.43350     988.16321       0.23189       0.30014       2.61152       2.61152       1.00000    2114.29980       0.74202       0.68607    1691.43164    1563.89075       1.05000    2393.47485       0.22752       6.83563       4.72078       5.33746       3.68612 
   2280.00000       2.18005       2.29988       2.76751      57.76910      12.27241      12.32852      12.21631       0.45372       0.28753       0.22932       0.12793       0.43350     988.38000       0.22987       0.29962       2.60499       2.60499       1.00000    2141.60620       0.74217       0.68451    1692.14832    1560.68677       1.05000    2394.00000       0.21617       6.80734       4.62737       5.28950       3.59560 
   2280.50000       2.17113       2.27723       2.70400      55.63063      12.28251      12.34715      12.21787       0.57751       0.28814       0.23026       0.13153       0.43350     988.59674       0.23444       0.29705       2.59930       2.59929       1.00000    2126.47827       0.73517       0.68255    1676.56323    1556.55969       1.05000    2394.52490       0.21593       6.67588       4.48489       5.29368       3.55633 
   2281.00000       2.16644       2.25581       2.71413      56.45847      12.28457      12.34305      12.22610       0.60521       0.29224       0.22892       0.13237       0.43350     988.81348       0.22996       0.29659       2.60474       2.60474       1.00000    2120.39307       0.73700       0.68049    1681.09045    1552.18945       1.05000    2395.04980       0.22040       6.67651       4.47292       5.22358       3.49954 
   2281.50000       2.14897       2.22370       2.72816      54.06632      12.28984      12.36138      12.21829       0.49967       0.29583       0.23371       0.12893       0.43350     989.03021       0.22409       0.29781       2.60916       2.60916       1.00000    2108.87012       0.74249       0.68029    1693.99915    1552.08911       1.05000    2395.57495       0.22381       6.67903       4.52539       5.11482       3.46555 
   2282.00000       2.12765       2.19357       2.83028      52.97564      12.29489      12.36459      12.22519       0.41696       0.29847       0.23823       0.12635       0.43350     989.24701       0.20671       0.30254       2.60965       2.60965       1.00000    2110.43506       0.76030       0.68179    1735.00012    1555.84705       1.05000    2396.09985       0.22255       6.83067       4.66708       4.91445       3.35782 
   2282.50000       2.11517       2.17499       2.85985      46.21323      12.29844      12.37716      12.21972       0.35621       0.30374       0.23501       0.12474       0.43350     989.46375       0.19994       0.30408       2.59724       2.59724       1.00000    2104.47852       0.76662       0.68217    1749.79968    1557.05774       1.05000    2396.62500       0.21573       6.86329       4.71379       4.82766       3.31570 
   2283.00000       2.13032       2.19070       2.90158      49.00741      12.29851      12.37339      12.22362       0.31655       0.31027       0.23419       0.12471       0.43350     989.68048       0.19615       0.30358       2.59595       2.59595       1.00000    2098.21655       0.76795       0.68030    1753.23499    1553.12585       1.05000    2397.14990       0.22579       6.94142       4.76791       4.83218       3.31912 
   2283.50000       2.15247       2.22384       2.89839      50.71178      12.29463      12.37326      12.21599       0.21091       0.31547       0.23891       0.12254       0.43350     989.89722       0.20120       0.30189       2.60674       2.60673       1.00000    2100.04224       0.76240       0.67922    1740.92920    1551.00549       1.05000    2397.67480       0.25936       6.96310       4.81620       4.93274       3.41185 
   2284.00000       2.17004       2.24082       2.92009      52.42150      12.29108      12.36667      12.21550       0.10422       0.31890       0.23969       0.11729       0.43350     990.11395       0.20103       0.30283       2.61829       2.61829       1.00000    2109.26099       0.76366       0.67990    1744.19727    1552.90283       1.05000    2398.19995       0.28634       7.01422       4.93294       4.96433       3.49130 
   2284.50000       2.18817       2.23999       2.96827      50.70689      12.29101      12.36613      12.21589       0.07802       0.31893       0.23774       0.11428       0.43350     990.33075       0.19463       0.30399       2.61685       2.61685       1.00000    2114.65356       0.76864       0.67884    1755.95923    1550.81787       1.05000    2398.72485       0.28540       7.09195       5.03479       4.92425       3.49587 
   2285.00000       2.20024       2.24612       2.94515      50.30264      12.28204      12.34778      12.21631       0.10103       0.31850       0.23860       0.11467       0.43350     990.54749       0.19875       0.30231       2.61675       2.61675       1.00000    2120.39185       0.76361       0.67742    1744.85474    1547.91003       1.05000    2399.25000       0.25716       7.06097       5.00671       4.97536       3.52787 
