# LAS format log file from PETREL
# Project units are specified as depth units
#==================================================================
~Version information
VERS.   2.0:
WRAP.   NO:
#==================================================================
~Well
STRT .ft      5008.0000000          :
STOP .ft      7272.0000000          :
STEP .ft      0.50000000            :
NULL .        -999.250000           :
COMP.                               : COMPANY
WELL.         VW1                   : WELL
FLD.                                : FIELD
LOC.                                : LOCATION
SRVC.                               : SERVICE COMPANY
DATE.         2020-07-27 11:17:52   : Log Export Date {yyyy-MM-dd HH:mm:ss}
PROV.                               : PROVINCE
UWI.          121152346000          : UNIQUE WELL ID
API.          121152346000          : API NUMBER
#==================================================================
~Curve
DEPT .ft                   : DEPTH
RLA2 .ohm.m               : RLA2
RLA3 .ohm.m               : RLA3
RLA4 .ohm.m               : RLA4
RLA5 .ohm.m               : RLA5
HCAL .in                  : HCAL
HTNP .ft3/ft3             : HTNP
PEFZ .b/e                 : PEFZ
RHOZ .g/cm3               : RHOZ
RXOZ .ohm.m               : RXOZ
REFL ._                   : REFL
REFL1 ._                  : REFL 1
DTCO .us/ft               : DTCO
DTSM .us/ft               : DTSM
~Parameter
#==================================================================
~Ascii
# ...
 5162.0000000 436.91198730 1276.4980469 1321.6040039 1240.7330322 12.259329796 0.0290799998 5.4466700554 2.6986300945 1320.2810059  -999.250000  -999.250000 49.163108826 95.109573364
 5162.5000000 437.99749756 1343.2790527 1428.4460449 1343.0059814 12.259340286 0.0307199992 5.3332901001 2.7178599834 1363.2989502  -999.250000  -999.250000 48.914508820 95.021751404
 5163.0000000 432.13330078 1201.5649414 1237.3509521 1156.8120117 12.303339958 0.0282600001 5.1952700615 2.7335801125 1252.6510010  -999.250000  -999.250000 48.849258423 94.969596863
 5163.5000000 438.95581055 1251.8699951 1310.1979980 1226.3299561 12.303339958 0.0252700001 5.1334900856 2.7360000610 1339.7889404  -999.250000  -999.250000 48.697280884 95.101722717
 5164.0000000 430.82720947 1220.2719727 1267.3439941 1189.9119873 12.281339645 0.0194300003 5.1082501411 2.7357099056 1308.1350098  -999.250000  -999.250000 48.628479004 95.260559082
 5164.5000000 407.06469727 961.38592529 942.01312256 889.53240967 12.303339958 0.0165899992 5.0738701820 2.7390298843 1169.8050537  -999.250000  -999.250000 48.621051788 95.289970398
 5165.0000000 403.74819946 829.10931396 806.11962891 749.32427979 12.314339638 0.0159799997 5.0986499786 2.7305901051 1135.6879883  -999.250000  -999.250000 48.208660126 95.319396973
 5165.5000000 416.56729126 873.47180176 852.70031738 786.55487061 12.325340271 0.0157600008 5.1476497650 2.7169399261 1226.1269531  -999.250000  -999.250000 48.567790985 95.399353027
 5166.0000000 421.22628784 897.58068848 870.50012207 799.67687988 12.336339951 0.0131099997 5.1812400818 2.7100698948 1289.0469971  -999.250000  -999.250000 48.525150299 95.441932678
 5166.5000000 419.75479126 861.68298340 828.32672119 759.04217529 12.325340271 0.0104000000 5.1737098694 2.7132298946 1266.0579834  -999.250000  -999.250000 48.338878632 95.283203125
 5167.0000000 421.96069336 843.43499756 799.33721924 730.42468262 12.325340271 0.0103099998 5.1333999634 2.7227699757 1282.8020020  -999.250000  -999.250000 48.327201843 94.885932922
 5167.5000000 430.07431030 896.41961670 847.72277832 773.22631836 12.325340271 0.0099299997 5.1603999138 2.7195000648 1372.1569824  -999.250000  -999.250000 48.306228638 94.593292236
 5168.0000000 433.42718506 937.01428223 878.02032471 801.82031250 12.347339630 0.0094100004 5.1937799454 2.7172400951 1437.2320557  -999.250000  -999.250000 48.424411774 94.582733154
 5168.5000000 447.95889282 950.30718994 885.82391357 800.91308594 12.347339630 0.0097000003 5.2239398956 2.7114999294 1509.1970215  -999.250000  -999.250000 48.501880646 94.811492920
 5169.0000000 457.02828979 1072.8840332 1004.0759888 907.76110840 12.325340271 0.0108300000 5.1261000633 2.7212800980 1689.6929932  -999.250000  -999.250000 48.587131500 95.320137024
 5169.5000000 470.46289063 1199.9580078 1095.8079834 991.02838135 12.325340271 0.0127499998 5.0756897926 2.7199199200 1876.7650146  -999.250000  -999.250000 48.725799561 95.803596497
 5170.0000000 453.64001465 1079.9720459 1014.6539917 919.60559082 12.325340271 0.0164700001 5.0746002197 2.7173600197 1623.3100586  -999.250000  -999.250000 49.107669830 96.031707764
 5170.5000000 410.74911499 630.46447754 573.31341553 524.50018311 12.347339630 0.0194799993 5.1575498581 2.7090599537 1001.1290283  -999.250000  -999.250000 49.167591095 96.185806274
 5171.0000000 382.99139404 493.40490723 452.30859375 409.44519043 12.325340271 0.0209100004 5.1114401817 2.7207300663 817.17468262  -999.250000  -999.250000 49.247920990 96.270233154
 5171.5000000 425.00698853 642.66387939 596.48632813 535.58209229 12.347339630 0.0226000007 5.0061302185 2.7355999947 1049.2960205  -999.250000  -999.250000 49.298519135 96.114532471
 5172.0000000 449.13619995 755.65502930 675.88879395 611.23431396 12.391349792 0.0218599997 4.9646601677 2.7354600430 1225.0899658  -999.250000  -999.250000 49.339649200 95.665611267
 5172.5000000 453.92098999 714.41021729 622.26702881 566.87072754 12.369339943 0.0237399992 4.9205899239 2.7379798889 1160.9820557  -999.250000  -999.250000 49.318130493 95.149353027
 5173.0000000 420.17968750 562.73437500 491.64041138 447.42880249 12.369339943 0.0253100004 4.8713197708 2.7428300381 931.17248535  -999.250000  -999.250000 49.258808136 94.953483582
 5173.5000000 410.60150146 497.41180420 434.99160767 400.61581421 12.347339630 0.0244999994 4.7764601707 2.7555599213 828.16082764  -999.250000  -999.250000 49.130599976 95.147430420
 5174.0000000 425.78091431 521.12841797 458.36129761 422.78900146 12.347339630 0.0183000006 4.7708702087 2.7765600681 870.20281982  -999.250000  -999.250000 49.055191040 95.359123230
 5174.5000000 452.60720825 600.74877930 521.03137207 490.41220093 12.303339958 0.0143700000 4.8147997856 2.7807900906 973.01672363  -999.250000  -999.250000 48.995140076 95.367050171
 5175.0000000 482.79238892 717.06561279 624.37561035 589.64257813 12.281339645 0.0127999997 4.9027099609 2.7760999203 1133.4079590  -999.250000  -999.250000 48.891719818 95.363586426
 5175.5000000 506.38778687 822.70037842 699.76977539 668.46142578 12.281330109 0.0119500002 4.9872198105 2.7594299316 1277.1700439  -999.250000  -999.250000 48.853240967 95.478866577
 5176.0000000 533.36181641 865.50988770 732.78588867 700.58160400 12.259329796 0.0124000004 5.0579500198 2.7589499950 1343.0670166  -999.250000  -999.250000 48.567680359 95.602661133
 5176.5000000 543.52801514 899.69610596 748.82257080 720.63739014 12.259329796 0.0148999998 5.0735998154 2.7706699371 1392.6269531  -999.250000  -999.250000 48.574871063 95.527893066
 5177.0000000 559.62200928 958.34387207 793.43499756 768.65289307 12.281330109 0.0182700008 5.0195598602 2.7720999718 1452.1390381  -999.250000  -999.250000 48.674930573 95.248611450
 5177.5000000 551.59277344 901.50811768 743.45172119 731.24639893 12.259329796 0.0196899995 4.9753599167 2.7739100456 1330.6829834  -999.250000  -999.250000 48.648780823 95.104606628
 5178.0000000 543.03460693 841.40612793 699.95037842 688.62182617 12.259329796 0.0208299998 4.9688501358 2.7843101025 1230.0539551  -999.250000  -999.250000 48.651771545 95.202262878
 5178.5000000 522.37200928 685.08300781 576.40832520 567.43768311 12.259329796 0.0201399997 4.9553799629 2.7834498882 1008.7940063  -999.250000  -999.250000 48.668079376 95.264457703
 5179.0000000 497.92129517 574.30438232 494.17181396 488.96539307 12.237330437 0.0208700001 4.8847398758 2.7831099033 826.35961914  -999.250000  -999.250000 48.304470062 95.165336609
 5179.5000000 490.02310181 505.44351196 452.00628662 431.35641479 12.237330437 0.0226399992 4.7827701569 2.7711100578 767.33331299  -999.250000  -999.250000 48.671619415 94.973617554
 5180.0000000 483.23730469 480.36221313 445.31259155 415.44570923 12.215330124 0.0226399992 4.7822799683 2.7771499157 738.68652344  -999.250000  -999.250000 48.504859924 94.778808594
 5180.5000000 467.13320923 456.74539185 431.98098755 393.48770142 12.259329796 0.0222500004 4.8172302246 2.7708299160 727.34838867  -999.250000  -999.250000 48.738670349 94.694847107
 5181.0000000 474.44891357 495.26031494 466.89511108 419.00720215 12.237330437 0.0216799993 4.8883099556 2.7619800568 799.28088379  -999.250000  -999.250000 49.430099487 94.901123047
 5181.5000000 483.35461426 542.93981934 493.76800537 437.44940186 12.259329796 0.0222699996 4.8875799179 2.7563700676 910.00091553  -999.250000  -999.250000 50.423709869 95.745300293
 5182.0000000 532.09991455 715.02777100 610.78509521 537.84967041 12.270330429 0.0225699991 4.9113898277 2.7573099136 1220.8179932  -999.250000  -999.250000 50.889751434 97.488952637
 5182.5000000 518.94921875 693.38262939 558.12048340 493.39050293 12.259329796 0.0257500000 4.9048500061 2.7605299950 1176.7110596  -999.250000  -999.250000 52.219741821 101.43659973
 5183.0000000 437.92831421 455.49960327 333.29150391 299.05590820 12.281339645 0.0282300003 4.9418897629 2.7457699776 776.97552490  -999.250000  -999.250000 55.026508331 104.63539886
 5183.5000000 267.70748901 177.22070313 148.52549744 131.71150208 12.281339645 0.0344499983 4.8617200851 2.7221000195 332.89199829  -999.250000  -999.250000 55.827590942 107.46089935
