~Version Information
VERS  .          2.0                              :CWLS Log Ascii Standard - Version 2.0
WRAP  .          NO                               :One line per depth step
~Well Information Block
#MNEM.UNIT       Data Type                        Information
#---------       ---------                        -------------------------------
STRT  .F         1820.00000                       :START DEPTH
STOP  .F         5250.00000                       :STOP DEPTH
STEP  .F          0.50000                         :INCREMENT
NULL  .          -999.25                          :NULL DATA VALUE
COMP  .          ADM COMPANY                      :COMPANY
WELL  .          VERIFICATION WELL 1              :WELL
FLD   .          WILDCAT                          :FIELD
LOC   .                                           :LOCATION
PROV  .                                           :PROVINCE
STAT  .                                           :STATE
CNTY  .                                           :COUNTY
CTRY  .                                           :COUNTRY
DATE  .                                           :DATE
UWI   .          VERIFICATION WELL 1              :UNIQUE WELL UWI
LIC   .                                           :LICENSE NUMBER
API   .                                           :API NUMBER
SRVC  .                                           :SERVICE COMPANY
~Parameter Information Block
#MNEM.UNIT       Value                            Description
#---------       ---------                        -------------
LONG  .DEG       -88.893356                       :Well Surface Location
LATI  .DEG       39.879810                        :Well Surface Location
XWELL .DEG       -88.893356                       :X-coordinate of Well Head
YWELL .DEG       39.879810                        :Y-coordinate of Well Head
PDAT  .          GROUND LEVEL                     :Permanent Datum               
EPD   .ft        669.00                           :Elevation of Permanent Datum (PDAT) above Mean Sea Level
LMF   .          KELLY BUSHING                    :Logging Measured From (Name of Working Datum)
APD   .ft        15.00                            :Elevation of Working Datum (LMF) Above Permanent Datum
EDF   .ft        683.00                           :Elevation of Derrick Floor Above Mean Sea Level
EGL   .ft        669.00                           :Elevation of Ground Level Above Mean Sea Level
EKB   .ft        684.00                           :Elevation of Kelly Bushing Above Mean Sea Level
~Curve Information Block
#MNEM.UNIT       API Code            Curve    Description
#--------        --------------      -----    -------------------
DEPT  .F                             :0       Index
C44_BH.6PSI                          :1       C44 Referred to the Borehole Axis in a Deviated Well
C55_BH.6PSI                          :2       C55 Referred to the Borehole Axis in a Deviated Well
C66_BH.6PSI                          :3       C66 Referred to the Borehole Axis in a Deviated Well
GR_EDTC.GAPI                          :4       Gamma Ray                     
HD1_PPC1.IN                            :5       PPC1 Hole Diameter 1          
HD1_PPC1.IN                            :6       PPC1 Hole Diameter 1          
HD2_PPC1.IN                            :7       PPC1 Hole Diameter 2          
KINT  .MD                            :8       Intrinsic Permeability        
MAXXENE_OVERALL.                              :9       Overall estimate of maximum cross energy
MINXENE_OVERALL.                              :10      Overall estimate of minimum cross energy
PHIT  .V/V                           :11      Total Porosity_ includes all forms of porosity, including that occupied by bound fluids, and is independent of rock and fluid materials and of environmental effects
PPGI  .PS/F                          :12      Pore Pressure Gradient        
PPRS  .PSI                           :13      Pore Pressure                 
PR_HORIZ_SSA_FSA_DYN.                              :14      Dynamic Horizontal Poissons Ratio - Loading Slow Shear Azimuth - Displacement Fast Shear Azimuth
PR_VERT_FSA_DYN.                              :15      Dynamic Vertical Poissons Ratio - Loading Vertical - Displacement Fast Shear Aximuth
RHOZ  .G/C3                          :16      HRDD Standard Resolution Formation Density
RHOZ  .G/C3                          :17      HRDD Standard Resolution Formation Density
SUWI  .V/V                           :18      Non-Clay Water Intergranular Water Saturation for Undisturbed Zone
TENS  .LBF                           :19      Cable Tension                 
TXSG  .PS/F                          :20      Total Minimum Horizontal Stress Gradient
TXSG  .PS/F                          :21      Total Minimum Horizontal Stress Gradient
TXSP  .PSI                           :22      Total Minimum Horizontal Stress - Sigma X
TXSP  .PSI                           :23      Total Minimum Horizontal Stress - Sigma X
TZSG  .PS/F                          :24      Total Vertical Stress Gradient
TZSP  .PSI                           :25      Total Vertical Stress - Sigma Z
VCL   .V/V                           :26      Volume of Clay Type Material Relative to Total Volume
YME_HORIZ_SSA_DYN.6PSI                          :27      Dynamic Horizontal Youngs Modulus in the Slow Shear Azimuth Direction
YME_HORIZ_SSA_STA.6PSI                          :28      Static Horizontal Youngs Modulus in the Slow Shear Azimuth Direction
YME_VERT_DYN.6PSI                          :29      Dynamic Vertical Youngs Modulus
YME_VERT_STA.6PSI                          :30      Static Vertical Youngs Modulus
~Ascii Data Section
# ...
   2960.00000       3.81469       3.84451       4.11344      17.01002      12.39967      12.49881      12.30053       0.01000       1.25660       0.14268       0.01122       0.43350    1283.16003       0.28648       0.32914       2.71257       2.71257       1.00000    2188.00000       0.75295       0.71979    2228.73145    2130.57910       1.05000    3107.99976       0.03669      10.58375       9.92441       9.42208       8.83511 
   2960.50000       3.83172       3.87455       4.19484      16.27841      12.44909      12.57363      12.32455       0.01000       1.27696       0.14294       0.01093       0.43350    1283.37671       0.27770       0.32812       2.72946       2.72946       1.00000    2215.00000       0.75489       0.71540    2234.84204    2117.92725       1.05000    3108.52490       0.03326      10.71947      10.05855       9.34113       8.76519 
   2961.00000       3.82653       3.88974       4.12745      16.64421      12.39088      12.46993      12.31183       0.01000       1.29342       0.14136       0.01225       0.43350    1283.59351       0.28556       0.32184       2.73290       2.73290       1.00000    2212.00000       0.74184       0.71253    2196.59814    2109.81226       1.05000    3109.04980       0.02225      10.61221       9.92694       9.55829       8.94108 
   2961.50000       3.80052       3.88888       4.24269      17.00752      12.39625      12.45594      12.33656       0.01000       1.30352       0.13827       0.01548       0.43350    1283.81018       0.27083       0.32645       2.72315       2.72315       1.00000    2217.00000       0.75560       0.71198    2237.71509    2108.52319       1.05000    3109.57495       0.01649      10.78344      10.01014       9.24030       8.57766 
   2962.00000       3.78488       3.88768       3.90351      17.23789      12.39566      12.46677      12.32455       0.01000       1.30625       0.13615       0.01752       0.43350    1284.02698       0.31023       0.31023       2.71153       2.71153       1.00000    2209.00000       0.71077       0.71077    2105.30029    2105.30029       1.05000    3110.09985       0.02456      10.11150       9.34079      10.11150       9.34079 
   2962.50000       3.80754       3.91681       4.01765      19.06411      12.40231      12.48077      12.32385       0.01000       1.29421       0.13336       0.01461       0.43350    1284.24377       0.30144       0.31748       2.71745       2.71745       1.00000    2197.00000       0.72860       0.71617    2158.47534    2121.64209       1.05000    3110.62476       0.04398      10.45750       9.72768       9.92916       9.23621 
   2963.00000       3.85107       3.96344       3.72718      20.89564      12.41327      12.50199      12.32455       0.01000       1.26755       0.13134       0.00944       0.43350    1284.46045       0.29680       0.31966       2.73152       2.73152       1.00000    2219.00000       0.70027       0.71584    2074.91260    2121.04272       1.05000    3111.14990       0.05582       9.71273       9.14586      10.46075       9.85022 
   2963.50000       3.88788       4.00514       3.72477      19.93366      12.41709      12.50963      12.32455       0.01000       1.23521       0.12993       0.00801       0.43350    1284.67725       0.29792       0.32167       2.74135       2.74135       1.00000    2191.00000       0.70198       0.71817    2080.30957    2128.30176       1.05000    3111.67480       0.04747       9.80525       9.26397      10.58695      10.00252 
   2964.00000       3.88251       4.01073       3.69108      19.94650      12.41030      12.54486      12.27574       0.01000       1.21727       0.12935       0.00636       0.43350    1284.89392       0.29585       0.32167       2.73023       2.73024       1.00000    2180.00000       0.69991       0.71751    2074.54565    2126.69971       1.05000    3112.19995       0.02736       9.75059       9.24789      10.60175      10.05516 
   2964.50000       3.85510       3.99848       3.74107      19.39779      12.40978      12.53105      12.28850       0.01000       1.19805       0.12922       0.00940       0.43350    1285.11072       0.29270       0.32147       2.71294       2.71294       1.00000    2216.00000       0.69673       0.71631    2065.44727    2123.49146       1.05000    3112.72485       0.01060       9.62196       9.06124      10.56776       9.95192 
   2965.00000       3.82012       3.97689       3.73761      20.30925      12.42834      12.54486      12.31182       0.01000       1.16650       0.12785       0.01249       0.43350    1285.32751       0.29072       0.32227       2.69362       2.69362       1.00000    2201.00000       0.69498       0.71645    2060.62720    2124.26099       1.05000    3113.24976       0.00763       9.48739       8.86972      10.51702       9.83232 
   2965.50000       3.80304       3.96729       3.59345      19.93342      12.42113      12.56651      12.27574       0.01000       1.14101       0.12603       0.01233       0.43350    1285.54419       0.29103       0.32432       2.68319       2.68319       1.00000    2215.00000       0.69588       0.71854    2063.62036    2130.82983       1.05000    3113.77490       0.01540       9.42931       8.81876      10.50796       9.82756 
   2966.00000       3.80895       3.97396       3.56700      19.38189      12.39764      12.53082      12.26446       0.01000       1.11720       0.12431       0.01141       0.43350    1285.76099       0.29314       0.32684       2.68318       2.68318       1.00000    2222.00000       0.69870       0.72168    2072.34302    2140.49634       1.05000    3114.29980       0.02442       9.45828       8.86508      10.54564       9.88425 
   2966.50000       3.82797       3.98327       3.60729      18.39009      12.37077      12.46705      12.27449       0.01000       1.09407       0.12431       0.01074       0.43350    1285.97778       0.29587       0.32774       2.68616       2.68616       1.00000    2252.22217       0.70169       0.72345    2081.55591    2146.11011       1.05000    3114.82495       0.02408       9.54878       8.96405      10.57751       9.92978 
   2967.00000       3.85237       3.99481       3.71721      17.98160      12.37584      12.47595      12.27574       0.01000       1.06639       0.12508       0.00891       0.43350    1286.19446       0.29789       0.32713       2.69285       2.69285       1.00000    2231.88892       0.70355       0.72352    2087.41943    2146.66919       1.05000    3115.34985       0.02013       9.65566       9.10344      10.60327       9.99685 
   2967.50000       3.86064       3.99777       3.67107      16.80476      12.37311      12.47851      12.26772       0.01000       1.03761       0.12433       0.00787       0.43350    1286.41125       0.29741       0.32542       2.69449       2.69449       1.00000    2220.33325       0.70256       0.72168    2084.86035    2141.58154       1.05000    3115.87476       0.01868       9.68548       9.15382      10.59744      10.01571 
   2968.00000       3.85977       4.00057       3.66737      16.36341      12.37181      12.47324      12.27039       0.01000       1.01579       0.12326       0.00800       0.43350    1286.62793       0.29516       0.32367       2.69382       2.69382       1.00000    2221.33325       0.69981       0.71924    2077.02515    2134.69238       1.05000    3116.39990       0.02060       9.65813       9.12519      10.59086      10.00645 
   2968.50000       3.86481       4.01720       3.68026      16.28597      12.37524      12.47474      12.27574       0.01000       1.00310       0.12236       0.00851       0.43350    1286.84473       0.29251       0.32302       2.69844       2.69843       1.00000    2211.11108       0.69698       0.71775    2068.97485    2130.65161       1.05000    3116.92480       0.01655       9.62547       9.08348      10.62970      10.03117 
   2969.00000       3.87033       4.03775       3.82918      16.18145      12.37572      12.47971      12.27173       0.01000       1.01197       0.12268       0.00874       0.43350    1287.06152       0.29078       0.32409       2.70407       2.70407       1.00000    2204.33325       0.69556       0.71823    2065.12402    2132.43945       1.05000    3117.44995       0.00704       9.59369       9.04861      10.69271      10.08519 
