~Version Information
VERS  .          2.0                              :CWLS Log Ascii Standard - Version 2.0
WRAP  .          NO                               :One line per depth step
~Well Information Block
#MNEM.UNIT       Data Type                        Information
#---------       ---------                        -------------------------------
STRT  .F         1820.00000                       :START DEPTH
STOP  .F         5250.00000                       :STOP DEPTH
STEP  .F          0.50000                         :INCREMENT
NULL  .          -999.25                          :NULL DATA VALUE
COMP  .          ADM COMPANY                      :COMPANY
WELL  .          VERIFICATION WELL 1              :WELL
FLD   .          WILDCAT                          :FIELD
LOC   .                                           :LOCATION
PROV  .                                           :PROVINCE
STAT  .                                           :STATE
CNTY  .                                           :COUNTY
CTRY  .                                           :COUNTRY
DATE  .                                           :DATE
UWI   .          VERIFICATION WELL 1              :UNIQUE WELL UWI
LIC   .                                           :LICENSE NUMBER
API   .                                           :API NUMBER
SRVC  .                                           :SERVICE COMPANY
~Parameter Information Block
#MNEM.UNIT       Value                            Description
#---------       ---------                        -------------
LONG  .DEG       -88.893356                       :Well Surface Location
LATI  .DEG       39.879810                        :Well Surface Location
XWELL .DEG       -88.893356                       :X-coordinate of Well Head
YWELL .DEG       39.879810                        :Y-coordinate of Well Head
PDAT  .          GROUND LEVEL                     :Permanent Datum               
EPD   .ft        669.00                           :Elevation of Permanent Datum (PDAT) above Mean Sea Level
LMF   .          KELLY BUSHING                    :Logging Measured From (Name of Working Datum)
APD   .ft        15.00                            :Elevation of Working Datum (LMF) Above Permanent Datum
EDF   .ft        683.00                           :Elevation of Derrick Floor Above Mean Sea Level
EGL   .ft        669.00                           :Elevation of Ground Level Above Mean Sea Level
EKB   .ft        684.00                           :Elevation of Kelly Bushing Above Mean Sea Level
~Curve Information Block
#MNEM.UNIT       API Code            Curve    Description
#--------        --------------      -----    -------------------
DEPT  .F                             :0       Index
C44_BH.6PSI                          :1       C44 Referred to the Borehole Axis in a Deviated Well
C55_BH.6PSI                          :2       C55 Referred to the Borehole Axis in a Deviated Well
C66_BH.6PSI                          :3       C66 Referred to the Borehole Axis in a Deviated Well
GR_EDTC.GAPI                          :4       Gamma Ray                     
HD1_PPC1.IN                            :5       PPC1 Hole Diameter 1          
HD1_PPC1.IN                            :6       PPC1 Hole Diameter 1          
HD2_PPC1.IN                            :7       PPC1 Hole Diameter 2          
KINT  .MD                            :8       Intrinsic Permeability        
MAXXENE_OVERALL.                              :9       Overall estimate of maximum cross energy
MINXENE_OVERALL.                              :10      Overall estimate of minimum cross energy
PHIT  .V/V                           :11      Total Porosity_ includes all forms of porosity, including that occupied by bound fluids, and is independent of rock and fluid materials and of environmental effects
PPGI  .PS/F                          :12      Pore Pressure Gradient        
PPRS  .PSI                           :13      Pore Pressure                 
PR_HORIZ_SSA_FSA_DYN.                              :14      Dynamic Horizontal Poissons Ratio - Loading Slow Shear Azimuth - Displacement Fast Shear Azimuth
PR_VERT_FSA_DYN.                              :15      Dynamic Vertical Poissons Ratio - Loading Vertical - Displacement Fast Shear Aximuth
RHOZ  .G/C3                          :16      HRDD Standard Resolution Formation Density
RHOZ  .G/C3                          :17      HRDD Standard Resolution Formation Density
SUWI  .V/V                           :18      Non-Clay Water Intergranular Water Saturation for Undisturbed Zone
TENS  .LBF                           :19      Cable Tension                 
TXSG  .PS/F                          :20      Total Minimum Horizontal Stress Gradient
TXSG  .PS/F                          :21      Total Minimum Horizontal Stress Gradient
TXSP  .PSI                           :22      Total Minimum Horizontal Stress - Sigma X
TXSP  .PSI                           :23      Total Minimum Horizontal Stress - Sigma X
TZSG  .PS/F                          :24      Total Vertical Stress Gradient
TZSP  .PSI                           :25      Total Vertical Stress - Sigma Z
VCL   .V/V                           :26      Volume of Clay Type Material Relative to Total Volume
YME_HORIZ_SSA_DYN.6PSI                          :27      Dynamic Horizontal Youngs Modulus in the Slow Shear Azimuth Direction
YME_HORIZ_SSA_STA.6PSI                          :28      Static Horizontal Youngs Modulus in the Slow Shear Azimuth Direction
YME_VERT_DYN.6PSI                          :29      Dynamic Vertical Youngs Modulus
YME_VERT_STA.6PSI                          :30      Static Vertical Youngs Modulus
~Ascii Data Section
# ...
   4100.00000       4.58779       4.40343       3.14510      18.66191      13.26696      14.01157      12.52235       0.01925      34.13949       0.31825       0.02832       0.43350    1777.34998       0.26622       0.29509       2.80489       2.80489       1.00000    2474.27271       0.66417       0.68349    2723.11279    2802.30811       1.05000    4305.00000       0.06267      10.72056       9.64754      11.88317      10.69379 
   4100.50000       4.61216       4.40745       3.17638      19.93014      13.26119      14.00665      12.51573       0.01391      34.59737       0.31991       0.02609       0.43350    1777.56677       0.26343       0.29513       2.80274       2.80274       1.00000    2489.00000       0.66157       0.68275    2712.76270    2799.63574       1.05000    4305.52490       0.05899      10.66372       9.64894      11.94665      10.80979 
   4101.00000       4.65599       4.43829       3.25353      20.35954      13.25116      13.98697      12.51535       0.02148      34.67384       0.31434       0.02471       0.43350    1777.78345       0.26223       0.29556       2.81087       2.81087       1.00000    2441.00000       0.66054       0.68281    2708.87378    2800.21411       1.05000    4306.04980       0.04135      10.70378       9.71784      12.06417      10.95292 
   4101.50000       4.67324       4.47581       3.34035      20.88053      13.14727      13.75604      12.53850       0.09439      34.47645       0.29859       0.02856       0.43350    1778.00024       0.26568       0.29606       2.80922       2.80922       1.00000    2429.27271       0.66391       0.68424    2723.01807    2806.39062       1.05000    4306.57471       0.01762      10.87063       9.77682      12.11361      10.89473 
   4102.00000       4.66831       4.53491       3.43524      20.58097      13.07713      13.60252      12.55174       0.15475      34.15655       0.27927       0.03045       0.43350    1778.21692       0.27593       0.29698       2.80178       2.80178       1.00000    2420.18188       0.67382       0.68796    2764.02905    2822.02783       1.05000    4307.09961       0.01028      11.25093      10.07186      12.10945      10.84041 
   4102.50000       4.66651       4.61627       3.45448      19.70604      13.05960      13.57188      12.54732       0.10233      33.71932       0.25838       0.02848       0.43350    1778.43372       0.28913       0.29730       2.79667       2.79667       1.00000    2409.27271       0.68649       0.69200    2816.33740    2838.92871       1.05000    4307.62500       0.01522      11.77522      10.59247      12.10772      10.89158 
   4103.00000       4.69212       4.68289       3.38787      20.63913      13.08021      13.64829      12.51212       0.03679      33.16316       0.25353       0.02415       0.43350    1778.65051       0.29553       0.29704       2.80174       2.80174       1.00000    2403.45459       0.69256       0.69358    2841.56836    2845.75806       1.05000    4308.14990       0.02569      12.10986      11.00939      12.17177      11.06567 
   4103.50000       4.70063       4.64711       3.35312      19.51993      13.22662      13.96271      12.49053       0.01846      32.53214       0.26401       0.02256       0.43350    1778.86719       0.28930       0.29795       2.79406       2.79406       1.00000    2418.36353       0.68683       0.69266    2818.39819    2842.34229       1.05000    4308.67480       0.03600      11.84813      10.81308      12.20235      11.13635 
   4104.00000       4.67637       4.52210       3.30525      18.23738      13.25335      14.02683      12.47986       0.01528      31.79131       0.27121       0.02384       0.43350    1779.08398       0.27673       0.30130       2.77948       2.77948       1.00000    2433.90918       0.67570       0.69222    2773.06128    2840.87671       1.05000    4309.19971       0.04703      11.17823      10.17008      12.17067      11.07301 
   4104.50000       4.64058       4.38730       3.29374      17.82275      13.01072      13.54158      12.47986       0.01543      30.59230       0.27376       0.02551       0.43350    1779.30066       0.26544       0.30545       2.77275       2.77275       1.00000    2439.00000       0.66598       0.69282    2733.51245    2843.68652       1.05000    4309.72461       0.05115      10.52908       9.54061      12.11611      10.97865 
   4105.00000       4.64428       4.33737       3.29639      16.72533      12.99435      13.52081      12.46789       0.01440      28.38593       0.27235       0.02597       0.43350    1779.51746       0.25894       0.30683       2.78767       2.78767       1.00000    2463.00000       0.66012       0.69220    2709.81152    2841.46460       1.05000    4310.25000       0.05572      10.24403       9.27191      12.13856      10.98666 
   4105.50000       4.65620       4.35079       3.30242      18.86045      13.06246      13.65704      12.46789       0.01249      25.63115       0.26961       0.02532       0.43350    1779.73425       0.25663       0.30360       2.79575       2.79575       1.00000    2450.00000       0.65717       0.68857    2698.02100    2826.94263       1.05000    4310.77490       0.05430      10.26158       9.30253      12.13962      11.00505 
   4106.00000       4.65766       4.39620       3.24914      19.58909      13.08717      13.73041      12.44393       0.01346      22.99867       0.27771       0.02601       0.43350    1779.95093       0.26101       0.30142       2.79209       2.79209       1.00000    2409.00000       0.66080       0.68784    2713.24097    2824.25391       1.05000    4311.29980       0.05256      10.49802       9.50086      12.12312      10.97161 
   4106.50000       4.64020       4.46185       3.20696      17.76005      13.61984      14.79575      12.44393       0.02822      20.66070       0.28635       0.02967       0.43350    1780.16772       0.27263       0.30099       2.78153       2.78153       1.00000    2416.00000       0.67171       0.69076    2758.39551    2836.59595       1.05000    4311.82471       0.04801      10.93627       9.80903      12.07367      10.82919 
   4107.00000       4.61107       4.52130       3.17617      16.20571      13.64365      14.86736      12.41994       0.07078      19.17238       0.27746       0.03495       0.43350    1780.38452       0.28685       0.30168       2.76685       2.76686       1.00000    2423.00000       0.68550       0.69551    2815.34546    2856.44019       1.05000    4312.34961       0.04546      11.41428      10.10457      12.00423      10.62683 
   4107.50000       4.57191       4.51922       3.19976      15.47707      13.42595      14.45661      12.39529       0.19029      18.51923       0.26820       0.04210       0.43350    1780.60120       0.29443       0.30337       2.74504       2.74504       1.00000    2453.00000       0.69328       0.69934    2847.66699    2872.54761       1.05000    4312.87500       0.04395      11.56630      10.05638      11.91781      10.36200 
   4108.00000       4.52982       4.46077       3.37400      15.75259      12.83265      13.25741      12.40790       0.37248      18.21160       0.26622       0.04857       0.43350    1780.81799       0.29461       0.30652       2.73684       2.73684       1.00000    2461.00000       0.69436       0.70243    2852.41089    2885.58545       1.05000    4313.39990       0.04766      11.37649       9.72867      11.83664      10.12217 
   4108.50000       4.44329       4.34739       3.46953      16.73415      12.77457      13.14122      12.40792       0.47483      18.07345       0.26759       0.05363       0.43350    1781.03467       0.29244       0.30933       2.72746       2.72746       1.00000    2408.00000       0.69304       0.70449    2847.34351    2894.38550       1.05000    4313.92480       0.05406      11.00008       9.28376      11.63548       9.82003 
   4109.00000       4.34461       4.23395       3.47585      19.44148      12.73538      13.09887      12.37189       0.44086      18.16830       0.26184       0.05416       0.43350    1781.25146       0.28636       0.30591       2.72248       2.72249       1.00000    2426.00000       0.68618       0.69939    2819.50952    2873.78174       1.05000    4314.44971       0.05809      10.62221       8.95241      11.34731       9.56353 
