~Version Information
VERS  .          2.0                              :CWLS Log Ascii Standard - Version 2.0
WRAP  .          NO                               :One line per depth step
~Well Information Block
#MNEM.UNIT       Data Type                        Information
#---------       ---------                        -------------------------------
STRT  .F         5250.00000                       :START DEPTH
STOP  .F         7202.00000                       :STOP DEPTH
STEP  .F          0.50000                         :INCREMENT
NULL  .          -999.25                          :NULL DATA VALUE
COMP  .          ADM COMPANY                      :COMPANY
WELL  .          VERIFICATION WELL 1 Run 2        :WELL
FLD   .          WILDCAT                          :FIELD
LOC   .                                           :LOCATION
PROV  .                                           :PROVINCE
STAT  .                                           :STATE
CNTY  .                                           :COUNTY
CTRY  .                                           :COUNTRY
DATE  .                                           :DATE
UWI   .          VERIFICATION WELL 1 Run 2        :UNIQUE WELL UWI
LIC   .                                           :LICENSE NUMBER
API   .          121152346000                     :API NUMBER
SRVC  .                                           :SERVICE COMPANY
~Parameter Information Block
#MNEM.UNIT       Value                            Description
#---------       ---------                        -------------
LONG  .DEG       -88.893356                       :Well Surface Location
LATI  .DEG       39.879810                        :Well Surface Location
XWELL .DEG       -88.893356                       :X-coordinate of Well Head
YWELL .DEG       39.879810                        :Y-coordinate of Well Head
PDAT  .          GROUND LEVEL                     :Permanent Datum               
EPD   .ft        669.00                           :Elevation of Permanent Datum (PDAT) above Mean Sea Level
LMF   .          KELLY BUSHING                    :Logging Measured From (Name of Working Datum)
APD   .ft        15.00                            :Elevation of Working Datum (LMF) Above Permanent Datum
EDF   .ft        683.00                           :Elevation of Derrick Floor Above Mean Sea Level
EGL   .ft        669.00                           :Elevation of Ground Level Above Mean Sea Level
EKB   .ft        684.00                           :Elevation of Kelly Bushing Above Mean Sea Level
~Curve Information Block
#MNEM.UNIT       API Code            Curve    Description
#--------        --------------      -----    -------------------
DEPT  .F                             :0       Index
C44_BH.6PSI                          :1       C44 Referred to the Borehole Axis in a Deviated Well
C55_BH.6PSI                          :2       C55 Referred to the Borehole Axis in a Deviated Well
C66_BH.6PSI                          :3       C66 Referred to the Borehole Axis in a Deviated Well
GR_EDTC.GAPI                          :4       Gamma Ray                     
HD1_PPC1.IN                            :5       PPC1 Hole Diameter 1          
HD1_PPC1.IN                            :6       PPC1 Hole Diameter 1          
HD2_PPC1.IN                            :7       PPC1 Hole Diameter 2          
KINT  .MD                            :8       Intrinsic Permeability        
MAXXENE_OVERALL.                              :9       Overall estimate of maximum cross energy
MINXENE_OVERALL.                              :10      Overall estimate of minimum cross energy
PHIT  .V/V                           :11      Total Porosity_ includes all forms of porosity, including that occupied by bound fluids, and is independent of rock and fluid materials and of environmental effects
PPGI  .PS/F                          :12      Pore Pressure Gradient        
PPRS  .PSI                           :13      Pore Pressure                 
PR_HORIZ_FSA_SSA_DYN.                              :14      Dynamic Horizontal Poissons Ratio - Loading Fast Shear Azimuth - Displacement Slow Shear Aximuth
PR_VERT_FSA_DYN.                              :15      Dynamic Vertical Poissons Ratio - Loading Vertical - Displacement Fast Shear Aximuth
RHOZ  .G/C3                          :16      HRDD Standard Resolution Formation Density
SUWI  .V/V                           :17      Non-Clay Water Intergranular Water Saturation for Undisturbed Zone
TENS  .LBF                           :18      Cable Tension                 
TXSG  .PS/F                          :19      Total Minimum Horizontal Stress Gradient
TXSG  .PS/F                          :20      Total Minimum Horizontal Stress Gradient
TXSP  .PSI                           :21      Total Minimum Horizontal Stress - Sigma X
TXSP  .PSI                           :22      Total Minimum Horizontal Stress - Sigma X
TZSG  .PS/F                          :23      Total Vertical Stress Gradient
TZSP  .PSI                           :24      Total Vertical Stress - Sigma Z
VCL   .V/V                           :25      Volume of Clay Type Material Relative to Total Volume
YME_HORIZ_SSA_DYN.6PSI                          :26      Dynamic Horizontal Youngs Modulus in the Slow Shear Azimuth Direction
YME_HORIZ_SSA_STA.6PSI                          :27      Static Horizontal Youngs Modulus in the Slow Shear Azimuth Direction
YME_VERT_DYN.6PSI                          :28      Dynamic Vertical Youngs Modulus
YME_VERT_STA.6PSI                          :29      Static Vertical Youngs Modulus
~Ascii Data Section
# ...
   5770.00000       2.86894       2.81942       3.45947     154.63205       8.36096       8.35070       8.37121      30.37216       6.61760       0.33601       0.09436       0.43350    2501.29492       0.20087       0.26301       2.54921       1.00000    3184.18750       0.69743       0.62462    4024.17261    3604.04736       1.05000    6058.49951       0.03970       8.30874       6.26441       6.38754       4.81592 
   5770.50000       2.90292       2.83110       3.42163     193.43820       8.37923       8.35070       8.40775      51.50043       6.41800       0.38301       0.10942       0.43350    2501.51172       0.20279       0.25425       2.52736       1.00000    3197.18750       0.68218       0.61822    3936.50220    3567.43994       1.05000    6059.02490       0.01181       8.23102       5.93186       6.50784       4.69001 
   5771.00000       2.95578       2.84069       3.37146     185.60046       8.37673       8.32056       8.43291      46.30148       6.21338       0.44032       0.11022       0.43350    2501.72852       0.20361       0.24167       2.50255       1.00000    3119.21094       0.66112       0.60987    3815.33643    3519.55469       1.05000    6059.54980       0.00555       8.11585       5.83451       6.67031       4.79530 
   5771.50000       3.00868       2.85043       3.33723     135.97545       8.38567       8.33537       8.43596      33.62557       5.99269       0.47310       0.10568       0.43350    2501.94531       0.20132       0.22919       2.47714       1.00000    3101.97559       0.64196       0.60145    3705.07886    3471.27100       1.05000    6060.07471       0.01129       8.01814       5.84472       6.80475       4.96023 
   5772.00000       3.06047       2.87785       3.31421      85.31919       8.34051       8.30442       8.37660      27.55322       5.80990       0.51953       0.10542       0.43350    2502.16187       0.19791       0.21804       2.46005       1.00000    3101.03369       0.62527       0.59398    3609.03052    3428.44580       1.05000    6060.59961       0.01976       7.94024       5.79250       6.93912       5.06217 
   5772.50000       3.13880       2.93975       3.31848      50.43120       8.30071       8.28569       8.31573      25.41548       5.70868       0.57874       0.10394       0.43350    2502.37866       0.19274       0.20607       2.46323       1.00000    3080.40820       0.60814       0.58599    3510.51001    3382.62085       1.05000    6061.12451       0.02081       7.91619       5.80084       7.13327       5.22713 
   5773.00000       3.23353       3.01481       3.33532      38.25348       8.28125       8.26737       8.29513      27.21217       5.65734       0.61275       0.10267       0.43350    2502.59546       0.18477       0.19203       2.47572       1.00000    3061.68018       0.58959       0.57704    3403.71387    3331.25342       1.05000    6061.64990       0.01697       7.90319       5.81350       7.35268       5.40855 
   5773.50000       3.30977       3.07213       3.34476      36.42316       8.27255       8.25918       8.28593      39.73768       5.67058       0.62425       0.10280       0.43350    2502.81226       0.17544       0.17843       2.48273       1.00000    3053.13599       0.57309       0.56877    3308.71069    3283.80591       1.05000    6062.17480       0.00211       7.86314       5.78178       7.51523       5.52596 
   5774.00000       3.33836       3.09878       3.34097      37.43430       8.26646       8.25918       8.27374      42.33342       5.73277       0.62250       0.10355       0.43350    2503.02905       0.16951       0.17072       2.47991       1.00000    3051.99268       0.56426       0.56394    3258.06348    3256.20654       1.05000    6062.69971       0.00178       7.81460       5.73314       7.57338       5.55617 
   5774.50000       3.32571       3.09843       3.32969      38.93892       8.26995       8.27009       8.26981      46.37874       5.75630       0.61994       0.10687       0.43350    2503.24561       0.16756       0.16875       2.47154       1.00000    3056.90454       0.56236       0.56187    3247.33569    3244.50195       1.05000    6063.22461       0.00173       7.77525       5.64722       7.54117       5.47720 
   5775.00000       3.31246       3.09267       3.32764      39.76820       8.27426       8.27282       8.27569      35.52872       5.74568       0.62308       0.10970       0.43350    2503.46240       0.16562       0.16729       2.47002       1.00000    3064.38696       0.56147       0.55960    3242.49121    3231.68115       1.05000    6063.74951       0.01250       7.75755       5.58584       7.49288       5.39526 
   5775.50000       3.30713       3.08568       3.32628      38.92624       8.27649       8.26317       8.28982      30.18377       5.74250       0.62789       0.11211       0.43350    2503.67920       0.16305       0.16486       2.46902       1.00000    3073.70459       0.55949       0.55713    3231.35278    3217.71143       1.05000    6064.27490       0.01950       7.73728       5.53003       7.45754       5.33010 
   5776.00000       3.31085       3.08373       3.32296      34.46828       8.28902       8.27398       8.30405      25.29948       5.73137       0.62962       0.11154       0.43350    2503.89600       0.16199       0.16347       2.46655       1.00000    3085.80151       0.55798       0.55649    3222.89575    3214.26660       1.05000    6064.79980       0.02462       7.72246       5.52917       7.46079       5.34182 
   5776.50000       3.33323       3.09138       3.31210      28.02028       8.28966       8.28237       8.29695      24.70969       5.69814       0.62155       0.10926       0.43350    2504.11279       0.16201       0.16205       2.46885       1.00000    3092.91919       0.55531       0.55792    3207.75757    3222.80664       1.05000    6065.32471       0.02350       7.69737       5.54999       7.53355       5.43187 
   5777.00000       3.34956       3.08424       3.29685      22.08636       8.28896       8.28434       8.29358      26.83978       5.69793       0.61258       0.10828       0.43350    2504.32935       0.16447       0.16320       2.46692       1.00000    3091.09204       0.55517       0.56167    3207.20898    3244.75830       1.05000    6065.84961       0.02669       7.67817       5.55278       7.59922       5.49568 
   5777.50000       3.36308       3.08199       3.32982      20.10784       8.29428       8.29498       8.29358      29.46741       5.74852       0.62453       0.10451       0.43350    2504.54614       0.16937       0.16903       2.47755       1.00000    3074.47974       0.56158       0.56568    3244.52930    3268.22144       1.05000    6066.37451       0.03512       7.78757       5.69678       7.62787       5.57996 
   5778.00000       3.36367       3.08786       3.40197      20.62356       8.29898       8.30362       8.29434      22.00769       5.76102       0.63224       0.09154       0.43350    2504.76294       0.17474       0.17806       2.49974       1.00000    3077.83374       0.57347       0.56874    3313.48389    3286.19775       1.05000    6066.89990       0.04896       7.99288       6.07609       7.59633       5.77463 
   5778.50000       3.33149       3.08623       3.51250      22.94402       8.29432       8.28207       8.30657      15.68087       5.55329       0.62983       0.08041       0.43350    2504.97974       0.18038       0.19238       2.52772       1.00000    3111.43774       0.59458       0.57226    3435.78345    3306.81641       1.05000    6067.42480       0.06023       8.29214       6.50755       7.44920       5.84603 
   5779.00000       3.23753       3.04531       3.57102      47.77562       8.30030       8.28050       8.32009      16.68886       5.14740       0.65847       0.07598       0.43350    2505.19653       0.18696       0.21128       2.55360       1.00000    3092.72314       0.62231       0.58119    3596.34229    3358.71167       1.05000    6067.94971       0.05612       8.47734       6.73589       7.19293       5.71534 
   5779.50000       3.11735       2.97777       3.56136      99.64333       8.31583       8.29060       8.34106      16.61752       4.74657       0.69947       0.07931       0.43350    2505.41309       0.19228       0.22879       2.55633       1.00000    3077.50903       0.64791       0.59316    3744.59131    3428.18652       1.05000    6068.47461       0.05387       8.49225       6.68525       6.91640       5.44471 
