~Version Information
VERS  .          2.0                              :CWLS Log Ascii Standard - Version 2.0
WRAP  .          NO                               :One line per depth step
~Well Information Block
#MNEM.UNIT       Data Type                        Information
#---------       ---------                        -------------------------------
STRT  .F         1820.00000                       :START DEPTH
STOP  .F         5250.00000                       :STOP DEPTH
STEP  .F          0.50000                         :INCREMENT
NULL  .          -999.25                          :NULL DATA VALUE
COMP  .          ADM COMPANY                      :COMPANY
WELL  .          VERIFICATION WELL 1              :WELL
FLD   .          WILDCAT                          :FIELD
LOC   .                                           :LOCATION
PROV  .                                           :PROVINCE
STAT  .                                           :STATE
CNTY  .                                           :COUNTY
CTRY  .                                           :COUNTRY
DATE  .                                           :DATE
UWI   .          VERIFICATION WELL 1              :UNIQUE WELL UWI
LIC   .                                           :LICENSE NUMBER
API   .                                           :API NUMBER
SRVC  .                                           :SERVICE COMPANY
~Parameter Information Block
#MNEM.UNIT       Value                            Description
#---------       ---------                        -------------
LONG  .DEG       -88.893356                       :Well Surface Location
LATI  .DEG       39.879810                        :Well Surface Location
XWELL .DEG       -88.893356                       :X-coordinate of Well Head
YWELL .DEG       39.879810                        :Y-coordinate of Well Head
PDAT  .          GROUND LEVEL                     :Permanent Datum               
EPD   .ft        669.00                           :Elevation of Permanent Datum (PDAT) above Mean Sea Level
LMF   .          KELLY BUSHING                    :Logging Measured From (Name of Working Datum)
APD   .ft        15.00                            :Elevation of Working Datum (LMF) Above Permanent Datum
EDF   .ft        683.00                           :Elevation of Derrick Floor Above Mean Sea Level
EGL   .ft        669.00                           :Elevation of Ground Level Above Mean Sea Level
EKB   .ft        684.00                           :Elevation of Kelly Bushing Above Mean Sea Level
~Curve Information Block
#MNEM.UNIT       API Code            Curve    Description
#--------        --------------      -----    -------------------
DEPT  .F                             :0       Index
C44_BH.6PSI                          :1       C44 Referred to the Borehole Axis in a Deviated Well
C55_BH.6PSI                          :2       C55 Referred to the Borehole Axis in a Deviated Well
C66_BH.6PSI                          :3       C66 Referred to the Borehole Axis in a Deviated Well
GR_EDTC.GAPI                          :4       Gamma Ray                     
HD1_PPC1.IN                            :5       PPC1 Hole Diameter 1          
HD1_PPC1.IN                            :6       PPC1 Hole Diameter 1          
HD2_PPC1.IN                            :7       PPC1 Hole Diameter 2          
KINT  .MD                            :8       Intrinsic Permeability        
MAXXENE_OVERALL.                              :9       Overall estimate of maximum cross energy
MINXENE_OVERALL.                              :10      Overall estimate of minimum cross energy
PHIT  .V/V                           :11      Total Porosity_ includes all forms of porosity, including that occupied by bound fluids, and is independent of rock and fluid materials and of environmental effects
PPGI  .PS/F                          :12      Pore Pressure Gradient        
PPRS  .PSI                           :13      Pore Pressure                 
PR_HORIZ_SSA_FSA_DYN.                              :14      Dynamic Horizontal Poissons Ratio - Loading Slow Shear Azimuth - Displacement Fast Shear Azimuth
PR_VERT_FSA_DYN.                              :15      Dynamic Vertical Poissons Ratio - Loading Vertical - Displacement Fast Shear Aximuth
RHOZ  .G/C3                          :16      HRDD Standard Resolution Formation Density
RHOZ  .G/C3                          :17      HRDD Standard Resolution Formation Density
SUWI  .V/V                           :18      Non-Clay Water Intergranular Water Saturation for Undisturbed Zone
TENS  .LBF                           :19      Cable Tension                 
TXSG  .PS/F                          :20      Total Minimum Horizontal Stress Gradient
TXSG  .PS/F                          :21      Total Minimum Horizontal Stress Gradient
TXSP  .PSI                           :22      Total Minimum Horizontal Stress - Sigma X
TXSP  .PSI                           :23      Total Minimum Horizontal Stress - Sigma X
TZSG  .PS/F                          :24      Total Vertical Stress Gradient
TZSP  .PSI                           :25      Total Vertical Stress - Sigma Z
VCL   .V/V                           :26      Volume of Clay Type Material Relative to Total Volume
YME_HORIZ_SSA_DYN.6PSI                          :27      Dynamic Horizontal Youngs Modulus in the Slow Shear Azimuth Direction
YME_HORIZ_SSA_STA.6PSI                          :28      Static Horizontal Youngs Modulus in the Slow Shear Azimuth Direction
YME_VERT_DYN.6PSI                          :29      Dynamic Vertical Youngs Modulus
YME_VERT_STA.6PSI                          :30      Static Vertical Youngs Modulus
~Ascii Data Section
# ...
   4328.00000       4.28891       3.97220       3.23381      16.38054      12.49205      12.56416      12.41994       0.65869      21.22997       1.62861       0.04622       0.43350    1876.18799       0.24518       0.29585       2.75086       2.75086       1.00000    2483.00000       0.64469       0.67837    2790.22217    2935.97900       1.05000    4544.39990       0.00001       9.21195       7.92549      11.11553       9.56324 
   4328.50000       4.32714       4.06925       3.74869      17.15544      12.50834      12.59613      12.42055       0.42175      22.64794       2.46507       0.04183       0.43350    1876.40466       0.24385       0.28352       2.76107       2.76106       1.00000    2540.00000       0.64079       0.66706    2773.65088    2887.37769       1.05000    4544.92480       0.00450       9.55369       8.31220      11.10796       9.66450 
   4329.00000       4.38525       4.12452       3.99574      20.63255      12.55864      12.57797      12.53930       0.08154      23.61831       2.92396       0.03133       0.43350    1876.62146       0.24067       0.27961       2.78271       2.78271       1.00000    2451.00000       0.63706       0.66280    2757.83276    2869.23975       1.05000    4545.44971       0.02571       9.66004       8.62891      11.22279      10.02484 
   4329.50000       4.43452       4.11790       3.91886      22.63104      12.54481      12.61026      12.47935       0.01812      24.66043       3.15354       0.02438       0.43350    1876.83826       0.23929       0.28664       2.80142       2.80142       1.00000    2477.00000       0.63729       0.66862    2759.12915    2894.80518       1.05000    4545.97461       0.03718       9.52639       8.65584      11.41123      10.36844 
   4330.00000       4.42759       4.03118       3.52899      27.78789      12.58621      12.69251      12.47990       0.05182      26.08839       3.25343       0.03074       0.43350    1877.05493       0.23826       0.29913       2.79643       2.79643       1.00000    2511.00000       0.63897       0.67938    2766.73584    2941.71094       1.05000    4546.50000       0.04140       9.16291       8.19678      11.50406      10.29109 
   4330.50000       4.37803       3.90819       3.21548      28.51951      12.59220      12.69251      12.49189       0.10633      27.96141       3.28895       0.03726       0.43350    1877.27173       0.23241       0.30536       2.78191       2.78192       1.00000    2500.00000       0.63482       0.68323    2749.10107    2958.72729       1.05000    4547.02490       0.03868       8.69938       7.65677      11.42982      10.05997 
   4331.00000       4.26524       3.75061       3.05222      26.70391      12.58352      12.63922      12.52782       0.29445      30.16909       3.28851       0.04597       0.43350    1877.48853       0.22315       0.30293       2.74567       2.74568       1.00000    2478.00000       0.62574       0.67849    2710.07568    2938.55811       1.05000    4547.54980       0.02554       8.18724       7.04841      11.11465       9.56862 
   4331.50000       4.05957       3.53865       2.93294      21.76550      12.60204      12.62838      12.57570       1.09822      32.63998       3.28255       0.06443       0.43350    1877.70520       0.20688       0.28516       2.66377       2.66377       1.00000    2511.00000       0.60769       0.65898    2632.21265    2854.35449       1.05000    4548.07471       0.00880       7.57007       6.20824      10.43442       8.55730 
   4332.00000       3.88503       3.37867       2.80270      19.93349      12.62123      12.60698      12.63547       2.89197      34.98045       3.31902       0.07755       0.43350    1877.92200       0.18500       0.25457       2.60874       2.60874       1.00000    2461.00000       0.58366       0.62867    2528.40845    2723.38574       1.05000    4548.59961       0.00001       7.08412       5.60430       9.74808       7.71177 
   4332.50000       3.75025       3.27660       2.66321      18.64322      12.68673      12.80972      12.56373       5.41361      37.04240       3.36508       0.08261       0.43350    1878.13867       0.16733       0.22668       2.58496       2.58496       1.00000    2481.00000       0.56503       0.60306    2448.00415    2612.76074       1.05000    4549.12500       0.00001       6.79193       5.29719       9.20069       7.17584 
   4333.00000       3.69229       3.26108       2.56458      20.10323      12.71701      12.70304      12.73098       6.11485      39.36433       3.32931       0.07603       0.43350    1878.35547       0.17106       0.22655       2.62581       2.62580       1.00000    2489.00000       0.56807       0.60365    2461.43066    2615.62988       1.05000    4549.64990       0.00214       6.83913       5.43346       9.05755       7.19591 
   4333.50000       3.63586       3.24282       2.42391      17.61520      12.80100      12.79951      12.80249       2.93871      41.74031       2.82197       0.06599       0.43350    1878.57227       0.19270       0.25114       2.67871       2.67871       1.00000    2400.00000       0.58969       0.62755    2555.42456    2719.50146       1.05000    4550.17480       0.01176       6.98075       5.70087       9.09795       7.42989 
   4334.00000       3.55285       3.14780       2.18478      18.90225      12.69523      12.56416      12.82630       3.28061      44.21505       2.07491       0.06795       0.43350    1878.78894       0.21808       0.29051       2.68998       2.68998       1.00000    2446.00000       0.61874       0.66642    2681.62671    2888.24316       1.05000    4550.69971       0.01193       6.88375       5.59183       9.17000       7.44901 
   4334.50000       3.47027       2.97129       1.91055      18.78151      12.65950      12.56416      12.75483       7.28069      46.99456       1.61168       0.07902       0.43350    1879.00574       0.22217       0.32072       2.64079       2.64079       1.00000    2509.00000       0.62827       0.69369    2723.23901    3006.79053       1.05000    4551.22461       0.00165       6.34980       5.00274       9.16650       7.22190 
   4335.00000       3.35991       2.75817       1.66839      21.26953      12.86774      13.00480      12.73067      15.62276      49.33147       1.33383       0.10104       0.43350    1879.22241       0.21273       0.33682       2.54559       2.54560       1.00000    2497.00000       0.62235       0.70476    2697.89673    3055.11475       1.05000    4551.75000       0.00001       5.67369       4.19394       8.98317       6.64028 
   4335.50000       3.17385       2.58709       1.56700      20.72404      13.81490      15.18645      12.44334      18.71541      50.89846       1.12075       0.11800       0.43350    1879.43921       0.21501       0.34631       2.46055       2.46055       1.00000    2439.00000       0.62631       0.71377    2715.37769    3094.56470       1.05000    4552.27490       0.00001       5.30577       3.72310       8.54597       5.99678 
   4336.00000       3.02354       2.54930       1.53751      19.56767      13.16360      13.65629      12.67092      13.97025      51.65837       0.93824       0.11295       0.43350    1879.65601       0.23423       0.35205       2.47149       2.47149       1.00000    2431.00000       0.64628       0.72545    2802.29053    3145.56396       1.05000    4552.79980       0.00422       5.43962       3.87774       8.17598       5.82840 
   4336.50000       2.93622       2.56572       1.60310      20.96350      12.85133      13.05522      12.64743       7.45603      51.81950       0.84220       0.10493       0.43350    1879.87268       0.24910       0.34592       2.49993       2.49992       1.00000    2459.00000       0.65968       0.72500    2860.69946    3143.96582       1.05000    4553.32471       0.02718       5.69151       4.15818       7.90384       5.77450 
   4337.00000       3.02293       2.68016       1.71511      23.52415      12.92369      13.14025      12.70712       3.42919      51.72663       0.81393       0.08964       0.43350    1880.08948       0.24373       0.32643       2.58044       2.58044       1.00000    2489.00000       0.65004       0.70543    2819.21436    3059.42847       1.05000    4553.84961       0.04928       5.98783       4.57702       8.01939       6.12991 
