# LAS format log file from PETREL
# Project units are specified as depth units
#==================================================================
~Version information
VERS.   2.0:
WRAP.   NO:
#==================================================================
~Well
STRT .ft      5008.0000000          :
STOP .ft      7272.0000000          :
STEP .ft      0.50000000            :
NULL .        -999.250000           :
COMP.                               : COMPANY
WELL.         VW1                   : WELL
FLD.                                : FIELD
LOC.                                : LOCATION
SRVC.                               : SERVICE COMPANY
DATE.         2020-07-27 11:17:52   : Log Export Date {yyyy-MM-dd HH:mm:ss}
PROV.                               : PROVINCE
UWI.          121152346000          : UNIQUE WELL ID
API.          121152346000          : API NUMBER
#==================================================================
~Curve
DEPT .ft                   : DEPTH
RLA2 .ohm.m               : RLA2
RLA3 .ohm.m               : RLA3
RLA4 .ohm.m               : RLA4
RLA5 .ohm.m               : RLA5
HCAL .in                  : HCAL
HTNP .ft3/ft3             : HTNP
PEFZ .b/e                 : PEFZ
RHOZ .g/cm3               : RHOZ
RXOZ .ohm.m               : RXOZ
REFL ._                   : REFL
REFL1 ._                  : REFL 1
DTCO .us/ft               : DTCO
DTSM .us/ft               : DTSM
~Parameter
#==================================================================
~Ascii
# ...
 6064.0000000 9.0825300217 8.5184402466 7.7317190170 8.5960197449 8.2949199677 0.0468499996 1.9533100128 2.5483798981 33.775840759  -999.250000  -999.250000 61.109790802 98.328941345
 6064.5000000 10.933989525 10.178460121 8.9358901978 10.067760468 8.2912302017 0.0462200008 1.9872100353 2.5545699596 45.849239349  -999.250000  -999.250000 60.410350800 96.816253662
 6065.0000000 12.602580070 11.686280251 10.580120087 11.936820030 8.3022899628 0.0478600003 1.9782299995 2.5628600121 58.140300751  -999.250000  -999.250000 60.011810303 95.319206238
 6065.5000000 15.862090111 14.542880058 12.786149979 15.186599731 8.2949199677 0.0431800000 1.9172099829 2.5679500103 123.14530182  -999.250000  -999.250000 59.778148651 94.172149658
 6066.0000000 20.686700821 19.410350800 16.235200882 20.068460464 8.3022899628 0.0368800014 1.8521200418 2.5620601177 101.28710175  -999.250000  -999.250000 59.785511017 93.192810059
 6066.5000000 26.016300201 23.281019211 17.743030548 25.914459229 8.2949199677 0.0324600004 1.8183599710 2.5540099144 85.592292786  -999.250000  -999.250000 59.848781586 92.481781006
 6067.0000000 35.421119690 27.807140350 20.284109116 28.924829483 8.3096704483 0.0322999991 1.8184000254 2.5493900776 83.556228638  -999.250000  -999.250000 59.809101105 92.219596863
 6067.5000000 36.819698334 25.113819122 17.894109726 24.755599976 8.2875499725 0.0361000001 1.8602399826 2.5418100357 102.58399963  -999.250000  -999.250000 60.445159912 92.395286560
 6068.0000000 30.759780884 20.907430649 14.745719910 20.111780167 8.2949199677 0.0451099984 1.8831700087 2.5352199078 104.69930267  -999.250000  -999.250000 60.547840118 92.975471497
 6068.5000000 24.318199158 16.268539429 11.605710030 14.546719551 8.2949199677 0.0565700009 1.8758599758 2.5278599262 77.512252808  -999.250000  -999.250000 61.282600403 93.969909668
 6069.0000000 19.411159515 12.630160332 9.1093597412 10.695190430 8.2912302017 0.0654700026 1.8650599718 2.5161199570 54.751258850  -999.250000  -999.250000 61.723831177 95.331207275
 6069.5000000 16.319030762 10.338700294 7.8741202354 8.4182300568 8.2801704407 0.0753299966 1.8309199810 2.5193600655 46.413669586  -999.250000  -999.250000 61.907638550 96.523719788
 6070.0000000 13.190799713 9.1970996857 6.8064298630 7.0501399040 8.2728004456 0.0823099986 1.8253599405 2.5199799538 42.484611511  -999.250000  -999.250000 62.800018311 97.340843201
 6070.5000000 11.477439880 8.0184698105 5.9504489899 5.9279098511 8.2506799698 0.0829299986 1.7952899933 2.5248699188 42.734401703  -999.250000  -999.250000 63.064418793 97.891197205
 6071.0000000 9.7192201614 7.1204500198 5.3617601395 5.1944699287 8.2580499649 0.0741299987 1.8183599710 2.5039100647 31.179079056  -999.250000  -999.250000 63.269569397 98.378967285
 6071.5000000 8.4153413773 6.3399500847 4.8488898277 4.5136699677 8.2285604477 0.0654800013 1.8463300467 2.4839899540 27.311389923  -999.250000  -999.250000 63.600109100 98.918113708
 6072.0000000 7.8582201004 6.0781998634 4.6225800514 4.2319002151 8.2285604477 0.0627399981 1.8515900373 2.4736099243 26.439010620  -999.250000  -999.250000 63.897430420 99.347343445
 6072.5000000 7.4463300705 5.8527598381 4.4537501335 4.0177798271 8.2506799698 0.0674600005 1.8092099428 2.4800999165 23.842100143  -999.250000  -999.250000 63.716129303 99.515342712
 6073.0000000 7.1841001511 5.6988401413 4.3306999207 3.8784101009 8.2248802185 0.0719500035 1.7734600306 2.4832398891 20.949270248  -999.250000  -999.250000 64.033592224 99.730758667
 6073.5000000 6.8993000984 5.5137901306 4.2053999901 3.7601699829 8.2138204575 0.0751599967 1.7659699917 2.4850399494 18.967689514  -999.250000  -999.250000 64.048286438 100.37920380
 6074.0000000 6.5013298988 5.3668799400 4.0962300301 3.6674199104 8.2138204575 0.0751499981 1.7941399813 2.4877099991 19.253690720  -999.250000  -999.250000 64.015266418 101.02739716
 6074.5000000 6.3147401810 5.1409101486 3.9542601109 3.5760300159 8.2506799698 0.0804599971 1.8228900433 2.4954099655 22.537549973  -999.250000  -999.250000 64.390296936 101.32969666
 6075.0000000 6.1137800217 5.0206589699 3.8832299709 3.5276598930 8.3133497238 0.0874300003 1.8135800362 2.5046999454 29.246320724  -999.250000  -999.250000 64.599121094 101.48490143
 6075.5000000 5.6432900429 4.6654601097 3.6456000805 3.3628799915 8.2801704407 0.0889199972 1.7951899767 2.4993400574 25.128009796  -999.250000  -999.250000 64.588150024 101.59279633
 6076.0000000 5.1459589005 4.3147702217 3.4518299103 3.2026700974 8.3022899628 0.0831099972 1.7541099787 2.4908800125 16.649049759  -999.250000  -999.250000 64.611053467 101.59120178
 6076.5000000 5.5503997803 4.6362900734 3.6451699734 3.3747200966 8.3022899628 0.0742200017 1.7437900305 2.4719998837 16.019300461  -999.250000  -999.250000 64.491859436 101.34760284
 6077.0000000 6.3077988625 5.1451997757 3.9344000816 3.6141700745 8.3133497238 0.0703400001 1.7690700293 2.4723000526 20.197000504  -999.250000  -999.250000 64.437881470 100.95010376
 6077.5000000 6.6770100594 5.4124999046 4.1000599861 3.7509799004 8.2654304504 0.0682699978 1.8209199905 2.4946000576 19.966890335  -999.250000  -999.250000 64.430061340 100.47129822
 6078.0000000 6.6327710152 5.4966502190 4.1854400635 3.7701499462 8.2580499649 0.0695300028 1.8458800316 2.5169498920 17.212450027  -999.250000  -999.250000 64.351661682 99.985328674
 6078.5000000 6.6335101128 5.5042099953 4.1907701492 3.7877800465 8.2580499649 0.0701000020 1.8148499727 2.5140700340 17.411289215  -999.250000  -999.250000 64.023452759 99.626052856
 6079.0000000 6.7351789474 5.6390199661 4.2888998985 3.8470299244 8.2654304504 0.0684000030 1.7738000154 2.4920399189 19.920719147  -999.250000  -999.250000 63.588928223 99.372543335
 6079.5000000 7.0235199928 5.8133988380 4.3862800598 3.9010200500 8.3907699585 0.0652000010 1.7625600100 2.4760499001 21.861019135  -999.250000  -999.250000 63.784561157 99.348312378
 6080.0000000 6.8005099297 5.6405310631 4.4135198593 3.9113500118 8.4350099564 0.0647000000 1.7698600292 2.4796600342 18.003990173  -999.250000  -999.250000 63.465438843 99.360549927
 6080.5000000 6.3042988777 5.4210610390 4.3008399010 3.8358299732 8.5677204132 0.0655200034 1.7667200565 2.4926400185 19.316289902  -999.250000  -999.250000 63.223510742 99.120521545
 6081.0000000 6.7114200592 5.7951588631 4.5914697647 4.0700402260 8.2949199677 0.0632900000 1.7668499947 2.5083599091 22.269519806  -999.250000  -999.250000 62.750541687 98.885742188
 6081.5000000 8.1918706894 6.9991989136 5.2866001129 4.6063098907 8.3022899628 0.0611199997 1.7668999434 2.5162899494 31.300180435  -999.250000  -999.250000 62.620460510 98.805618286
 6082.0000000 8.7527198792 7.4640598297 5.6585998535 4.9317598343 8.3244104385 0.0635299981 1.7740900517 2.5102798939 35.135578156  -999.250000  -999.250000 62.521030426 98.787933350
 6082.5000000 8.5376300812 7.3956499100 5.7142000198 5.0548400879 8.3244104385 0.0664099976 1.7598999739 2.5044300556 35.642559052  -999.250000  -999.250000 62.412719727 98.713317871
 6083.0000000 8.5931997299 7.6736888885 6.0005397797 5.3853697777 8.3465299606 0.0681599975 1.7454199791 2.5090999603 35.082851410  -999.250000  -999.250000 62.153099060 98.637908936
 6083.5000000 9.8081998825 8.6426095963 6.8094100952 6.0639500618 8.3465299606 0.0644399971 1.7481700182 2.5291199684 35.275539398  -999.250000  -999.250000 61.746181488 98.512138367
 6084.0000000 11.259690285 10.274220467 7.8805999756 7.0436501503 8.5529699326 0.0572800003 1.7731000185 2.5461399555 57.353858948  -999.250000  -999.250000 61.526649475 98.372627258
 6084.5000000 11.490750313 10.353759766 8.1288700104 7.4831700325 8.5529699326 0.0505700000 1.8758100271 2.5504200459 58.444561005  -999.250000  -999.250000 61.158329010 98.257926941
 6085.0000000 11.182479858 10.547140121 8.2961206436 7.8051900864 8.4055099487 0.0500999987 1.9711699486 2.5495400429 47.957698822  -999.250000  -999.250000 61.004268646 98.115722656
 6085.5000000 9.9939203262 9.6086301804 7.8285388947 7.5314202309 8.4202604294 0.0561200008 2.0357298851 2.5560801029 38.762741089  -999.250000  -999.250000 60.740058899 98.037162781
