~Version Information
VERS  .          2.0                              :CWLS Log Ascii Standard - Version 2.0
WRAP  .          NO                               :One line per depth step
~Well Information Block
#MNEM.UNIT       Data Type                        Information
#---------       ---------                        -------------------------------
STRT  .F         5250.00000                       :START DEPTH
STOP  .F         7202.00000                       :STOP DEPTH
STEP  .F          0.50000                         :INCREMENT
NULL  .          -999.25                          :NULL DATA VALUE
COMP  .          ADM COMPANY                      :COMPANY
WELL  .          VERIFICATION WELL 1 Run 2        :WELL
FLD   .          WILDCAT                          :FIELD
LOC   .                                           :LOCATION
PROV  .                                           :PROVINCE
STAT  .                                           :STATE
CNTY  .                                           :COUNTY
CTRY  .                                           :COUNTRY
DATE  .                                           :DATE
UWI   .          VERIFICATION WELL 1 Run 2        :UNIQUE WELL UWI
LIC   .                                           :LICENSE NUMBER
API   .          121152346000                     :API NUMBER
SRVC  .                                           :SERVICE COMPANY
~Parameter Information Block
#MNEM.UNIT       Value                            Description
#---------       ---------                        -------------
LONG  .DEG       -88.893356                       :Well Surface Location
LATI  .DEG       39.879810                        :Well Surface Location
XWELL .DEG       -88.893356                       :X-coordinate of Well Head
YWELL .DEG       39.879810                        :Y-coordinate of Well Head
PDAT  .          GROUND LEVEL                     :Permanent Datum               
EPD   .ft        669.00                           :Elevation of Permanent Datum (PDAT) above Mean Sea Level
LMF   .          KELLY BUSHING                    :Logging Measured From (Name of Working Datum)
APD   .ft        15.00                            :Elevation of Working Datum (LMF) Above Permanent Datum
EDF   .ft        683.00                           :Elevation of Derrick Floor Above Mean Sea Level
EGL   .ft        669.00                           :Elevation of Ground Level Above Mean Sea Level
EKB   .ft        684.00                           :Elevation of Kelly Bushing Above Mean Sea Level
~Curve Information Block
#MNEM.UNIT       API Code            Curve    Description
#--------        --------------      -----    -------------------
DEPT  .F                             :0       Index
C44_BH.6PSI                          :1       C44 Referred to the Borehole Axis in a Deviated Well
C55_BH.6PSI                          :2       C55 Referred to the Borehole Axis in a Deviated Well
C66_BH.6PSI                          :3       C66 Referred to the Borehole Axis in a Deviated Well
GR_EDTC.GAPI                          :4       Gamma Ray                     
HD1_PPC1.IN                            :5       PPC1 Hole Diameter 1          
HD1_PPC1.IN                            :6       PPC1 Hole Diameter 1          
HD2_PPC1.IN                            :7       PPC1 Hole Diameter 2          
KINT  .MD                            :8       Intrinsic Permeability        
MAXXENE_OVERALL.                              :9       Overall estimate of maximum cross energy
MINXENE_OVERALL.                              :10      Overall estimate of minimum cross energy
PHIT  .V/V                           :11      Total Porosity_ includes all forms of porosity, including that occupied by bound fluids, and is independent of rock and fluid materials and of environmental effects
PPGI  .PS/F                          :12      Pore Pressure Gradient        
PPRS  .PSI                           :13      Pore Pressure                 
PR_HORIZ_FSA_SSA_DYN.                              :14      Dynamic Horizontal Poissons Ratio - Loading Fast Shear Azimuth - Displacement Slow Shear Aximuth
PR_VERT_FSA_DYN.                              :15      Dynamic Vertical Poissons Ratio - Loading Vertical - Displacement Fast Shear Aximuth
RHOZ  .G/C3                          :16      HRDD Standard Resolution Formation Density
SUWI  .V/V                           :17      Non-Clay Water Intergranular Water Saturation for Undisturbed Zone
TENS  .LBF                           :18      Cable Tension                 
TXSG  .PS/F                          :19      Total Minimum Horizontal Stress Gradient
TXSG  .PS/F                          :20      Total Minimum Horizontal Stress Gradient
TXSP  .PSI                           :21      Total Minimum Horizontal Stress - Sigma X
TXSP  .PSI                           :22      Total Minimum Horizontal Stress - Sigma X
TZSG  .PS/F                          :23      Total Vertical Stress Gradient
TZSP  .PSI                           :24      Total Vertical Stress - Sigma Z
VCL   .V/V                           :25      Volume of Clay Type Material Relative to Total Volume
YME_HORIZ_SSA_DYN.6PSI                          :26      Dynamic Horizontal Youngs Modulus in the Slow Shear Azimuth Direction
YME_HORIZ_SSA_STA.6PSI                          :27      Static Horizontal Youngs Modulus in the Slow Shear Azimuth Direction
YME_VERT_DYN.6PSI                          :28      Dynamic Vertical Youngs Modulus
YME_VERT_STA.6PSI                          :29      Static Vertical Youngs Modulus
~Ascii Data Section
# ...
   5380.00000       1.97867       2.00167       2.37989     161.01826       8.80850       8.78380       8.83321       0.70016       5.85667       0.66973       0.07849       0.43350    2332.22998       0.24419       0.30214       2.53184       1.00000    2982.58325       0.73769       0.69105    3968.75098    3717.85815       1.05000    5648.99951       0.14899       5.92208       4.67269       4.79803       3.78578 
   5380.50000       2.02009       2.02898       2.48395     169.59814       8.81581       8.77992       8.85170       0.11426       5.58296       0.75238       0.06142       0.43350    2332.44678       0.23828       0.31219       2.55551       1.00000    3016.21582       0.75686       0.70076    4072.28833    3770.45483       1.05000    5649.52490       0.16367       6.15166       5.08592       4.80689       3.97412 
   5381.00000       2.04138       2.04361       2.51653     177.15063       8.81617       8.77499       8.85734       0.11193       5.02833       0.74386       0.05697       0.43350    2332.66357       0.23955       0.32068       2.56487       1.00000    3191.32690       0.76913       0.71082    4138.70898    3824.94141       1.05000    5650.04980       0.15375       6.23871       5.21925       4.83243       4.04277 
   5381.50000       2.04332       2.04304       2.53439     186.75623       8.81426       8.78261       8.84591       0.29393       4.51442       0.73530       0.05627       0.43350    2332.88013       0.23908       0.32723       2.56424       1.00000    3247.00024       0.77939       0.71884    4194.29590    3868.45679       1.05000    5650.57471       0.13940       6.28063       5.26404       4.81406       4.03484 
   5382.00000       2.02837       2.03684       2.51006     189.80421       8.80338       8.77219       8.83457       0.40915       4.21794       0.72165       0.05444       0.43350    2333.09692       0.24307       0.33013       2.56185       1.00000    3169.35303       0.78207       0.72372    4209.11328    3895.08398       1.05000    5651.09961       0.12701       6.24034       5.25550       4.81369       4.05401 
   5382.50000       2.01965       2.02900       2.48886     185.14191       8.80976       8.77219       8.84733       0.14755       4.04645       0.72736       0.04994       0.43350    2333.31372       0.24560       0.33067       2.56747       1.00000    3051.47046       0.78172       0.72502    4207.58740    3902.39893       1.05000    5651.62451       0.14378       6.20023       5.28339       4.81146       4.09998 
   5383.00000       2.01657       2.03016       2.49266     184.92635       8.75290       8.76097       8.74482       0.03734       3.86809       0.75087       0.04785       0.43350    2333.53052       0.24444       0.32931       2.58454       1.00000    3078.37524       0.78031       0.72328    4200.40088    3893.42725       1.05000    5652.14990       0.16508       6.20397       5.31523       4.80680       4.11821 
   5383.50000       2.00454       2.02468       2.48034     182.00543       8.75850       8.77219       8.74482       0.02185       3.63512       0.74949       0.04975       0.43350    2333.74731       0.24438       0.32684       2.59195       1.00000    3092.23535       0.77674       0.72056    4181.56885    3879.11255       1.05000    5652.67480       0.18296       6.17299       5.26277       4.79590       4.08874 
   5384.00000       1.97934       2.02213       2.50382     190.68782       8.72075       8.76097       8.68052       0.02581       3.49655       0.71987       0.05168       0.43350    2333.96387       0.23888       0.32670       2.59706       1.00000    3088.52954       0.77995       0.72056    4199.25488    3879.48315       1.05000    5653.19971       0.18106       6.20387       5.26263       4.73859       4.01966 
   5384.50000       1.96257       2.00947       2.48858     191.97954       8.73063       8.80634       8.65492       0.03141       3.21596       0.67881       0.05376       0.43350    2334.18066       0.23910       0.32688       2.58724       1.00000    3148.58813       0.78034       0.72127    4201.74072    3883.65454       1.05000    5653.72461       0.18195       6.16723       5.20320       4.70929       3.97316 
   5385.00000       1.97144       2.01653       2.45803     186.95264       8.74916       8.81780       8.68052       0.03990       2.99215       0.64979       0.05362       0.43350    2334.39746       0.24580       0.32635       2.58650       1.00000    3129.64722       0.77595       0.72151    4178.47168    3885.33374       1.05000    5654.24951       0.17793       6.12440       5.16896       4.77094       4.02665 
   5385.50000       1.96970       2.01297       2.40145     178.55980       8.75324       8.85167       8.65480       0.11414       2.98604       0.41490       0.05951       0.43350    2334.61426       0.25459       0.32490       2.56177       1.00000    3053.75000       0.76903       0.72114    4141.63672    3883.67603       1.05000    5654.77490       0.16688       6.02565       5.00717       4.82561       4.00997 
   5386.00000       1.97829       2.01692       2.35634     172.28180       8.74953       8.84023       8.65884       0.30133       3.04327       0.18183       0.06379       0.43350    2334.83105       0.26146       0.32138       2.53740       1.00000    3126.94116       0.75950       0.71765    4090.66699    3865.26074       1.05000    5655.29980       0.15161       5.94484       4.88379       4.89212       4.01896 
   5386.50000       1.99833       2.02101       2.35849     175.34058       8.78960       8.88577       8.69343       0.75299       3.43684       0.17418       0.06663       0.43350    2335.04761       0.25985       0.31722       2.51577       1.00000    3148.62500       0.75313       0.71152    4056.71655    3832.57617       1.05000    5655.82471       0.13672       5.94270       4.84473       4.91266       4.00500 
   5387.00000       2.02610       2.04362       2.41645     183.87607       8.80356       8.89692       8.71020       1.14174       4.11600       0.16633       0.06963       0.43350    2335.26440       0.25246       0.31398       2.52044       1.00000    3120.94116       0.75170       0.70573    4049.42798    3801.78784       1.05000    5656.34961       0.12340       6.05301       4.89453       4.92573       3.98300 
   5387.50000       2.05480       2.08179       2.49192     187.00142       8.80737       8.90840       8.70634       0.55111       4.80373       0.17495       0.06491       0.43350    2335.48120       0.24573       0.31259       2.54456       1.00000    3130.76465       0.75322       0.70265    4057.96191    3785.51807       1.05000    5656.87451       0.12894       6.20853       5.08505       4.96146       4.06364 
   5388.00000       2.09837       2.12763       2.54459     183.77086       8.81377       8.90840       8.71913       0.17579       5.42708       0.19506       0.05688       0.43350    2335.69800       0.24478       0.31215       2.57930       1.00000    3179.81250       0.75273       0.70132    4055.73389    3778.72974       1.05000    5657.39990       0.13745       6.33489       5.30097       5.05652       4.23125 
   5388.50000       2.12241       2.14837       2.42399     172.73088       8.82588       8.91984       8.73192       0.03894       5.77655       0.20824       0.04909       0.43350    2335.91479       0.26717       0.31161       2.59143       1.00000    3164.11768       0.73885       0.70487    3981.29761    3798.17749       1.05000    5657.92480       0.14648       6.14323       5.24635       5.27395       4.50398 
   5389.00000       2.13152       2.14898       2.34836     164.16516       8.82199       8.90810       8.73587       0.03317       5.95963       0.21677       0.04978       0.43350    2336.13135       0.28160       0.31433       2.58613       1.00000    3173.82349       0.73513       0.71055    3961.63867    3829.15479       1.05000    5658.44971       0.14721       6.01932       5.13136       5.38293       4.58885 
   5389.50000       2.12143       2.14411       2.30697     160.55849       8.82016       8.90840       8.73192       0.05359       6.23351       0.22457       0.05082       0.43350    2336.34814       0.28933       0.31677       2.57138       1.00000    3160.05908       0.73521       0.71513    3962.42676    3854.19873       1.05000    5658.97461       0.14734       5.94891       5.05766       5.41814       4.60641 
