# LAS format log file from PETREL
# Project units are specified as depth units
#==================================================================
~Version information
VERS.   2.0:
WRAP.   NO:
#==================================================================
~Well
STRT .ft      5008.0000000          :
STOP .ft      7272.0000000          :
STEP .ft      0.50000000            :
NULL .        -999.250000           :
COMP.                               : COMPANY
WELL.         VW1                   : WELL
FLD.                                : FIELD
LOC.                                : LOCATION
SRVC.                               : SERVICE COMPANY
DATE.         2020-07-27 11:17:52   : Log Export Date {yyyy-MM-dd HH:mm:ss}
PROV.                               : PROVINCE
UWI.          121152346000          : UNIQUE WELL ID
API.          121152346000          : API NUMBER
#==================================================================
~Curve
DEPT .ft                   : DEPTH
RLA2 .ohm.m               : RLA2
RLA3 .ohm.m               : RLA3
RLA4 .ohm.m               : RLA4
RLA5 .ohm.m               : RLA5
HCAL .in                  : HCAL
HTNP .ft3/ft3             : HTNP
PEFZ .b/e                 : PEFZ
RHOZ .g/cm3               : RHOZ
RXOZ .ohm.m               : RXOZ
REFL ._                   : REFL
REFL1 ._                  : REFL 1
DTCO .us/ft               : DTCO
DTSM .us/ft               : DTSM
~Parameter
#==================================================================
~Ascii
# ...
 6196.0000000 6.3690700531 4.8608798981 3.7608900070 3.9072499275 8.2875499725 0.0814300030 2.2662699223 2.4997100830 23.905649185  -999.250000  -999.250000 65.854507446 107.05300140
 6196.5000000 6.1373100281 4.7701001167 3.6419699192 3.7238399982 8.3022899628 0.0782999992 2.2609899044 2.4851500988 23.585239410  -999.250000  -999.250000 66.542182922 107.45600128
 6197.0000000 6.1165199280 4.6799201965 3.4921000004 3.4818100929 8.2875499725 0.0784199983 2.2684800625 2.4705300331 22.432920456  -999.250000  -999.250000 66.485710144 107.51429749
 6197.5000000 6.0950999260 4.5332198143 3.3863201141 3.2376699448 8.2912302017 0.0811600015 2.2701799870 2.4549400806 20.660760880  -999.250000  -999.250000 66.584007263 107.05960083
 6198.0000000 5.7606811523 4.3052000999 3.2212800980 3.0635099411 8.2691097260 0.0807299986 2.2503299713 2.4451599121 19.098510742  -999.250000  -999.250000 66.490592957 106.49469757
 6198.5000000 5.6494002342 4.1969499588 3.1214098930 2.8739399910 8.2728004456 0.0801300034 2.2218699455 2.4427800179 17.284580231  -999.250000  -999.250000 66.358039856 105.85030365
 6199.0000000 5.4815697670 4.1110410690 3.0533599854 2.7546300888 8.2654304504 0.0749299973 2.1688599586 2.4526600838 18.391410828  -999.250000  -999.250000 66.040573120 105.20300293
 6199.5000000 5.2542700768 4.0633797646 3.0157499313 2.6679000854 8.2580499649 0.0701299980 2.1346299648 2.4601600170 18.738969803  -999.250000  -999.250000 65.615753174 104.70339966
 6200.0000000 5.2021288872 4.0578398705 2.9760200977 2.6196599007 8.2654304504 0.0635199994 2.1118800640 2.4612200260 19.425340652  -999.250000  -999.250000 64.728561401 104.34239960
 6200.5000000 5.1574511528 4.0239200592 2.9298899174 2.5963900089 8.2654304504 0.0619300008 2.1010301113 2.4560799599 16.714389801  -999.250000  -999.250000 64.427276611 104.03510284
 6201.0000000 5.1179199219 3.9953899384 2.9429299831 2.5793499947 8.2359399796 0.0624499992 2.0892798901 2.4532999992 16.315290451  -999.250000  -999.250000 64.365783691 103.71749878
 6201.5000000 5.1452398300 4.0644102097 2.9360098839 2.5791099072 8.2580499649 0.0617499985 2.0347199440 2.4666500092 16.533250809  -999.250000  -999.250000 64.339393616 103.39779663
 6202.0000000 5.1103901863 4.0163898468 2.8715200424 2.5387799740 8.2433099747 0.0591100007 1.9972900152 2.4772300720 19.597780228  -999.250000  -999.250000 63.950180054 103.20960236
 6202.5000000 5.0335001945 3.9389300346 2.9242498875 2.5706300735 8.2580499649 0.0611199997 1.9689799547 2.4833300114 19.657159805  -999.250000  -999.250000 64.063003540 103.21479797
 6203.0000000 4.9257698059 3.9201200008 2.9060599804 2.5583798885 8.2580499649 0.0638400018 1.9983700514 2.4770300388 18.461099625  -999.250000  -999.250000 64.040893555 103.57540131
 6203.5000000 4.8361511230 3.8338201046 2.8998000622 2.5615799427 8.2654304504 0.0676200017 2.0187799931 2.4779200554 16.569749832  -999.250000  -999.250000 64.122032166 103.99379730
 6204.0000000 4.5817699432 3.7266700268 2.8912699223 2.5651299953 8.2433099747 0.0678500012 2.0374200344 2.4791901112 16.134849548  -999.250000  -999.250000 63.921951294 104.02159882
 6204.5000000 4.7033309937 3.8787400723 3.0147099495 2.7104299068 8.2580499649 0.0647900030 2.0271298885 2.4816100597 17.756389618  -999.250000  -999.250000 63.778030396 103.73819733
 6205.0000000 5.3049697876 4.2796101570 3.2440800667 2.9730699062 8.2433099747 0.0606000014 2.0025401115 2.4843699932 21.049530029  -999.250000  -999.250000 63.836521149 103.15840149
 6205.5000000 5.8034911156 4.6389498711 3.4804699421 3.2324199677 8.2138204575 0.0580600016 2.0138700008 2.4809300900 25.132240295  -999.250000  -999.250000 63.727390289 102.62229919
 6206.0000000 6.0315089226 4.8058900833 3.5904099941 3.4144499302 8.2359399796 0.0600799993 2.0408101082 2.4850699902 25.489339828  -999.250000  -999.250000 62.920150757 102.38999939
 6206.5000000 6.0592889786 4.8485097885 3.6173899174 3.5107100010 8.2433099747 0.0613100007 2.1040999889 2.4844300747 25.742399216  -999.250000  -999.250000 62.737419128 102.28919983
 6207.0000000 5.9650001526 4.7679200172 3.5953299999 3.5585498810 8.2359399796 0.0657500029 2.1270399094 2.4903099537 27.908679962  -999.250000  -999.250000 62.759380341 102.22509766
 6207.5000000 6.0921201706 4.8088698387 3.6099998951 3.5332000256 8.2469902039 0.0717699975 2.1418900490 2.4832799435 24.864749908  -999.250000  -999.250000 62.724700928 102.20580292
 6208.0000000 6.2778000832 4.9011502266 3.6656100750 3.5450899601 8.2285604477 0.0734300017 2.1073300838 2.4793899059 20.413810730  -999.250000  -999.250000 62.629600525 102.15750122
 6208.5000000 6.4194588661 4.9742999077 3.7124199867 3.5738599300 8.2138204575 0.0684899986 2.0442800522 2.4831299782 18.338949203  -999.250000  -999.250000 62.663681030 101.97660065
 6209.0000000 6.6564211845 5.1040000916 3.7851700783 3.5462698936 8.2248802185 0.0626699999 1.9891899824 2.4885199070 19.328290939  -999.250000  -999.250000 63.070709229 101.72029877
 6209.5000000 6.6204099655 5.1272010803 3.8161299229 3.5015900135 8.2359399796 0.0619999990 1.9428100586 2.4967401028 22.064950943  -999.250000  -999.250000 63.857059479 101.44519806
 6210.0000000 6.2055201530 4.9280800819 3.7001500130 3.3258299828 8.2359399796 0.0667600036 1.9246400595 2.4980700016 20.755939484  -999.250000  -999.250000 63.963409424 101.33650208
 6210.5000000 5.8842601776 4.7797899246 3.6177198887 3.2489399910 8.2469902039 0.0738300011 1.9478499889 2.4857699871 19.355730057  -999.250000  -999.250000 63.787979126 101.52909851
 6211.0000000 5.6441798210 4.5776700974 3.5196199417 3.1677899361 8.2469902039 0.0865700021 2.0424098969 2.4572501183 17.775709152  -999.250000  -999.250000 63.905609131 102.04039764
 6211.5000000 5.2490711212 4.3817100525 3.4503500462 3.1276099682 8.2506799698 0.0951900035 2.1439399719 2.4402000904 17.295219421  -999.250000  -999.250000 64.328681946 102.78479767
 6212.0000000 5.2493801117 4.3629899025 3.4359900951 3.1315999031 8.2359399796 0.0963200033 2.1656599045 2.4580500126 20.387229919  -999.250000  -999.250000 64.460632324 103.69860077
 6212.5000000 5.7137198448 4.7612199783 3.7624700069 3.4476199150 8.2359399796 0.0829700008 2.1426301003 2.4820699692 25.290679932  -999.250000  -999.250000 64.401916504 104.68440247
 6213.0000000 6.0768098831 5.1474099159 4.0111098289 3.7276599407 8.2580499649 0.0695199966 2.0841000080 2.4966800213 31.707429886  -999.250000  -999.250000 64.213211060 105.19969940
 6213.5000000 6.3348288536 5.3457388878 4.1523499489 3.9038999081 8.2433099747 0.0618299991 2.0463600159 2.4946100712 27.830970764  -999.250000  -999.250000 64.015037537 104.92630005
 6214.0000000 6.6573300362 5.7432198524 4.3815488815 4.2166600227 8.2359399796 0.0617100000 2.0036098957 2.4970600605 26.416610718  -999.250000  -999.250000 63.763420105 104.14890289
 6214.5000000 7.6552200317 6.3639001846 4.7560300827 4.6304697990 8.2506799698 0.0625400022 1.9930499792 2.5031800270 23.089189529  -999.250000  -999.250000 63.640708923 103.34269714
 6215.0000000 7.5257411003 6.0945711136 4.5528898239 4.4541997910 8.2580499649 0.0641100034 2.0531599522 2.5017299652 22.500339508  -999.250000  -999.250000 63.465759277 102.82790375
 6215.5000000 6.3827199936 5.2620401382 4.0809998512 4.0505189896 8.2506799698 0.0766400024 2.1505599022 2.4957399368 23.875070572  -999.250000  -999.250000 63.800491333 102.67369843
 6216.0000000 5.5855598450 4.6023697853 3.6590299606 3.6411199570 8.2728004456 0.0935999975 2.2028300762 2.4936299324 22.826280594  -999.250000  -999.250000 63.744590759 102.75559998
 6216.5000000 5.4875998497 4.5518999100 3.6244900227 3.5678999424 8.2580499649 0.0929699987 2.1749300957 2.4928400517 23.419229507  -999.250000  -999.250000 63.764610291 102.81179810
 6217.0000000 6.0181598663 4.7811989784 3.8067300320 3.7090198994 8.2580499649 0.0835900009 2.1039900780 2.4930000305 24.188690186  -999.250000  -999.250000 63.616298676 102.86940002
 6217.5000000 6.2039198875 5.0460801125 3.9672698975 3.8082799911 8.2580499649 0.0750200003 2.0865700245 2.4842000008 23.786640167  -999.250000  -999.250000 63.529518127 102.93979645
