~Version Information
VERS  .          2.0                              :CWLS Log Ascii Standard - Version 2.0
WRAP  .          NO                               :One line per depth step
~Well Information Block
#MNEM.UNIT       Data Type                        Information
#---------       ---------                        -------------------------------
STRT  .F         5250.00000                       :START DEPTH
STOP  .F         7202.00000                       :STOP DEPTH
STEP  .F          0.50000                         :INCREMENT
NULL  .          -999.25                          :NULL DATA VALUE
COMP  .          ADM COMPANY                      :COMPANY
WELL  .          VERIFICATION WELL 1 Run 2        :WELL
FLD   .          WILDCAT                          :FIELD
LOC   .                                           :LOCATION
PROV  .                                           :PROVINCE
STAT  .                                           :STATE
CNTY  .                                           :COUNTY
CTRY  .                                           :COUNTRY
DATE  .                                           :DATE
UWI   .          VERIFICATION WELL 1 Run 2        :UNIQUE WELL UWI
LIC   .                                           :LICENSE NUMBER
API   .          121152346000                     :API NUMBER
SRVC  .                                           :SERVICE COMPANY
~Parameter Information Block
#MNEM.UNIT       Value                            Description
#---------       ---------                        -------------
LONG  .DEG       -88.893356                       :Well Surface Location
LATI  .DEG       39.879810                        :Well Surface Location
XWELL .DEG       -88.893356                       :X-coordinate of Well Head
YWELL .DEG       39.879810                        :Y-coordinate of Well Head
PDAT  .          GROUND LEVEL                     :Permanent Datum               
EPD   .ft        669.00                           :Elevation of Permanent Datum (PDAT) above Mean Sea Level
LMF   .          KELLY BUSHING                    :Logging Measured From (Name of Working Datum)
APD   .ft        15.00                            :Elevation of Working Datum (LMF) Above Permanent Datum
EDF   .ft        683.00                           :Elevation of Derrick Floor Above Mean Sea Level
EGL   .ft        669.00                           :Elevation of Ground Level Above Mean Sea Level
EKB   .ft        684.00                           :Elevation of Kelly Bushing Above Mean Sea Level
~Curve Information Block
#MNEM.UNIT       API Code            Curve    Description
#--------        --------------      -----    -------------------
DEPT  .F                             :0       Index
C44_BH.6PSI                          :1       C44 Referred to the Borehole Axis in a Deviated Well
C55_BH.6PSI                          :2       C55 Referred to the Borehole Axis in a Deviated Well
C66_BH.6PSI                          :3       C66 Referred to the Borehole Axis in a Deviated Well
GR_EDTC.GAPI                          :4       Gamma Ray                     
HD1_PPC1.IN                            :5       PPC1 Hole Diameter 1          
HD1_PPC1.IN                            :6       PPC1 Hole Diameter 1          
HD2_PPC1.IN                            :7       PPC1 Hole Diameter 2          
KINT  .MD                            :8       Intrinsic Permeability        
MAXXENE_OVERALL.                              :9       Overall estimate of maximum cross energy
MINXENE_OVERALL.                              :10      Overall estimate of minimum cross energy
PHIT  .V/V                           :11      Total Porosity_ includes all forms of porosity, including that occupied by bound fluids, and is independent of rock and fluid materials and of environmental effects
PPGI  .PS/F                          :12      Pore Pressure Gradient        
PPRS  .PSI                           :13      Pore Pressure                 
PR_HORIZ_FSA_SSA_DYN.                              :14      Dynamic Horizontal Poissons Ratio - Loading Fast Shear Azimuth - Displacement Slow Shear Aximuth
PR_VERT_FSA_DYN.                              :15      Dynamic Vertical Poissons Ratio - Loading Vertical - Displacement Fast Shear Aximuth
RHOZ  .G/C3                          :16      HRDD Standard Resolution Formation Density
SUWI  .V/V                           :17      Non-Clay Water Intergranular Water Saturation for Undisturbed Zone
TENS  .LBF                           :18      Cable Tension                 
TXSG  .PS/F                          :19      Total Minimum Horizontal Stress Gradient
TXSG  .PS/F                          :20      Total Minimum Horizontal Stress Gradient
TXSP  .PSI                           :21      Total Minimum Horizontal Stress - Sigma X
TXSP  .PSI                           :22      Total Minimum Horizontal Stress - Sigma X
TZSG  .PS/F                          :23      Total Vertical Stress Gradient
TZSP  .PSI                           :24      Total Vertical Stress - Sigma Z
VCL   .V/V                           :25      Volume of Clay Type Material Relative to Total Volume
YME_HORIZ_SSA_DYN.6PSI                          :26      Dynamic Horizontal Youngs Modulus in the Slow Shear Azimuth Direction
YME_HORIZ_SSA_STA.6PSI                          :27      Static Horizontal Youngs Modulus in the Slow Shear Azimuth Direction
YME_VERT_DYN.6PSI                          :28      Dynamic Vertical Youngs Modulus
YME_VERT_STA.6PSI                          :29      Static Vertical Youngs Modulus
~Ascii Data Section
# ...
   6160.00000       3.03021       2.89672       3.33527      99.33631       8.34348       8.32985       8.35711       3.84428       5.73812       0.74145       0.07814       0.43350    2670.35986       0.20590       0.23219       2.56101       1.00000    3362.53149       0.64300       0.60539    3960.87524    3729.17407       1.05000    6467.99951       0.09766       8.04397       6.35315       6.92135       5.46650 
   6160.50000       2.96792       2.83578       3.29829     118.55965       8.34995       8.35070       8.34920       8.23403       5.95178       0.72888       0.09724       0.43350    2670.57666       0.20819       0.23801       2.50943       1.00000    3372.09814       0.65150       0.61076    4013.55688    3762.61572       1.05000    6468.52490       0.08124       7.96989       5.95821       6.77480       5.06477 
   6161.00000       2.92178       2.79205       3.34303     154.77312       8.36822       8.35070       8.38573      13.48007       6.15304       0.71371       0.10600       0.43350    2670.79346       0.20852       0.24981       2.46837       1.00000    3360.72852       0.67153       0.61959    4137.28076    3817.27881       1.05000    6469.04980       0.06383       8.08025       5.88428       6.60545       4.81029 
   6161.50000       2.93117       2.78894       3.36551     166.84998       8.37482       8.35070       8.39893      11.36465       6.35858       0.68460       0.10202       0.43350    2671.01025       0.20938       0.25307       2.45868       1.00000    3387.35010       0.67651       0.62296    4168.34082    3838.36694       1.05000    6469.57471       0.06227       8.14034       5.99964       6.61031       4.87197 
   6162.00000       2.97209       2.80804       3.38978     147.65222       8.37254       8.34453       8.40056       8.86509       6.59223       0.62932       0.09741       0.43350    2671.22705       0.20652       0.24681       2.46507       1.00000    3397.28271       0.66832       0.61682    4118.19775    3800.84985       1.05000    6470.09961       0.06595       8.17965       6.11195       6.67961       4.99110 
   6162.50000       3.00029       2.81791       3.26616     107.97691       8.33476       8.31394       8.35558       7.98464       6.84973       0.55802       0.09618       0.43350    2671.44360       0.20513       0.22801       2.46319       1.00000    3414.82886       0.63714       0.60436    3926.38599    3724.36963       1.05000    6470.62451       0.07560       7.87230       5.90369       6.83648       5.12690 
   6163.00000       3.00605       2.81527       3.13795      82.87656       8.32312       8.30490       8.34134       9.69737       7.11903       0.49646       0.09667       0.43350    2671.66040       0.19959       0.21018       2.45444       1.00000    3391.77881       0.60972       0.59345    3757.68628    3657.45410       1.05000    6471.14990       0.07537       7.52850       5.63771       6.91633       5.17929 
   6163.50000       2.99897       2.80654       3.03272      69.89826       8.31526       8.30476       8.32577      11.11852       7.35603       0.47526       0.09959       0.43350    2671.87720       0.19500       0.19843       2.44663       1.00000    3379.73804       0.59191       0.58775    3648.24609    3622.59424       1.05000    6471.67480       0.07826       7.24823       5.38106       6.95322       5.16204 
   6164.00000       2.99942       2.79951       3.04271      68.26661       8.31216       8.30496       8.31936      10.39320       7.49759       0.49794       0.09830       0.43350    2672.09399       0.19124       0.19520       2.44613       1.00000    3351.46753       0.58947       0.58413    3633.47290    3600.57178       1.05000    6472.19971       0.08434       7.24922       5.40246       6.91597       5.15411 
   6164.50000       2.98724       2.78130       3.04356      73.76318       8.31018       8.30496       8.31539      10.60594       7.60254       0.52098       0.09983       0.43350    2672.31079       0.18933       0.19409       2.44274       1.00000    3363.75366       0.58930       0.58235    3632.72021    3589.91382       1.05000    6472.72461       0.08734       7.23959       5.37081       6.85869       5.08822 
   6165.00000       2.96287       2.75163       3.06522      81.65777       8.30786       8.30496       8.31076      13.03070       7.71552       0.53463       0.10139       0.43350    2672.52734       0.19058       0.19850       2.43920       1.00000    3372.45093       0.59660       0.58398    3678.01685    3600.21313       1.05000    6473.24951       0.08181       7.29877       5.38954       6.76572       4.99593 
   6165.50000       2.94516       2.72588       3.11832      85.30275       8.31218       8.30496       8.31940      15.25891       7.80467       0.56595       0.10419       0.43350    2672.74414       0.19291       0.20624       2.44394       1.00000    3350.86304       0.60910       0.58775    3755.38794    3623.74805       1.05000    6473.77490       0.06849       7.43975       5.44761       6.67476       4.88745 
   6166.00000       2.94644       2.71984       3.15273      82.50971       8.30997       8.30051       8.31942      14.99654       7.88695       0.58336       0.10255       0.43350    2672.96094       0.19285       0.20882       2.45349       1.00000    3348.67529       0.61403       0.58860    3786.13647    3629.30127       1.05000    6474.29980       0.05948       7.52146       5.53470       6.64503       4.88978 
   6166.50000       2.96384       2.74359       3.17196      81.27853       8.30875       8.29814       8.31936      11.06370       7.94307       0.57456       0.09805       0.43350    2673.17773       0.19009       0.20568       2.46846       1.00000    3360.79199       0.61065       0.58499    3765.59204    3607.35278       1.05000    6474.82471       0.06183       7.54980       5.63064       6.67236       4.97624 
   6167.00000       2.98728       2.77844       3.18400      81.19584       8.31530       8.29992       8.33068       6.57852       7.94507       0.56838       0.09050       0.43350    2673.39453       0.18568       0.19964       2.47783       1.00000    3385.38403       0.60337       0.57911    3720.97168    3571.38721       1.05000    6475.34961       0.07175       7.55040       5.75708       6.71817       5.12251 
   6167.50000       3.02104       2.81341       3.19000      77.84681       8.31637       8.29338       8.33935       4.62780       7.90126       0.56672       0.08512       0.43350    2673.61108       0.18274       0.19434       2.47978       1.00000    3404.14453       0.59616       0.57533    3676.84058    3548.34937       1.05000    6475.87451       0.08349       7.54590       5.84336       6.80065       5.26626 
   6168.00000       3.06814       2.85023       3.22433      68.44923       8.31569       8.29902       8.33235       3.78271       7.76343       0.56841       0.08257       0.43350    2673.82788       0.18282       0.19359       2.47794       1.00000    3393.19214       0.59471       0.57545    3668.18872    3549.40210       1.05000    6476.39990       0.08887       7.62764       5.94965       6.91031       5.39012 
   6168.50000       3.11674       2.88444       3.28157      59.73405       8.30938       8.29308       8.32569       3.37226       7.50562       0.57715       0.08303       0.43350    2674.04468       0.18550       0.19720       2.47487       1.00000    3371.05151       0.59897       0.57865    3694.76440    3569.40552       1.05000    6476.92480       0.09579       7.78062       6.06107       7.01833       5.46724 
   6169.00000       3.16659       2.91561       3.32133      58.52228       8.31032       8.29427       8.32636       2.92402       7.33514       0.58151       0.08276       0.43350    2674.26147       0.18692       0.19815       2.47955       1.00000    3372.95142       0.59955       0.58047    3698.63232    3580.93213       1.05000    6477.44971       0.10004       7.88427       6.14651       7.13361       5.56130 
   6169.50000       3.19987       2.92849       3.36130      61.81376       8.32269       8.29843       8.34695       2.71847       7.38798       0.55356       0.08450       0.43350    2674.47827       0.18528       0.19690       2.48213       1.00000    3386.60938       0.59897       0.57907    3695.36108    3572.55835       1.05000    6477.97461       0.11039       7.96814       6.18126       7.17468       5.56573 
