~Version Information
VERS  .          2.0                              :CWLS Log Ascii Standard - Version 2.0
WRAP  .          NO                               :One line per depth step
~Well Information Block
#MNEM.UNIT       Data Type                        Information
#---------       ---------                        -------------------------------
STRT  .F         5250.00000                       :START DEPTH
STOP  .F         7202.00000                       :STOP DEPTH
STEP  .F          0.50000                         :INCREMENT
NULL  .          -999.25                          :NULL DATA VALUE
COMP  .          ADM COMPANY                      :COMPANY
WELL  .          VERIFICATION WELL 1 Run 2        :WELL
FLD   .          WILDCAT                          :FIELD
LOC   .                                           :LOCATION
PROV  .                                           :PROVINCE
STAT  .                                           :STATE
CNTY  .                                           :COUNTY
CTRY  .                                           :COUNTRY
DATE  .                                           :DATE
UWI   .          VERIFICATION WELL 1 Run 2        :UNIQUE WELL UWI
LIC   .                                           :LICENSE NUMBER
API   .          121152346000                     :API NUMBER
SRVC  .                                           :SERVICE COMPANY
~Parameter Information Block
#MNEM.UNIT       Value                            Description
#---------       ---------                        -------------
LONG  .DEG       -88.893356                       :Well Surface Location
LATI  .DEG       39.879810                        :Well Surface Location
XWELL .DEG       -88.893356                       :X-coordinate of Well Head
YWELL .DEG       39.879810                        :Y-coordinate of Well Head
PDAT  .          GROUND LEVEL                     :Permanent Datum               
EPD   .ft        669.00                           :Elevation of Permanent Datum (PDAT) above Mean Sea Level
LMF   .          KELLY BUSHING                    :Logging Measured From (Name of Working Datum)
APD   .ft        15.00                            :Elevation of Working Datum (LMF) Above Permanent Datum
EDF   .ft        683.00                           :Elevation of Derrick Floor Above Mean Sea Level
EGL   .ft        669.00                           :Elevation of Ground Level Above Mean Sea Level
EKB   .ft        684.00                           :Elevation of Kelly Bushing Above Mean Sea Level
~Curve Information Block
#MNEM.UNIT       API Code            Curve    Description
#--------        --------------      -----    -------------------
DEPT  .F                             :0       Index
C44_BH.6PSI                          :1       C44 Referred to the Borehole Axis in a Deviated Well
C55_BH.6PSI                          :2       C55 Referred to the Borehole Axis in a Deviated Well
C66_BH.6PSI                          :3       C66 Referred to the Borehole Axis in a Deviated Well
GR_EDTC.GAPI                          :4       Gamma Ray                     
HD1_PPC1.IN                            :5       PPC1 Hole Diameter 1          
HD1_PPC1.IN                            :6       PPC1 Hole Diameter 1          
HD2_PPC1.IN                            :7       PPC1 Hole Diameter 2          
KINT  .MD                            :8       Intrinsic Permeability        
MAXXENE_OVERALL.                              :9       Overall estimate of maximum cross energy
MINXENE_OVERALL.                              :10      Overall estimate of minimum cross energy
PHIT  .V/V                           :11      Total Porosity_ includes all forms of porosity, including that occupied by bound fluids, and is independent of rock and fluid materials and of environmental effects
PPGI  .PS/F                          :12      Pore Pressure Gradient        
PPRS  .PSI                           :13      Pore Pressure                 
PR_HORIZ_FSA_SSA_DYN.                              :14      Dynamic Horizontal Poissons Ratio - Loading Fast Shear Azimuth - Displacement Slow Shear Aximuth
PR_VERT_FSA_DYN.                              :15      Dynamic Vertical Poissons Ratio - Loading Vertical - Displacement Fast Shear Aximuth
RHOZ  .G/C3                          :16      HRDD Standard Resolution Formation Density
SUWI  .V/V                           :17      Non-Clay Water Intergranular Water Saturation for Undisturbed Zone
TENS  .LBF                           :18      Cable Tension                 
TXSG  .PS/F                          :19      Total Minimum Horizontal Stress Gradient
TXSG  .PS/F                          :20      Total Minimum Horizontal Stress Gradient
TXSP  .PSI                           :21      Total Minimum Horizontal Stress - Sigma X
TXSP  .PSI                           :22      Total Minimum Horizontal Stress - Sigma X
TZSG  .PS/F                          :23      Total Vertical Stress Gradient
TZSP  .PSI                           :24      Total Vertical Stress - Sigma Z
VCL   .V/V                           :25      Volume of Clay Type Material Relative to Total Volume
YME_HORIZ_SSA_DYN.6PSI                          :26      Dynamic Horizontal Youngs Modulus in the Slow Shear Azimuth Direction
YME_HORIZ_SSA_STA.6PSI                          :27      Static Horizontal Youngs Modulus in the Slow Shear Azimuth Direction
YME_VERT_DYN.6PSI                          :28      Dynamic Vertical Youngs Modulus
YME_VERT_STA.6PSI                          :29      Static Vertical Youngs Modulus
~Ascii Data Section
# ...
   5510.00000       2.58595       2.55144       2.97848     222.34483       8.43861       8.42952       8.44770       0.31710       4.12909       0.37189       0.05379       0.43350    2388.58496       0.24254       0.29649       2.61290       1.00000    3182.28687       0.72581       0.67741    3999.23291    3732.55469       1.05000    5785.49951       0.15567       7.40178       6.24428       6.11053       5.15496 
   5510.50000       2.63248       2.59688       2.95737     226.63130       8.42972       8.41942       8.44002       0.85661       4.93361       0.39498       0.05283       0.43350    2388.80176       0.24564       0.28749       2.58872       1.00000    3217.43140       0.70889       0.66883    3906.35669    3685.61084       1.05000    5786.02490       0.12692       7.36762       6.23110       6.28561       5.31600 
   5511.00000       2.68968       2.66834       2.96283     221.06786       8.42972       8.41942       8.44002       1.59532       5.34500       0.39981       0.05488       0.43350    2389.01855       0.24622       0.27903       2.57894       1.00000    3287.22144       0.69375       0.66007    3823.27319    3637.66431       1.05000    5786.54980       0.10958       7.38468       6.21206       6.47563       5.44737 
   5511.50000       2.75565       2.75531       2.95572     203.34248       8.42331       8.41421       8.43242       2.53895       5.39778       0.38611       0.05950       0.43350    2389.23511       0.24936       0.27184       2.57351       1.00000    3289.31299       0.67870       0.65403    3740.62866    3604.67065       1.05000    5787.07471       0.10200       7.38554       6.13737       6.72486       5.58835 
   5512.00000       2.83764       2.84139       3.03797     181.19374       8.40508       8.40017       8.41000       1.82662       5.37931       0.36572       0.05847       0.43350    2389.45190       0.24762       0.26918       2.56557       1.00000    3218.13721       0.67508       0.65085    3721.05933    3587.46045       1.05000    5787.59961       0.10293       7.58048       6.31663       6.92094       5.76705 
   5512.50000       2.94569       2.92755       3.11765     162.92131       8.38064       8.37998       8.38130       1.15651       5.20195       0.35211       0.05599       0.43350    2389.66870       0.24788       0.26640       2.56622       1.00000    3169.50977       0.67010       0.64889    3693.90601    3577.02686       1.05000    5788.12451       0.10341       7.78091       6.52629       7.18133       6.02339 
   5513.00000       3.04533       3.00745       3.22785     144.89882       8.36327       8.35820       8.36834       0.59554       4.97872       0.34198       0.05251       0.43350    2389.88550       0.24530       0.26481       2.57217       1.00000    3174.75171       0.66919       0.64668    3689.21973    3565.14990       1.05000    5788.64990       0.10310       8.03931       6.80485       7.37877       6.24574 
   5513.50000       3.11170       3.07238       3.35288     133.76361       8.33659       8.32784       8.34534       0.55666       4.87643       0.33240       0.05350       0.43350    2390.10229       0.23785       0.26303       2.57473       1.00000    3176.05884       0.67098       0.64124    3699.45361    3535.49292       1.05000    5789.17480       0.09953       8.30074       7.00798       7.43694       6.27871 
   5514.00000       3.13760       3.10856       3.45948     113.93802       8.33659       8.32784       8.34534       0.42190       4.96966       0.32491       0.05270       0.43350    2390.31885       0.22767       0.26025       2.56618       1.00000    3162.52954       0.67288       0.63319    3710.25903    3491.41626       1.05000    5789.69971       0.11050       8.49423       7.18636       7.37151       6.23650 
   5514.50000       3.15071       3.10551       3.49122     109.44098       8.32431       8.31626       8.33235       0.68376       5.09437       0.31320       0.05692       0.43350    2390.53564       0.21741       0.24933       2.54880       1.00000    3155.70581       0.66188       0.61989    3649.92236    3418.39429       1.05000    5790.22461       0.11072       8.50048       7.11236       7.31089       6.11703 
   5515.00000       3.17075       3.09418       3.47969     115.19218       8.32431       8.31626       8.33235       1.13178       4.91170       0.27909       0.05980       0.43350    2390.75244       0.20993       0.23656       2.53857       1.00000    3185.82349       0.64606       0.60797    3563.01123    3352.93335       1.05000    5790.74951       0.10788       8.42036       6.99173       7.31234       6.07170 
   5515.50000       3.20878       3.08333       3.49085     129.11148       8.32431       8.31626       8.33235       1.76975       4.68266       0.23018       0.06578       0.43350    2390.96924       0.20779       0.23166       2.54535       1.00000    3197.88232       0.63986       0.60509    3529.17407    3337.34717       1.05000    5791.27490       0.10242       8.43242       6.89030       7.36652       6.01933 
   5516.00000       3.17666       3.07323       3.55729     122.48602       8.32431       8.31626       8.33235       1.49688       4.00339       0.19905       0.06984       0.43350    2391.18604       0.21479       0.25163       2.56028       1.00000    3176.64722       0.66845       0.62152    3687.16870    3428.29321       1.05000    5791.79980       0.10505       8.64272       6.98459       7.26763       5.87331 
   5516.50000       3.09863       3.05170       3.57905      95.84295       8.32019       8.31653       8.32385       0.78160       3.05329       0.18677       0.07008       0.43350    2391.40259       0.22017       0.27403       2.56155       1.00000    3212.41187       0.70083       0.64160    3866.15063    3539.37671       1.05000    5792.32471       0.11370       8.73411       7.05381       7.07775       5.71611 
   5517.00000       3.03893       3.02747       3.58510      71.81199       8.31287       8.29338       8.33235       0.39289       2.57469       0.18456       0.06003       0.43350    2391.61938       0.21730       0.28145       2.55298       1.00000    3208.47070       0.71402       0.64668    3939.24683    3567.71655       1.05000    5792.84961       0.12833       8.72828       7.24297       6.89774       5.72394 
   5517.50000       3.00645       3.00217       3.50232      83.58371       8.30077       8.28207       8.31947       0.37462       2.15835       0.18528       0.04822       0.43350    2391.83618       0.21644       0.27030       2.54535       1.00000    3168.47070       0.69698       0.63584    3845.58813    3508.24390       1.05000    5793.37451       0.11990       8.52072       7.29313       6.87765       5.88678 
   5518.00000       2.94851       2.98925       3.52042     135.14366       8.30876       8.29367       8.32385       0.41804       1.90933       0.18392       0.04447       0.43350    2392.05298       0.20892       0.26505       2.54749       1.00000    3143.58838       0.69428       0.62879    3831.03931    3469.65063       1.05000    5793.89990       0.12328       8.51183       7.35607       6.74197       5.82652 
   5518.50000       2.93475       2.99512       3.49990     178.63850       8.30637       8.29338       8.31936       0.54957       1.90389       0.18133       0.04479       0.43350    2392.26978       0.21246       0.26676       2.56276       1.00000    3192.82349       0.69495       0.63271    3835.09595    3491.62744       1.05000    5794.42480       0.12069       8.48700       7.32861       6.77859       5.85338 
   5519.00000       2.96694       3.00352       3.47137     203.98193       8.32431       8.31626       8.33235       0.11485       1.80644       0.17957       0.03795       0.43350    2392.48657       0.22318       0.27702       2.58733       1.00000    3180.47070       0.70402       0.64633    3885.48975    3567.11719       1.05000    5794.94971       0.13412       8.49220       7.46147       6.90156       6.06390 
   5519.50000       3.00222       2.99424       3.40444     197.11203       8.33080       8.31626       8.34534       0.02766       1.53028       0.17917       0.03188       0.43350    2392.70312       0.23598       0.28444       2.61441       1.00000    3144.52954       0.70764       0.65804    3905.80151    3632.07300       1.05000    5795.47461       0.13916       8.41562       7.50709       7.04587       6.28521 
