~Version Information
VERS  .          2.0                              :CWLS Log Ascii Standard - Version 2.0
WRAP  .          NO                               :One line per depth step
~Well Information Block
#MNEM.UNIT       Data Type                        Information
#---------       ---------                        -------------------------------
STRT  .F         1820.00000                       :START DEPTH
STOP  .F         5250.00000                       :STOP DEPTH
STEP  .F          0.50000                         :INCREMENT
NULL  .          -999.25                          :NULL DATA VALUE
COMP  .          ADM COMPANY                      :COMPANY
WELL  .          VERIFICATION WELL 1              :WELL
FLD   .          WILDCAT                          :FIELD
LOC   .                                           :LOCATION
PROV  .                                           :PROVINCE
STAT  .                                           :STATE
CNTY  .                                           :COUNTY
CTRY  .                                           :COUNTRY
DATE  .                                           :DATE
UWI   .          VERIFICATION WELL 1              :UNIQUE WELL UWI
LIC   .                                           :LICENSE NUMBER
API   .                                           :API NUMBER
SRVC  .                                           :SERVICE COMPANY
~Parameter Information Block
#MNEM.UNIT       Value                            Description
#---------       ---------                        -------------
LONG  .DEG       -88.893356                       :Well Surface Location
LATI  .DEG       39.879810                        :Well Surface Location
XWELL .DEG       -88.893356                       :X-coordinate of Well Head
YWELL .DEG       39.879810                        :Y-coordinate of Well Head
PDAT  .          GROUND LEVEL                     :Permanent Datum               
EPD   .ft        669.00                           :Elevation of Permanent Datum (PDAT) above Mean Sea Level
LMF   .          KELLY BUSHING                    :Logging Measured From (Name of Working Datum)
APD   .ft        15.00                            :Elevation of Working Datum (LMF) Above Permanent Datum
EDF   .ft        683.00                           :Elevation of Derrick Floor Above Mean Sea Level
EGL   .ft        669.00                           :Elevation of Ground Level Above Mean Sea Level
EKB   .ft        684.00                           :Elevation of Kelly Bushing Above Mean Sea Level
~Curve Information Block
#MNEM.UNIT       API Code            Curve    Description
#--------        --------------      -----    -------------------
DEPT  .F                             :0       Index
C44_BH.6PSI                          :1       C44 Referred to the Borehole Axis in a Deviated Well
C55_BH.6PSI                          :2       C55 Referred to the Borehole Axis in a Deviated Well
C66_BH.6PSI                          :3       C66 Referred to the Borehole Axis in a Deviated Well
GR_EDTC.GAPI                          :4       Gamma Ray                     
HD1_PPC1.IN                            :5       PPC1 Hole Diameter 1          
HD1_PPC1.IN                            :6       PPC1 Hole Diameter 1          
HD2_PPC1.IN                            :7       PPC1 Hole Diameter 2          
KINT  .MD                            :8       Intrinsic Permeability        
MAXXENE_OVERALL.                              :9       Overall estimate of maximum cross energy
MINXENE_OVERALL.                              :10      Overall estimate of minimum cross energy
PHIT  .V/V                           :11      Total Porosity_ includes all forms of porosity, including that occupied by bound fluids, and is independent of rock and fluid materials and of environmental effects
PPGI  .PS/F                          :12      Pore Pressure Gradient        
PPRS  .PSI                           :13      Pore Pressure                 
PR_HORIZ_SSA_FSA_DYN.                              :14      Dynamic Horizontal Poissons Ratio - Loading Slow Shear Azimuth - Displacement Fast Shear Azimuth
PR_VERT_FSA_DYN.                              :15      Dynamic Vertical Poissons Ratio - Loading Vertical - Displacement Fast Shear Aximuth
RHOZ  .G/C3                          :16      HRDD Standard Resolution Formation Density
RHOZ  .G/C3                          :17      HRDD Standard Resolution Formation Density
SUWI  .V/V                           :18      Non-Clay Water Intergranular Water Saturation for Undisturbed Zone
TENS  .LBF                           :19      Cable Tension                 
TXSG  .PS/F                          :20      Total Minimum Horizontal Stress Gradient
TXSG  .PS/F                          :21      Total Minimum Horizontal Stress Gradient
TXSP  .PSI                           :22      Total Minimum Horizontal Stress - Sigma X
TXSP  .PSI                           :23      Total Minimum Horizontal Stress - Sigma X
TZSG  .PS/F                          :24      Total Vertical Stress Gradient
TZSP  .PSI                           :25      Total Vertical Stress - Sigma Z
VCL   .V/V                           :26      Volume of Clay Type Material Relative to Total Volume
YME_HORIZ_SSA_DYN.6PSI                          :27      Dynamic Horizontal Youngs Modulus in the Slow Shear Azimuth Direction
YME_HORIZ_SSA_STA.6PSI                          :28      Static Horizontal Youngs Modulus in the Slow Shear Azimuth Direction
YME_VERT_DYN.6PSI                          :29      Dynamic Vertical Youngs Modulus
YME_VERT_STA.6PSI                          :30      Static Vertical Youngs Modulus
~Ascii Data Section
# ...
   4556.00000       4.41628       4.39839       2.08695      19.91470      13.07751      13.60325      12.55176       0.70212      43.60910      37.13029       0.05689       0.43350    1975.02600       0.33458       0.33823       2.71775       2.71775       1.00000    2639.00000       0.74476       0.74729    3393.13843    3404.67480       1.05000    4783.79980       0.04915      11.69268       9.78406      11.81998       9.89057 
   4556.50000       4.52918       4.52918       2.27237      18.77290      13.19545      13.79132      12.59958       0.65910      41.97735      34.36230       0.05322       0.43350    1975.24268       0.07720       0.05566       2.71898       2.71898       1.00000    2642.00000       0.44420       0.72246    2023.98730    3291.90039       1.05000    4784.32471       0.04047       4.89558       4.13617      17.01695      14.37726 
   4557.00000       4.54353       4.54353       2.37700      17.53200      12.84454      13.24516      12.44393       1.22058      39.85915      31.05688       0.05763       0.43350    1975.45947       0.07863       0.05723       2.69402       2.69402       1.00000    2627.00000       0.44536       0.71249    2029.48633    3246.81567       1.05000    4784.84961       0.02668       5.12782       4.28241      16.56200      13.83146 
   4557.50000       4.48544       4.48544       2.42928      17.00506      12.86566      13.28739      12.44393       0.96098      36.94093      28.48415       0.05762       0.43350    1975.67627       0.17027       0.11726       2.68416       2.68416       1.00000    2608.00000       0.46366       0.71718    2113.11499    3268.55322       1.05000    4785.37500       0.02563       5.68583       4.74854      16.42665      13.71879 
   4558.00000       4.35331       4.35331       2.48107      17.22984      12.84701      13.29809      12.39593       0.40524      33.30690      26.47141       0.05653       0.43350    1975.89294       0.29402       0.19058       2.68806       2.68806       1.00000    2591.00000       0.49980       0.73065    2278.08569    3330.28613       1.05000    4785.89990       0.02716       6.42113       5.37810      16.11881      13.50052 
   4558.50000       4.25668       4.25668       2.62291      15.36137      12.80620      13.19246      12.41994       0.17504      29.08525      24.37203       0.05082       0.43350    1976.10974       0.36692       0.23553       2.71097       2.71097       1.00000    2598.00000       0.53901       0.74045    2457.05957    3375.34180       1.05000    4786.42480       0.03654       7.17061       6.09632      15.58836      13.25295 
   4559.00000       4.30624       4.30624       2.75514      15.15705      12.77368      13.13942      12.40794       0.07470      24.65020      22.24710       0.04073       0.43350    1976.32642       0.37396       0.24254       2.74451       2.74451       1.00000    2610.00000       0.54942       0.74067    2504.80664    3376.71899       1.05000    4786.94971       0.04715       7.57088       6.60546      15.59927      13.61009 
   4559.50000       4.49682       4.49682       2.86787      14.32526      12.78109      13.11824      12.44393       0.03217      21.01718      19.55095       0.03404       0.43350    1976.54321       0.33862       0.22193       2.76783       2.76783       1.00000    2563.00000       0.53142       0.73227    2423.02661    3338.79834       1.05000    4787.47461       0.06189       7.67796       6.81241      16.22041      14.39186 
   4560.00000       4.72529       4.72529       3.03741      13.77655      12.72389      13.07586      12.37192       0.01165      18.67030      16.01052       0.02776       0.43350    1976.76001       0.29632       0.19792       2.77688       2.77688       1.00000    2605.00000       0.51445       0.72257    2345.88843    3294.89893       1.05000    4788.00000       0.07141       7.87487       7.09642      16.86888      15.20135 
   4560.50000       4.87712       4.87712       3.23244      13.43215      12.70537      13.08689      12.32385       0.01000      17.04914      12.47406       0.02572       0.43350    1976.97668       0.27540       0.18792       2.78532       2.78532       1.00000    2617.00000       0.51088       0.71367    2329.86719    3254.69067       1.05000    4788.52490       0.07077       8.24528       7.46739      17.03630      15.42903 
   4561.00000       4.92231       4.92231       3.35454      12.07160      12.67482      13.00176      12.34788       0.02745      15.46393       9.69617       0.02934       0.43350    1977.19348       0.26839       0.18631       2.78138       2.78138       1.00000    2637.00000       0.51298       0.70628    2339.69482    3221.36353       1.05000    4789.04980       0.05792       8.50970       7.63878      16.80942      15.08907 
   4561.50000       4.97069       4.97069       3.48524      14.08129      12.64896      12.93803      12.35990       0.11707      13.92176       7.55394       0.03667       0.43350    1977.41016       0.26033       0.18417       2.77214       2.77214       1.00000    2635.00000       0.51490       0.69805    2348.70581    3184.16870       1.05000    4789.57471       0.03915       8.78513       7.74370      16.56726      14.60330 
   4562.00000       4.99634       4.99634       3.70297      12.98386      12.65435      12.94880      12.35990       0.23053      12.78681       5.69148       0.04546       0.43350    1977.62695       0.26917       0.19584       2.75507       2.75507       1.00000    2610.00000       0.53026       0.68973    2419.04614    3146.55786       1.05000    4790.09961       0.01764       9.39943       8.10258      16.04851      13.83428 
   4562.50000       4.95915       4.96750       3.73760      13.16677      12.59171      12.79951      12.38391       0.23578      11.71804       4.31848       0.04575       0.43350    1977.84375       0.29436       0.29565       2.75985       2.75985       1.00000    2577.00000       0.69104       0.69191    3152.87280    3156.82886       1.05000    4790.62500       0.00929      12.81635      11.03985      12.87225      11.08800 
   4563.00000       4.85947       4.86361       3.71145      13.53242      12.64813      12.85233      12.44393       0.23856      10.40136       3.42262       0.04145       0.43350    1978.06042       0.30147       0.30214       2.77172       2.77172       1.00000    2607.00000       0.69976       0.70021    3193.00024    3195.07031       1.05000    4791.14990       0.01809      12.63812      11.00643      12.66616      11.03085 
   4563.50000       4.77110       4.68482       3.52462      14.18274      12.52154      12.66316      12.37992       0.27412       9.18448       2.75851       0.03968       0.43350    1978.27722       0.29279       0.30689       2.76816       2.76816       1.00000    2643.44434       0.69269       0.70224    3161.10938    3204.67700       1.05000    4791.67480       0.02619      11.89787      10.40829      12.47060      10.90932 
   4564.00000       4.74634       4.49221       3.36076      15.68662      12.52017      12.63109      12.40925       0.23053       8.02417       2.24122       0.04029       0.43350    1978.49402       0.26232       0.30093       2.75217       2.75217       1.00000    2632.44434       0.66192       0.68776    3020.98145    3138.93164       1.05000    4792.19971       0.03526      10.76480       9.40257      12.34929      10.78655 
   4564.50000       4.73067       4.36693       3.33078      17.38953      12.51239      12.62887      12.39592       0.42602       6.73482       1.82313       0.04498       0.43350    1978.71069       0.23665       0.28740       2.72219       2.72219       1.00000    2618.00000       0.63503       0.66860    2898.59546    3051.83667       1.05000    4792.72461       0.02981      10.02955       8.65640      12.18054      10.51290 
   4565.00000       4.78014       4.45622       3.52274      18.23964      12.47445      12.60503      12.34387       0.17544       5.55955       1.49566       0.03763       0.43350    1978.92749       0.23699       0.28113       2.74684       2.74684       1.00000    2660.77783       0.63404       0.66319    2894.38086    3027.46558       1.05000    4793.25000       0.03610      10.32495       9.07908      12.24792      10.77001 
