~Version Information
VERS  .          2.0                              :CWLS Log Ascii Standard - Version 2.0
WRAP  .          NO                               :One line per depth step
~Well Information Block
#MNEM.UNIT       Data Type                        Information
#---------       ---------                        -------------------------------
STRT  .F         5250.00000                       :START DEPTH
STOP  .F         7202.00000                       :STOP DEPTH
STEP  .F          0.50000                         :INCREMENT
NULL  .          -999.25                          :NULL DATA VALUE
COMP  .          ADM COMPANY                      :COMPANY
WELL  .          VERIFICATION WELL 1 Run 2        :WELL
FLD   .          WILDCAT                          :FIELD
LOC   .                                           :LOCATION
PROV  .                                           :PROVINCE
STAT  .                                           :STATE
CNTY  .                                           :COUNTY
CTRY  .                                           :COUNTRY
DATE  .                                           :DATE
UWI   .          VERIFICATION WELL 1 Run 2        :UNIQUE WELL UWI
LIC   .                                           :LICENSE NUMBER
API   .          121152346000                     :API NUMBER
SRVC  .                                           :SERVICE COMPANY
~Parameter Information Block
#MNEM.UNIT       Value                            Description
#---------       ---------                        -------------
LONG  .DEG       -88.893356                       :Well Surface Location
LATI  .DEG       39.879810                        :Well Surface Location
XWELL .DEG       -88.893356                       :X-coordinate of Well Head
YWELL .DEG       39.879810                        :Y-coordinate of Well Head
PDAT  .          GROUND LEVEL                     :Permanent Datum               
EPD   .ft        669.00                           :Elevation of Permanent Datum (PDAT) above Mean Sea Level
LMF   .          KELLY BUSHING                    :Logging Measured From (Name of Working Datum)
APD   .ft        15.00                            :Elevation of Working Datum (LMF) Above Permanent Datum
EDF   .ft        683.00                           :Elevation of Derrick Floor Above Mean Sea Level
EGL   .ft        669.00                           :Elevation of Ground Level Above Mean Sea Level
EKB   .ft        684.00                           :Elevation of Kelly Bushing Above Mean Sea Level
~Curve Information Block
#MNEM.UNIT       API Code            Curve    Description
#--------        --------------      -----    -------------------
DEPT  .F                             :0       Index
C44_BH.6PSI                          :1       C44 Referred to the Borehole Axis in a Deviated Well
C55_BH.6PSI                          :2       C55 Referred to the Borehole Axis in a Deviated Well
C66_BH.6PSI                          :3       C66 Referred to the Borehole Axis in a Deviated Well
GR_EDTC.GAPI                          :4       Gamma Ray                     
HD1_PPC1.IN                            :5       PPC1 Hole Diameter 1          
HD1_PPC1.IN                            :6       PPC1 Hole Diameter 1          
HD2_PPC1.IN                            :7       PPC1 Hole Diameter 2          
KINT  .MD                            :8       Intrinsic Permeability        
MAXXENE_OVERALL.                              :9       Overall estimate of maximum cross energy
MINXENE_OVERALL.                              :10      Overall estimate of minimum cross energy
PHIT  .V/V                           :11      Total Porosity_ includes all forms of porosity, including that occupied by bound fluids, and is independent of rock and fluid materials and of environmental effects
PPGI  .PS/F                          :12      Pore Pressure Gradient        
PPRS  .PSI                           :13      Pore Pressure                 
PR_HORIZ_FSA_SSA_DYN.                              :14      Dynamic Horizontal Poissons Ratio - Loading Fast Shear Azimuth - Displacement Slow Shear Aximuth
PR_VERT_FSA_DYN.                              :15      Dynamic Vertical Poissons Ratio - Loading Vertical - Displacement Fast Shear Aximuth
RHOZ  .G/C3                          :16      HRDD Standard Resolution Formation Density
SUWI  .V/V                           :17      Non-Clay Water Intergranular Water Saturation for Undisturbed Zone
TENS  .LBF                           :18      Cable Tension                 
TXSG  .PS/F                          :19      Total Minimum Horizontal Stress Gradient
TXSG  .PS/F                          :20      Total Minimum Horizontal Stress Gradient
TXSP  .PSI                           :21      Total Minimum Horizontal Stress - Sigma X
TXSP  .PSI                           :22      Total Minimum Horizontal Stress - Sigma X
TZSG  .PS/F                          :23      Total Vertical Stress Gradient
TZSP  .PSI                           :24      Total Vertical Stress - Sigma Z
VCL   .V/V                           :25      Volume of Clay Type Material Relative to Total Volume
YME_HORIZ_SSA_DYN.6PSI                          :26      Dynamic Horizontal Youngs Modulus in the Slow Shear Azimuth Direction
YME_HORIZ_SSA_STA.6PSI                          :27      Static Horizontal Youngs Modulus in the Slow Shear Azimuth Direction
YME_VERT_DYN.6PSI                          :28      Dynamic Vertical Youngs Modulus
YME_VERT_STA.6PSI                          :29      Static Vertical Youngs Modulus
~Ascii Data Section
# ...
   6030.00000       3.61743       3.48236       3.88188      23.79601       8.32996       8.32756       8.33235       5.29330       1.99708       0.35262       0.07406       0.43350    2614.00488       0.17661       0.19250       2.54309       1.00000    3270.94116       0.59633       0.56373    3595.89209    3399.27344       1.05000    6331.49951       0.02288       9.13491       7.29715       8.08583       6.45912 
   6030.50000       3.60524       3.42073       3.88732      21.58399       8.32996       8.32756       8.33235       4.63714       1.94308       0.36394       0.07443       0.43350    2614.22168       0.17599       0.19332       2.54570       1.00000    3263.93750       0.59898       0.56420    3612.16113    3402.41357       1.05000    6332.02490       0.02780       9.14287       7.29603       7.99092       6.37678 
   6031.00000       3.53090       3.34984       3.83478      22.58795       8.32996       8.32756       8.33235       6.76660       1.91873       0.37611       0.08391       0.43350    2614.43848       0.17020       0.18802       2.52705       1.00000    3260.11792       0.59496       0.55750    3588.22925    3362.26367       1.05000    6332.54980       0.03020       8.97494       6.97398       7.76481       6.03365 
   6031.50000       3.46211       3.28220       3.66744      20.40461       8.35083       8.33910       8.36257       8.83913       1.91681       0.39129       0.09237       0.43350    2614.65527       0.16010       0.17067       2.50270       1.00000    3268.62500       0.57305       0.54774    3456.36963    3303.66675       1.05000    6333.07471       0.03576       8.50919       6.45297       7.63860       5.79275 
   6032.00000       3.42146       3.22506       3.43506      19.26159       8.33645       8.32756       8.34534      11.56979       1.94139       0.40540       0.09645       0.43350    2614.87207       0.14794       0.14912       2.48467       1.00000    3260.50000       0.54476       0.54308    3285.97705    3275.86084       1.05000    6333.59961       0.03427       7.88650       5.90964       7.64823       5.73109 
   6032.50000       3.40499       3.20148       3.34646      19.89261       8.32996       8.32756       8.33235      10.22326       2.01671       0.41315       0.09381       0.43350    2615.08862       0.14629       0.14476       2.48412       1.00000    3312.47070       0.53803       0.54524    3245.63794    3289.17285       1.05000    6334.12451       0.03723       7.67200       5.79367       7.67291       5.79436 
   6033.00000       3.40335       3.20128       3.36246      21.36516       8.32996       8.32756       8.33235       9.97336       2.16492       0.41788       0.09116       0.43350    2615.30542       0.15360       0.15266       2.49600       1.00000    3298.06274       0.54552       0.55057    3291.14575    3321.56323       1.05000    6334.64990       0.03328       7.75784       5.90393       7.70042       5.86023 
   6033.50000       3.40790       3.21906       3.38677      24.69357       8.32996       8.32756       8.33235       7.47600       2.37468       0.42432       0.08720       0.43350    2615.52222       0.16020       0.16001       2.51404       1.00000    3276.52954       0.55266       0.55526    3334.44458    3350.16699       1.05000    6335.17480       0.03836       7.85865       6.04943       7.74716       5.96360 
   6034.00000       3.41884       3.21567       3.39864      27.16455       8.34203       8.33444       8.34962       6.37913       2.58228       0.43356       0.08492       0.43350    2615.73901       0.16297       0.16288       2.52285       1.00000    3216.89990       0.55545       0.55794    3351.57764    3366.60522       1.05000    6335.69971       0.03970       7.90505       6.12497       7.77669       6.02552 
   6034.50000       3.37340       3.19561       3.38696      28.11414       8.34161       8.32756       8.35565       5.27890       2.74769       0.43752       0.08522       0.43350    2615.95581       0.17121       0.17268       2.51418       1.00000    3221.58813       0.56559       0.56392    3413.04883    3402.95898       1.05000    6336.22461       0.04914       7.93370       6.14191       7.71500       5.97261 
   6035.00000       3.35907       3.19331       3.38049      29.74190       8.33126       8.32756       8.33495       4.82374       2.87491       0.43099       0.08576       0.43350    2616.17236       0.17035       0.17214       2.50938       1.00000    3277.23828       0.56530       0.56266    3411.61523    3395.67554       1.05000    6336.74951       0.05493       7.91269       6.11621       7.67892       5.93551 
   6035.50000       3.40853       3.21772       3.38787      32.16040       8.33314       8.33218       8.33410       3.17563       2.95065       0.41638       0.08189       0.43350    2616.38916       0.15814       0.15798       2.51486       1.00000    3240.74561       0.55091       0.55346    3325.04028    3340.41479       1.05000    6337.27490       0.06560       7.84727       6.13276       7.73205       6.04272 
   6036.00000       3.48415       3.26455       3.40713      29.50848       8.34854       8.33885       8.35822       2.22070       2.97549       0.40218       0.07800       0.43350    2616.60596       0.14377       0.14167       2.52916       1.00000    3164.56250       0.53485       0.54434    3228.32617    3285.64111       1.05000    6337.79980       0.07252       7.79396       6.15811       7.84477       6.19825 
   6036.50000       3.52052       3.29057       3.40876      27.03596       8.34854       8.33885       8.35822       2.06696       2.95452       0.39646       0.07711       0.43350    2616.82275       0.13622       0.13319       2.53037       1.00000    3173.50684       0.52661       0.54039    3178.89258    3262.07397       1.05000    6338.32471       0.07290       7.74622       6.13562       7.90824       6.26395 
   6037.00000       3.54085       3.30860       3.39810      23.78813       8.34532       8.33904       8.35159       2.66612       2.88819       0.39577       0.08089       0.43350    2617.03955       0.12623       0.12623       2.52245       1.00000    3156.83325       0.51023       0.52101    3080.28027    3145.31592       1.05000    6338.84961       0.06953       6.88674       5.39731       7.97563       6.25070 
   6037.50000       3.54933       3.31884       3.38665      22.24483       8.34283       8.33894       8.34672       3.75498       2.78180       0.39498       0.08331       0.43350    2617.25610       0.12622       0.12622       2.51395       1.00000    3144.54419       0.51034       0.52101    3081.17212    3145.60840       1.05000    6339.37451       0.05879       6.91322       5.38108       7.99463       6.22284 
   6038.00000       3.56372       3.33413       3.45763      22.30894       8.34168       8.34528       8.33808       4.25761       2.65343       0.39404       0.08210       0.43350    2617.47290       0.13508       0.13226       2.51590       1.00000    3165.20996       0.52607       0.53915    3176.39404    3255.37769       1.05000    6339.89990       0.04968       7.84938       6.13076       7.99377       6.24354 
   6038.50000       3.56119       3.33435       3.43655      24.37474       8.33984       8.34539       8.33429       5.47974       2.52242       0.39534       0.08198       0.43350    2617.68970       0.13209       0.13209       2.51215       1.00000    3234.79175       0.51461       0.52565    3107.47095    3174.11328       1.05000    6340.42480       0.03807       6.98692       5.45899       8.06317       6.29988 
   6039.00000       3.55695       3.33415       3.63624      28.30232       8.34122       8.34287       8.33955       4.68092       2.39695       0.39730       0.08053       0.43350    2617.90649       0.15506       0.15926       2.51340       1.00000    3302.88232       0.55691       0.54713    3363.16724    3304.12671       1.05000    6340.94971       0.04138       8.40017       6.59011       7.90960       6.20525 
   6039.50000       3.52995       3.31147       3.73770      32.00586       8.34927       8.35043       8.34812       4.60221       2.28465       0.39935       0.08232       0.43350    2618.12329       0.16534       0.17679       2.50357       1.00000    3307.29517       0.57953       0.55391    3500.06787    3345.36548       1.05000    6341.47461       0.04688       8.71136       6.79978       7.78996       6.08057 
