~Version Information
VERS  .          2.0                              :CWLS Log Ascii Standard - Version 2.0
WRAP  .          NO                               :One line per depth step
~Well Information Block
#MNEM.UNIT       Data Type                        Information
#---------       ---------                        -------------------------------
STRT  .F         5250.00000                       :START DEPTH
STOP  .F         7202.00000                       :STOP DEPTH
STEP  .F          0.50000                         :INCREMENT
NULL  .          -999.25                          :NULL DATA VALUE
COMP  .          ADM COMPANY                      :COMPANY
WELL  .          VERIFICATION WELL 1 Run 2        :WELL
FLD   .          WILDCAT                          :FIELD
LOC   .                                           :LOCATION
PROV  .                                           :PROVINCE
STAT  .                                           :STATE
CNTY  .                                           :COUNTY
CTRY  .                                           :COUNTRY
DATE  .                                           :DATE
UWI   .          VERIFICATION WELL 1 Run 2        :UNIQUE WELL UWI
LIC   .                                           :LICENSE NUMBER
API   .          121152346000                     :API NUMBER
SRVC  .                                           :SERVICE COMPANY
~Parameter Information Block
#MNEM.UNIT       Value                            Description
#---------       ---------                        -------------
LONG  .DEG       -88.893356                       :Well Surface Location
LATI  .DEG       39.879810                        :Well Surface Location
XWELL .DEG       -88.893356                       :X-coordinate of Well Head
YWELL .DEG       39.879810                        :Y-coordinate of Well Head
PDAT  .          GROUND LEVEL                     :Permanent Datum               
EPD   .ft        669.00                           :Elevation of Permanent Datum (PDAT) above Mean Sea Level
LMF   .          KELLY BUSHING                    :Logging Measured From (Name of Working Datum)
APD   .ft        15.00                            :Elevation of Working Datum (LMF) Above Permanent Datum
EDF   .ft        683.00                           :Elevation of Derrick Floor Above Mean Sea Level
EGL   .ft        669.00                           :Elevation of Ground Level Above Mean Sea Level
EKB   .ft        684.00                           :Elevation of Kelly Bushing Above Mean Sea Level
~Curve Information Block
#MNEM.UNIT       API Code            Curve    Description
#--------        --------------      -----    -------------------
DEPT  .F                             :0       Index
C44_BH.6PSI                          :1       C44 Referred to the Borehole Axis in a Deviated Well
C55_BH.6PSI                          :2       C55 Referred to the Borehole Axis in a Deviated Well
C66_BH.6PSI                          :3       C66 Referred to the Borehole Axis in a Deviated Well
GR_EDTC.GAPI                          :4       Gamma Ray                     
HD1_PPC1.IN                            :5       PPC1 Hole Diameter 1          
HD1_PPC1.IN                            :6       PPC1 Hole Diameter 1          
HD2_PPC1.IN                            :7       PPC1 Hole Diameter 2          
KINT  .MD                            :8       Intrinsic Permeability        
MAXXENE_OVERALL.                              :9       Overall estimate of maximum cross energy
MINXENE_OVERALL.                              :10      Overall estimate of minimum cross energy
PHIT  .V/V                           :11      Total Porosity_ includes all forms of porosity, including that occupied by bound fluids, and is independent of rock and fluid materials and of environmental effects
PPGI  .PS/F                          :12      Pore Pressure Gradient        
PPRS  .PSI                           :13      Pore Pressure                 
PR_HORIZ_FSA_SSA_DYN.                              :14      Dynamic Horizontal Poissons Ratio - Loading Fast Shear Azimuth - Displacement Slow Shear Aximuth
PR_VERT_FSA_DYN.                              :15      Dynamic Vertical Poissons Ratio - Loading Vertical - Displacement Fast Shear Aximuth
RHOZ  .G/C3                          :16      HRDD Standard Resolution Formation Density
SUWI  .V/V                           :17      Non-Clay Water Intergranular Water Saturation for Undisturbed Zone
TENS  .LBF                           :18      Cable Tension                 
TXSG  .PS/F                          :19      Total Minimum Horizontal Stress Gradient
TXSG  .PS/F                          :20      Total Minimum Horizontal Stress Gradient
TXSP  .PSI                           :21      Total Minimum Horizontal Stress - Sigma X
TXSP  .PSI                           :22      Total Minimum Horizontal Stress - Sigma X
TZSG  .PS/F                          :23      Total Vertical Stress Gradient
TZSP  .PSI                           :24      Total Vertical Stress - Sigma Z
VCL   .V/V                           :25      Volume of Clay Type Material Relative to Total Volume
YME_HORIZ_SSA_DYN.6PSI                          :26      Dynamic Horizontal Youngs Modulus in the Slow Shear Azimuth Direction
YME_HORIZ_SSA_STA.6PSI                          :27      Static Horizontal Youngs Modulus in the Slow Shear Azimuth Direction
YME_VERT_DYN.6PSI                          :28      Dynamic Vertical Youngs Modulus
YME_VERT_STA.6PSI                          :29      Static Vertical Youngs Modulus
~Ascii Data Section
# ...
   7060.00000       3.73954       3.42543       4.44235     122.17333       8.88032       8.79809       8.96255       0.01000       7.32250       0.83855       0.07577       0.43350    3060.51001       0.19689       0.27747       2.64092       1.00000    3711.91284       0.72104       0.63439    5090.57275    4478.77295       1.05000    7412.99951       0.35091      10.63404       8.45449       7.87723       6.26272 
   7060.50000       3.77804       3.51478       4.64294     123.28838       8.86235       8.77999       8.94471       0.01000       7.00542       0.94900       0.07183       0.43350    3060.72681       0.18217       0.28384       2.65247       1.00000    3706.34546       0.73757       0.63093    5207.61523    4454.66357       1.05000    7413.52490       0.37392      10.97746       8.82312       7.72458       6.20862 
   7061.00000       3.81370       3.58120       4.69046     122.29223       8.84580       8.77185       8.91975       0.01000       6.60446       1.08435       0.06131       0.43350    3060.94336       0.18133       0.28320       2.66459       1.00000    3692.82007       0.73640       0.62830    5199.73877    4436.41553       1.05000    7414.04980       0.39106      11.08199       9.16479       7.80238       6.45256 
   7061.50000       3.83657       3.60984       4.67548     118.29515       8.82160       8.75391       8.88929       0.01000       6.24946       1.20302       0.05522       0.43350    3061.16016       0.18503       0.28082       2.66926       1.00000    3690.06128       0.73074       0.62730    5160.11719    4429.68994       1.05000    7414.57471       0.39139      11.08116       9.31325       7.91956       6.65606 
   7062.00000       3.86218       3.63181       4.73398     116.06219       8.78840       8.72191       8.85489       0.01000       6.03251       1.27709       0.05011       0.43350    3061.37695       0.18258       0.28446       2.68299       1.00000    3686.65820       0.73714       0.62964    5205.66748    4446.54980       1.05000    7415.09961       0.37154      11.19658       9.53671       7.91112       6.73831 
   7062.50000       3.86095       3.63036       4.66226     117.38932       8.75871       8.68974       8.82768       0.01000       5.95982       1.27100       0.04930       0.43350    3061.59375       0.19075       0.28521       2.68658       1.00000    3686.01855       0.73371       0.63491    5181.84570    4484.05957       1.05000    7415.62451       0.36164      11.10318       9.47703       8.03575       6.85885 
   7063.00000       3.85214       3.61488       4.73778     118.14967       8.73366       8.66170       8.80563       0.01000       5.93437       1.17589       0.04552       0.43350    3061.81055       0.18299       0.29298       2.68529       1.00000    3699.05518       0.74893       0.63973    5289.68359    4518.41064       1.05000    7416.14990       0.36246      11.20949       9.66141       7.85651       6.77150 
   7063.50000       3.84205       3.59135       4.71458     119.53250       8.70393       8.63705       8.77080       0.01000       5.89360       1.04345       0.04487       0.43350    3062.02710       0.18455       0.29415       2.68380       1.00000    3693.43359       0.75001       0.64243    5297.70752    4537.79639       1.05000    7416.67480       0.35612      11.16935       9.64287       7.84783       6.77529 
   7064.00000       3.81513       3.55981       4.76462     119.08051       8.67012       8.60752       8.73272       0.01000       5.85428       0.91804       0.04556       0.43350    3062.24390       0.17578       0.29912       2.68087       1.00000    3677.90430       0.76151       0.64444    5379.29492    4552.29980       1.05000    7417.19971       0.36403      11.20427       9.65593       7.64243       6.58631 
   7064.50000       3.78553       3.53569       4.73324     118.26909       8.64289       8.58410       8.70169       0.01000       5.80477       0.82732       0.04923       0.43350    3062.46069       0.17601       0.30020       2.68700       1.00000    3676.46533       0.76297       0.64612    5389.99121    4564.48340       1.05000    7417.72461       0.37459      11.13271       9.50396       7.58951       6.47914 
   7065.00000       3.74103       3.50327       4.53166     117.72946       8.61754       8.55608       8.67900       0.01000       5.71199       0.78747       0.04980       0.43350    3062.67749       0.19360       0.29281       2.68984       1.00000    3688.23145       0.74386       0.64637    5255.35645    4566.63379       1.05000    7418.24951       0.37565      10.81801       9.22167       7.80289       6.65147 
   7065.50000       3.71065       3.47846       4.32966     117.74938       8.60932       8.55406       8.66458       0.01000       5.57297       0.77414       0.04699       0.43350    3062.89429       0.20903       0.28162       2.70119       1.00000    3713.48901       0.71917       0.64284    5081.29102    4542.01758       1.05000    7418.77490       0.35526      10.46937       8.98950       8.04445       6.90735 
   7066.00000       3.66478       3.43347       4.10868     121.67347       8.56902       8.52177       8.61626       0.01000       5.39747       0.76133       0.04130       0.43350    3063.11084       0.21953       0.26748       2.69824       1.00000    3666.31250       0.69121       0.63648    4884.10107    4497.35400       1.05000    7419.29980       0.32297      10.02132       8.73080       8.21594       7.15791 
   7066.50000       3.59642       3.37841       3.96584     133.46527       8.53200       8.49925       8.56475       0.01000       5.22156       0.74197       0.03667       0.43350    3063.32764       0.22171       0.25991       2.68868       1.00000    3659.81250       0.67765       0.63210    4788.60742    4466.73291       1.05000    7419.82471       0.29716       9.69018       8.54146       8.17128       7.20262 
   7067.00000       3.50175       3.31381       3.82066     151.37956       8.50194       8.46490       8.53898       0.01000       5.11869       0.71213       0.03210       0.43350    3063.54443       0.22465       0.25717       2.66946       1.00000    3697.17676       0.67107       0.63174    4742.41846    4464.53516       1.05000    7420.34961       0.26818       9.35794       8.34312       8.05486       7.18135 
   7067.50000       3.41222       3.24484       3.75111     169.10989       8.47764       8.44208       8.51319       0.01000       4.97298       0.69169       0.02962       0.43350    3063.76123       0.22304       0.25757       2.64387       1.00000    3739.93750       0.67279       0.63101    4754.97510    4459.66064       1.05000    7420.87451       0.24204       9.17548       8.23074       7.83659       7.02971 
   7068.00000       3.35535       3.17539       3.78435     185.36595       8.44042       8.41925       8.46159       0.01000       4.67558       0.67638       0.03824       0.43350    3063.97803       0.21436       0.25810       2.61539       1.00000    3716.75000       0.67991       0.62701    4805.57861    4431.70850       1.05000    7421.39990       0.21518       9.19115       8.06970       7.55463       6.63286 
   7068.50000       3.32617       3.13975       3.78089     197.16899       8.42835       8.40797       8.44873       0.01295       4.32238       0.64453       0.04157       0.43350    3064.19458       0.21045       0.25625       2.59539       1.00000    3655.76489       0.67977       0.62370    4804.96680    4408.64990       1.05000    7421.92480       0.20402       9.15320       7.96901       7.43652       6.47443 
   7069.00000       3.32578       3.14331       3.86257     207.71825       8.39175       8.37356       8.40993       0.01000       3.97063       0.63018       0.03922       0.43350    3064.41138       0.20514       0.26043       2.58645       1.00000    3623.56250       0.69003       0.62385    4877.84863    4409.97559       1.05000    7422.44971       0.20090       9.30984       8.15374       7.33028       6.42001 
   7069.50000       3.38470       3.20314       3.85408     210.69298       8.34881       8.33941       8.35822       0.01000       3.67481       0.64029       0.03136       0.43350    3064.62817       0.21218       0.26065       2.58952       1.00000    3744.25000       0.68540       0.62753    4845.46436    4436.32471       1.05000    7422.97461       0.19803       9.34367       8.34569       7.56574       6.75766 
