~Version Information
VERS  .          2.0                              :CWLS Log Ascii Standard - Version 2.0
WRAP  .          NO                               :One line per depth step
~Well Information Block
#MNEM.UNIT       Data Type                        Information
#---------       ---------                        -------------------------------
STRT  .F         1820.00000                       :START DEPTH
STOP  .F         5250.00000                       :STOP DEPTH
STEP  .F          0.50000                         :INCREMENT
NULL  .          -999.25                          :NULL DATA VALUE
COMP  .          ADM COMPANY                      :COMPANY
WELL  .          VERIFICATION WELL 1              :WELL
FLD   .          WILDCAT                          :FIELD
LOC   .                                           :LOCATION
PROV  .                                           :PROVINCE
STAT  .                                           :STATE
CNTY  .                                           :COUNTY
CTRY  .                                           :COUNTRY
DATE  .                                           :DATE
UWI   .          VERIFICATION WELL 1              :UNIQUE WELL UWI
LIC   .                                           :LICENSE NUMBER
API   .                                           :API NUMBER
SRVC  .                                           :SERVICE COMPANY
~Parameter Information Block
#MNEM.UNIT       Value                            Description
#---------       ---------                        -------------
LONG  .DEG       -88.893356                       :Well Surface Location
LATI  .DEG       39.879810                        :Well Surface Location
XWELL .DEG       -88.893356                       :X-coordinate of Well Head
YWELL .DEG       39.879810                        :Y-coordinate of Well Head
PDAT  .          GROUND LEVEL                     :Permanent Datum               
EPD   .ft        669.00                           :Elevation of Permanent Datum (PDAT) above Mean Sea Level
LMF   .          KELLY BUSHING                    :Logging Measured From (Name of Working Datum)
APD   .ft        15.00                            :Elevation of Working Datum (LMF) Above Permanent Datum
EDF   .ft        683.00                           :Elevation of Derrick Floor Above Mean Sea Level
EGL   .ft        669.00                           :Elevation of Ground Level Above Mean Sea Level
EKB   .ft        684.00                           :Elevation of Kelly Bushing Above Mean Sea Level
~Curve Information Block
#MNEM.UNIT       API Code            Curve    Description
#--------        --------------      -----    -------------------
DEPT  .F                             :0       Index
C44_BH.6PSI                          :1       C44 Referred to the Borehole Axis in a Deviated Well
C55_BH.6PSI                          :2       C55 Referred to the Borehole Axis in a Deviated Well
C66_BH.6PSI                          :3       C66 Referred to the Borehole Axis in a Deviated Well
GR_EDTC.GAPI                          :4       Gamma Ray                     
HD1_PPC1.IN                            :5       PPC1 Hole Diameter 1          
HD1_PPC1.IN                            :6       PPC1 Hole Diameter 1          
HD2_PPC1.IN                            :7       PPC1 Hole Diameter 2          
KINT  .MD                            :8       Intrinsic Permeability        
MAXXENE_OVERALL.                              :9       Overall estimate of maximum cross energy
MINXENE_OVERALL.                              :10      Overall estimate of minimum cross energy
PHIT  .V/V                           :11      Total Porosity_ includes all forms of porosity, including that occupied by bound fluids, and is independent of rock and fluid materials and of environmental effects
PPGI  .PS/F                          :12      Pore Pressure Gradient        
PPRS  .PSI                           :13      Pore Pressure                 
PR_HORIZ_SSA_FSA_DYN.                              :14      Dynamic Horizontal Poissons Ratio - Loading Slow Shear Azimuth - Displacement Fast Shear Azimuth
PR_VERT_FSA_DYN.                              :15      Dynamic Vertical Poissons Ratio - Loading Vertical - Displacement Fast Shear Aximuth
RHOZ  .G/C3                          :16      HRDD Standard Resolution Formation Density
RHOZ  .G/C3                          :17      HRDD Standard Resolution Formation Density
SUWI  .V/V                           :18      Non-Clay Water Intergranular Water Saturation for Undisturbed Zone
TENS  .LBF                           :19      Cable Tension                 
TXSG  .PS/F                          :20      Total Minimum Horizontal Stress Gradient
TXSG  .PS/F                          :21      Total Minimum Horizontal Stress Gradient
TXSP  .PSI                           :22      Total Minimum Horizontal Stress - Sigma X
TXSP  .PSI                           :23      Total Minimum Horizontal Stress - Sigma X
TZSG  .PS/F                          :24      Total Vertical Stress Gradient
TZSP  .PSI                           :25      Total Vertical Stress - Sigma Z
VCL   .V/V                           :26      Volume of Clay Type Material Relative to Total Volume
YME_HORIZ_SSA_DYN.6PSI                          :27      Dynamic Horizontal Youngs Modulus in the Slow Shear Azimuth Direction
YME_HORIZ_SSA_STA.6PSI                          :28      Static Horizontal Youngs Modulus in the Slow Shear Azimuth Direction
YME_VERT_DYN.6PSI                          :29      Dynamic Vertical Youngs Modulus
YME_VERT_STA.6PSI                          :30      Static Vertical Youngs Modulus
~Ascii Data Section
   1820.00000       0.97924       0.99665       1.80565      94.69320      13.82430      15.15617      12.49242       0.01179       5.43379       3.31300       0.15532       0.43350     788.96997       0.14014       0.32592       2.56977       2.56977       1.00000    1950.00000       0.85405       0.75430    1554.37170    1372.82800       1.05000    1910.99988       0.46030       4.11738       2.54959       2.28776       1.41665 
   1820.50000       0.97596       0.98659       1.80365     100.21069      13.75950      15.00321      12.51579       0.01000       6.16983       3.23723       0.15613       0.43350     789.18671       0.13796       0.32640       2.56692       2.56692       1.00000    2018.00000       0.85595       0.75520    1558.25305    1374.84863       1.05000    1911.52490       0.49345       4.10497       2.53456       2.26829       1.40053 
   1821.00000       0.98056       0.98874       1.81827      99.33140      14.55084      16.56145      12.54023       0.01000       6.61956       3.06775       0.16212       0.43350     789.40350       0.13583       0.32543       2.58772       2.58772       1.00000    1974.00000       0.85597       0.75369    1558.72852    1372.47656       1.05000    1912.04993       0.53547       4.13048       2.49563       2.26984       1.37144 
   1821.50000       0.97880       0.99144       1.83338     101.20333      14.77412      17.02043      12.52782       0.01000       6.78600       2.90147       0.16146       0.43350     789.62024       0.13344       0.32379       2.60923       2.60922       1.00000    1976.00000       0.85571       0.75190    1558.67004    1369.57947       1.05000    1912.57495       0.55669       4.15603       2.51713       2.26753       1.37335 
   1822.00000       0.96782       0.98806       1.83896     101.04296      14.30487      16.00968      12.60005       0.01000       6.78249       2.66367       0.16032       0.43350     789.83698       0.13062       0.32359       2.61717       2.61717       1.00000    2076.00000       0.85759       0.75268    1562.53516    1371.37988       1.05000    1913.09985       0.56140       4.15833       2.52900       2.25000       1.36840 
   1822.50000       0.96440       0.98437       1.84178     102.62373      13.78697      15.09406      12.47989       0.01000       6.66945       2.32664       0.16007       0.43350     790.05371       0.12852       0.32463       2.62118       2.62118       1.00000    1956.00000       0.86005       0.75433    1567.43250    1374.76099       1.05000    1913.62488       0.50917       4.15696       2.53047       2.23805       1.36237 
   1823.00000       0.96799       0.97684       1.83498      99.67190      13.54058      14.62208      12.45908       0.01593       6.48885       2.14689       0.16465       0.43350     790.27051       0.12830       0.32567       2.61150       2.61150       1.00000    2069.77783       0.86110       0.75529    1569.78308    1376.89380       1.05000    1914.14990       0.45147       4.14080       2.47871       2.23043       1.33515 
   1823.50000       0.96711       0.96287       1.81859      97.73739      13.32153      14.29855      12.34452       0.03020       6.23424       2.16572       0.17518       0.43350     790.48724       0.12908       0.32656       2.58817       2.58818       1.00000    1991.44446       0.86176       0.75677    1571.41077    1379.96594       1.05000    1914.67493       0.41852       4.10666       2.36270       2.21670       1.27535 
   1824.00000       0.94109       0.93044       1.77213      92.29292      13.19450      13.98847      12.40052       0.08263       6.03124       2.23057       0.19249       0.43350     790.70398       0.13082       0.32727       2.52205       2.52206       1.00000    1979.00000       0.86274       0.76027    1573.63196    1386.73169       1.05000    1915.19995       0.40288       4.00792       2.15257       2.16748       1.16411 
   1824.50000       0.90486       0.89596       1.72524      89.08336      13.58969      14.54908      12.63030       0.13086       5.84920       2.34962       0.19981       0.43350     790.92072       0.13039       0.32719       2.45531       2.45532       1.00000    1957.11108       0.86426       0.76310    1576.83350    1392.27942       1.05000    1915.72485       0.38593       3.90040       2.03172       2.10036       1.09408 
   1825.00000       0.86525       0.86437       1.68648      85.49372      14.25722      15.58786      12.92658       0.18070       5.69921       2.45120       0.20815       0.43350     791.13751       0.12873       0.32362       2.40015       2.40016       1.00000    1971.33337       0.86282       0.76157    1574.65210    1389.85840       1.05000    1916.24988       0.38090       3.80714       1.91297       2.03061       1.02032 
   1825.50000       0.82880       0.83962       1.66391      82.81458      14.99393      16.44076      13.54710       0.21689       5.64671       2.44038       0.20752       0.43350     791.35425       0.12753       0.31538       2.36804       2.36805       1.00000    1991.00000       0.85649       0.75486    1563.52942    1377.99390       1.05000    1916.77490       0.37824       3.75221       1.89059       1.97681       0.99603 
   1826.00000       0.80410       0.82618       1.66622      85.25821      15.66566      16.75266      14.57866       0.16060       5.48473       2.29061       0.20717       0.43350     791.57098       0.12443       0.30650       2.37134       2.37133       1.00000    1995.22217       0.85025       0.74667    1552.55957    1363.42725       1.05000    1917.29993       0.39523       3.74712       1.89092       1.94042       0.97920 
   1826.50000       0.79706       0.82580       1.69222      87.41256      15.52580      16.03776      15.01384       0.08476       5.09272       2.16345       0.20518       0.43350     791.78772       0.11934       0.30287       2.40835       2.40834       1.00000    2178.55566       0.85028       0.74345    1553.03735    1357.91260       1.05000    1917.82495       0.41160       3.78834       1.92838       1.92719       0.98100 
   1827.00000       0.80735       0.83984       1.72804      97.65445      14.30981      14.59372      14.02591       0.08070       4.72282       2.11115       0.22623       0.43350     792.00446       0.11490       0.30586       2.45932       2.45930       1.00000    2015.00000       0.85598       0.74646    1563.86792    1363.78540       1.05000    1918.34985       0.43995       3.85318       1.78213       1.94306       0.89868 
   1827.50000       0.83728       0.87234       1.76099     100.65820      13.57893      14.31285      12.84501       0.07082       4.64621       2.13464       0.22706       0.43350     792.22125       0.11413       0.31537       2.50621       2.50621       1.00000    1980.28577       0.86467       0.75510    1580.18701    1379.94690       1.05000    1918.87488       0.44990       3.92396       1.80767       1.99740       0.92015 
   1828.00000       0.89509       0.92681       1.78743     101.50397      12.95607      13.13840      12.77374       0.06504       4.87053       2.18288       0.22514       0.43350     792.43799       0.12500       0.31653       2.54384       2.54383       1.00000    1950.00000       0.85649       0.75037    1565.65674    1371.68054       1.05000    1919.39990       0.45393       4.02173       1.86978       2.12044       0.98583 
   1828.50000       0.97455       1.00387       1.79537      99.54056      12.82673      13.01784      12.63562       0.04971       5.17414       2.14326       0.21125       0.43350     792.65472       0.14772       0.30292       2.55513       2.55513       1.00000    1936.00000       0.82291       0.72532    1504.68823    1326.24231       1.05000    1919.92493       0.45671       4.12117       2.04252       2.31901       1.14934 
   1829.00000       1.06249       1.10762       1.79109      98.58401      12.96096      13.40928      12.51264       0.01011       5.53339       2.01658       0.19993       0.43350     792.87146       0.16922       0.27998       2.54903       2.54904       1.00000    1962.85718       0.77317       0.68890    1414.12683    1259.99329       1.05000    1920.44995       0.51871       4.18837       2.18061       2.56192       1.33382 
