~Version Information
VERS  .          2.0                              :CWLS Log Ascii Standard - Version 2.0
WRAP  .          NO                               :One line per depth step
~Well Information Block
#MNEM.UNIT       Data Type                        Information
#---------       ---------                        -------------------------------
STRT  .F         5250.00000                       :START DEPTH
STOP  .F         7202.00000                       :STOP DEPTH
STEP  .F          0.50000                         :INCREMENT
NULL  .          -999.25                          :NULL DATA VALUE
COMP  .          ADM COMPANY                      :COMPANY
WELL  .          VERIFICATION WELL 1 Run 2        :WELL
FLD   .          WILDCAT                          :FIELD
LOC   .                                           :LOCATION
PROV  .                                           :PROVINCE
STAT  .                                           :STATE
CNTY  .                                           :COUNTY
CTRY  .                                           :COUNTRY
DATE  .                                           :DATE
UWI   .          VERIFICATION WELL 1 Run 2        :UNIQUE WELL UWI
LIC   .                                           :LICENSE NUMBER
API   .          121152346000                     :API NUMBER
SRVC  .                                           :SERVICE COMPANY
~Parameter Information Block
#MNEM.UNIT       Value                            Description
#---------       ---------                        -------------
LONG  .DEG       -88.893356                       :Well Surface Location
LATI  .DEG       39.879810                        :Well Surface Location
XWELL .DEG       -88.893356                       :X-coordinate of Well Head
YWELL .DEG       39.879810                        :Y-coordinate of Well Head
PDAT  .          GROUND LEVEL                     :Permanent Datum               
EPD   .ft        669.00                           :Elevation of Permanent Datum (PDAT) above Mean Sea Level
LMF   .          KELLY BUSHING                    :Logging Measured From (Name of Working Datum)
APD   .ft        15.00                            :Elevation of Working Datum (LMF) Above Permanent Datum
EDF   .ft        683.00                           :Elevation of Derrick Floor Above Mean Sea Level
EGL   .ft        669.00                           :Elevation of Ground Level Above Mean Sea Level
EKB   .ft        684.00                           :Elevation of Kelly Bushing Above Mean Sea Level
~Curve Information Block
#MNEM.UNIT       API Code            Curve    Description
#--------        --------------      -----    -------------------
DEPT  .F                             :0       Index
C44_BH.6PSI                          :1       C44 Referred to the Borehole Axis in a Deviated Well
C55_BH.6PSI                          :2       C55 Referred to the Borehole Axis in a Deviated Well
C66_BH.6PSI                          :3       C66 Referred to the Borehole Axis in a Deviated Well
GR_EDTC.GAPI                          :4       Gamma Ray                     
HD1_PPC1.IN                            :5       PPC1 Hole Diameter 1          
HD1_PPC1.IN                            :6       PPC1 Hole Diameter 1          
HD2_PPC1.IN                            :7       PPC1 Hole Diameter 2          
KINT  .MD                            :8       Intrinsic Permeability        
MAXXENE_OVERALL.                              :9       Overall estimate of maximum cross energy
MINXENE_OVERALL.                              :10      Overall estimate of minimum cross energy
PHIT  .V/V                           :11      Total Porosity_ includes all forms of porosity, including that occupied by bound fluids, and is independent of rock and fluid materials and of environmental effects
PPGI  .PS/F                          :12      Pore Pressure Gradient        
PPRS  .PSI                           :13      Pore Pressure                 
PR_HORIZ_FSA_SSA_DYN.                              :14      Dynamic Horizontal Poissons Ratio - Loading Fast Shear Azimuth - Displacement Slow Shear Aximuth
PR_VERT_FSA_DYN.                              :15      Dynamic Vertical Poissons Ratio - Loading Vertical - Displacement Fast Shear Aximuth
RHOZ  .G/C3                          :16      HRDD Standard Resolution Formation Density
SUWI  .V/V                           :17      Non-Clay Water Intergranular Water Saturation for Undisturbed Zone
TENS  .LBF                           :18      Cable Tension                 
TXSG  .PS/F                          :19      Total Minimum Horizontal Stress Gradient
TXSG  .PS/F                          :20      Total Minimum Horizontal Stress Gradient
TXSP  .PSI                           :21      Total Minimum Horizontal Stress - Sigma X
TXSP  .PSI                           :22      Total Minimum Horizontal Stress - Sigma X
TZSG  .PS/F                          :23      Total Vertical Stress Gradient
TZSP  .PSI                           :24      Total Vertical Stress - Sigma Z
VCL   .V/V                           :25      Volume of Clay Type Material Relative to Total Volume
YME_HORIZ_SSA_DYN.6PSI                          :26      Dynamic Horizontal Youngs Modulus in the Slow Shear Azimuth Direction
YME_HORIZ_SSA_STA.6PSI                          :27      Static Horizontal Youngs Modulus in the Slow Shear Azimuth Direction
YME_VERT_DYN.6PSI                          :28      Dynamic Vertical Youngs Modulus
YME_VERT_STA.6PSI                          :29      Static Vertical Youngs Modulus
~Ascii Data Section
# ...
   5900.00000       3.26553       3.05143       3.65385      20.00852       8.70899       8.64738       8.77060      19.17294       4.14402       0.37875       0.09001       0.43350    2557.64990       0.18815       0.21791       2.50741       1.00000    3275.50000       0.63314       0.58526    3735.51929    3453.02417       1.05000    6194.99951       0.00000       8.68268       6.62983       7.19706       5.49545 
   5900.50000       3.20742       2.97964       3.63958      21.02496       8.71543       8.64738       8.78348      22.34246       3.88061       0.33270       0.09355       0.43350    2557.86670       0.18658       0.22047       2.49762       1.00000    3238.00000       0.63935       0.58607    3772.49780    3458.08691       1.05000    6195.52490       0.00024       8.63729       6.52759       7.01120       5.29868 
   5901.00000       3.16589       2.93019       3.65247      23.73359       8.70899       8.64738       8.77060      17.15844       3.62607       0.28736       0.09239       0.43350    2558.08350       0.18350       0.22215       2.50646       1.00000    3198.56250       0.64514       0.58515    3806.98682    3452.95264       1.05000    6196.04980       0.00900       8.64538       6.55587       6.85165       5.19567 
   5901.50000       3.11892       2.88516       3.66479      23.16375       8.75661       8.70408       8.80914      16.31397       3.42313       0.25738       0.09305       0.43350    2558.30029       0.18099       0.22536       2.51492       1.00000    3158.62524       0.65293       0.58562    3853.24268    3456.03687       1.05000    6196.57471       0.01237       8.65616       6.55141       6.69215       5.06496 
   5902.00000       3.07819       2.84545       3.66473      22.81730       8.79783       8.76097       8.83468      13.75116       3.17343       0.23243       0.09289       0.43350    2558.51685       0.17935       0.22803       2.51488       1.00000    3097.93750       0.65898       0.58666    3889.29688    3462.46362       1.05000    6197.09961       0.01965       8.64398       6.54525       6.56706       4.97260 
   5902.50000       3.05343       2.82167       3.64059      20.76794       8.78583       8.74975       8.82192      18.61234       2.86526       0.20525       0.09905       0.43350    2558.73364       0.17743       0.22518       2.49831       1.00000    3073.68750       0.65597       0.58358    3871.87402    3444.55322       1.05000    6197.62451       0.01730       8.57306       6.37484       6.50345       4.83590 
   5903.00000       3.07623       2.83735       3.63462      19.16249       8.79144       8.76097       8.82192      17.22633       2.67509       0.19095       0.10061       0.43350    2558.95044       0.17468       0.21748       2.49421       1.00000    3099.75000       0.64533       0.57648    3809.38770    3402.97485       1.05000    6198.14990       0.02417       8.53902       6.32009       6.54857       4.84687 
   5903.50000       3.10456       2.85864       3.62589      19.28036       8.80356       8.77244       8.83468      13.83248       2.59323       0.18697       0.09902       0.43350    2559.16724       0.17314       0.21123       2.48823       1.00000    3120.50000       0.63591       0.57163    3754.12256    3374.64209       1.05000    6198.67480       0.03244       8.50739       6.32657       6.61919       4.92240 
   5904.00000       3.14103       2.89360       3.63254      22.38169       8.82051       8.80634       8.83468       7.57501       2.53258       0.18298       0.09207       0.43350    2559.38403       0.17526       0.21115       2.49279       1.00000    3120.80005       0.63370       0.57310    3741.39014    3383.58887       1.05000    6199.19971       0.05371       8.53834       6.48073       6.73131       5.10917 
   5904.50000       3.16964       2.92839       3.63439      24.70165       8.82051       8.80634       8.83468       5.05773       2.49550       0.18252       0.08759       0.43350    2559.60059       0.18041       0.21554       2.49866       1.00000    3110.00000       0.63653       0.57922    3758.37646    3420.02563       1.05000    6199.72461       0.07221       8.58013       6.59741       6.85191       5.26855 
   5905.00000       3.18901       2.95639       3.59527      25.81921       8.82168       8.81759       8.82577       3.87554       2.46412       0.18326       0.08368       0.43350    2559.81738       0.18737       0.21909       2.50336       1.00000    3114.00000       0.63644       0.58635    3758.15771    3462.36719       1.05000    6200.24951       0.07792       8.53783       6.63867       6.99266       5.43721 
   5905.50000       3.20833       2.98006       3.49289      24.57598       8.82559       8.82926       8.82192       3.28823       2.47954       0.18244       0.08070       0.43350    2560.03418       0.19690       0.21971       2.51271       1.00000    3116.06250       0.62930       0.59422    3716.34326    3509.14160       1.05000    6200.77490       0.07506       8.36131       6.55648       7.20231       5.64766 
   5906.00000       3.20555       2.97961       3.37235      26.07187       8.72375       8.65541       8.79209       3.30175       2.54918       0.17911       0.07912       0.43350    2560.25098       0.20725       0.22156       2.51403       1.00000    3113.13647       0.62390       0.60333    3684.74438    3563.28149       1.05000    6201.29980       0.06616       8.14257       6.41339       7.36860       5.80378 
   5906.50000       3.17965       2.95951       3.31722      27.56108       8.58691       8.54159       8.63223       3.31047       2.63301       0.17532       0.07870       0.43350    2560.46777       0.21154       0.22386       2.51376       1.00000    3111.45654       0.62447       0.60751    3688.45361    3588.26709       1.05000    6201.82471       0.06330       8.03788       6.33839       7.36714       5.80947 
   5907.00000       3.11803       2.90937       3.24747      28.09302       8.51209       8.47167       8.55250       4.62260       2.69329       0.17421       0.08619       0.43350    2560.68457       0.21080       0.22233       2.50641       1.00000    3114.84229       0.62228       0.60632    3675.82300    3581.54419       1.05000    6202.34961       0.05690       7.86406       6.07115       7.23481       5.58536 
   5907.50000       3.01332       2.84255       3.08220      27.91614       8.51823       8.47161       8.56486       7.63566       2.74731       0.18192       0.09291       0.43350    2560.90112       0.21112       0.21756       2.49914       1.00000    3122.33032       0.61289       0.60439    3620.62305    3570.45215       1.05000    6202.87451       0.04852       7.46581       5.65281       7.07591       5.35759 
   5908.00000       2.91852       2.78756       2.92809      28.95825       8.52467       8.48449       8.56486       8.92773       2.78561       0.20318       0.09565       0.43350    2561.11792       0.21146       0.21146       2.50801       1.00000    3106.25903       0.59883       0.59883    3537.87378    3537.87378       1.05000    6203.39990       0.04762       6.97331       5.23768       6.97331       5.23768 
   5908.50000       2.85122       2.72473       2.84408      30.68573       8.54716       8.50748       8.58685      11.77286       2.75159       0.23046       0.10491       0.43350    2561.33472       0.20232       0.20232       2.49900       1.00000    3101.43750       0.58986       0.58986    3485.20972    3485.20972       1.05000    6203.92480       0.05344       6.74904       4.93111       6.74904       4.93111 
   5909.00000       2.81751       2.68457       2.84530      29.86002       8.58060       8.54483       8.61637      14.48142       2.68589       0.26386       0.11543       0.43350    2561.55151       0.18717       0.18968       2.48123       1.00000    3100.31250       0.58213       0.57870    3439.80127    3419.55542       1.05000    6204.44971       0.06137       6.75571       4.77891       6.53900       4.62561 
   5909.50000       2.81573       2.67190       2.88439      26.40036       8.57854       8.54479       8.61229      18.44286       2.61346       0.30150       0.11937       0.43350    2561.76831       0.18453       0.18952       2.46323       1.00000    3100.00000       0.58467       0.57620    3455.09839    3405.06616       1.05000    6204.97461       0.05605       6.83333       4.77431       6.47678       4.52520 
