~Version Information
VERS  .          2.0                              :CWLS Log Ascii Standard - Version 2.0
WRAP  .          NO                               :One line per depth step
~Well Information Block
#MNEM.UNIT       Data Type                        Information
#---------       ---------                        -------------------------------
STRT  .F         5250.00000                       :START DEPTH
STOP  .F         7202.00000                       :STOP DEPTH
STEP  .F          0.50000                         :INCREMENT
NULL  .          -999.25                          :NULL DATA VALUE
COMP  .          ADM COMPANY                      :COMPANY
WELL  .          VERIFICATION WELL 1 Run 2        :WELL
FLD   .          WILDCAT                          :FIELD
LOC   .                                           :LOCATION
PROV  .                                           :PROVINCE
STAT  .                                           :STATE
CNTY  .                                           :COUNTY
CTRY  .                                           :COUNTRY
DATE  .                                           :DATE
UWI   .          VERIFICATION WELL 1 Run 2        :UNIQUE WELL UWI
LIC   .                                           :LICENSE NUMBER
API   .          121152346000                     :API NUMBER
SRVC  .                                           :SERVICE COMPANY
~Parameter Information Block
#MNEM.UNIT       Value                            Description
#---------       ---------                        -------------
LONG  .DEG       -88.893356                       :Well Surface Location
LATI  .DEG       39.879810                        :Well Surface Location
XWELL .DEG       -88.893356                       :X-coordinate of Well Head
YWELL .DEG       39.879810                        :Y-coordinate of Well Head
PDAT  .          GROUND LEVEL                     :Permanent Datum               
EPD   .ft        669.00                           :Elevation of Permanent Datum (PDAT) above Mean Sea Level
LMF   .          KELLY BUSHING                    :Logging Measured From (Name of Working Datum)
APD   .ft        15.00                            :Elevation of Working Datum (LMF) Above Permanent Datum
EDF   .ft        683.00                           :Elevation of Derrick Floor Above Mean Sea Level
EGL   .ft        669.00                           :Elevation of Ground Level Above Mean Sea Level
EKB   .ft        684.00                           :Elevation of Kelly Bushing Above Mean Sea Level
~Curve Information Block
#MNEM.UNIT       API Code            Curve    Description
#--------        --------------      -----    -------------------
DEPT  .F                             :0       Index
C44_BH.6PSI                          :1       C44 Referred to the Borehole Axis in a Deviated Well
C55_BH.6PSI                          :2       C55 Referred to the Borehole Axis in a Deviated Well
C66_BH.6PSI                          :3       C66 Referred to the Borehole Axis in a Deviated Well
GR_EDTC.GAPI                          :4       Gamma Ray                     
HD1_PPC1.IN                            :5       PPC1 Hole Diameter 1          
HD1_PPC1.IN                            :6       PPC1 Hole Diameter 1          
HD2_PPC1.IN                            :7       PPC1 Hole Diameter 2          
KINT  .MD                            :8       Intrinsic Permeability        
MAXXENE_OVERALL.                              :9       Overall estimate of maximum cross energy
MINXENE_OVERALL.                              :10      Overall estimate of minimum cross energy
PHIT  .V/V                           :11      Total Porosity_ includes all forms of porosity, including that occupied by bound fluids, and is independent of rock and fluid materials and of environmental effects
PPGI  .PS/F                          :12      Pore Pressure Gradient        
PPRS  .PSI                           :13      Pore Pressure                 
PR_HORIZ_FSA_SSA_DYN.                              :14      Dynamic Horizontal Poissons Ratio - Loading Fast Shear Azimuth - Displacement Slow Shear Aximuth
PR_VERT_FSA_DYN.                              :15      Dynamic Vertical Poissons Ratio - Loading Vertical - Displacement Fast Shear Aximuth
RHOZ  .G/C3                          :16      HRDD Standard Resolution Formation Density
SUWI  .V/V                           :17      Non-Clay Water Intergranular Water Saturation for Undisturbed Zone
TENS  .LBF                           :18      Cable Tension                 
TXSG  .PS/F                          :19      Total Minimum Horizontal Stress Gradient
TXSG  .PS/F                          :20      Total Minimum Horizontal Stress Gradient
TXSP  .PSI                           :21      Total Minimum Horizontal Stress - Sigma X
TXSP  .PSI                           :22      Total Minimum Horizontal Stress - Sigma X
TZSG  .PS/F                          :23      Total Vertical Stress Gradient
TZSP  .PSI                           :24      Total Vertical Stress - Sigma Z
VCL   .V/V                           :25      Volume of Clay Type Material Relative to Total Volume
YME_HORIZ_SSA_DYN.6PSI                          :26      Dynamic Horizontal Youngs Modulus in the Slow Shear Azimuth Direction
YME_HORIZ_SSA_STA.6PSI                          :27      Static Horizontal Youngs Modulus in the Slow Shear Azimuth Direction
YME_VERT_DYN.6PSI                          :28      Dynamic Vertical Youngs Modulus
YME_VERT_STA.6PSI                          :29      Static Vertical Youngs Modulus
~Ascii Data Section
# ...
   5640.00000       3.32045       2.99814       2.97918      43.95492       8.27708       8.24759       8.30657      10.15874       5.68819       0.41594       0.08197       0.43350    2444.93994       0.18802       0.18802       2.50954       1.00000    3038.58838       0.54637       0.57063    3081.51367    3218.37842       1.05000    5921.99951       0.02862       6.28433       4.91018       7.88951       6.16437 
   5640.50000       3.16680       2.84952       2.80802      60.48065       8.27869       8.25950       8.29787      12.83103       5.62881       0.37896       0.08761       0.43350    2445.15674       0.17717       0.17717       2.49297       1.00000    3040.17651       0.53797       0.56124    3034.42261    3165.64795       1.05000    5922.52490       0.03294       5.90718       4.54188       7.45574       5.73252 
   5641.00000       2.99654       2.70867       2.66319      68.61264       8.28918       8.25890       8.31947      30.18809       5.98052       0.36052       0.10656       0.43350    2445.37354       0.16859       0.16859       2.46929       1.00000    3041.56250       0.53306       0.55422    3006.97339    3126.34204       1.05000    5923.04980       0.02670       5.60999       4.07842       7.00343       5.09143 
   5641.50000       2.81964       2.58038       2.52686      60.09681       8.29427       8.28207       8.30647      90.98942       6.76960       0.35120       0.13033       0.43350    2445.59009       0.16732       0.16732       2.43292       1.00000    3021.35303       0.53481       0.55360    3017.14941    3123.14478       1.05000    5923.57471       0.00880       5.41139       3.64975       6.58283       4.43984 
   5642.00000       2.72302       2.49407       2.44372      51.33875       8.29348       8.29338       8.29358     145.98431       7.53007       0.34282       0.14161       0.43350    2445.80688       0.15969       0.15969       2.40568       1.00000    3029.29419       0.52965       0.54731    2988.29883    3087.89526       1.05000    5924.09961       0.00162       5.20709       3.38215       6.31573       4.10224 
   5642.50000       2.71298       2.46480       2.43876      46.64869       8.31065       8.32784       8.29346     142.48962       8.10607       0.37631       0.13985       0.43350    2446.02368       0.15242       0.15242       2.40341       1.00000    3042.00000       0.52308       0.54112    2951.50073    3053.28979       1.05000    5924.62451       0.00097       5.07521       3.31623       6.25299       4.08581 
   5643.00000       2.74119       2.48103       2.50200      47.17472       8.32850       8.35043       8.30657     110.74196       8.86121       0.43943       0.13290       0.43350    2446.24048       0.15463       0.15463       2.41797       1.00000    3077.82373       0.52385       0.54280    2956.08057    3063.00488       1.05000    5925.14990       0.00355       5.09609       3.40815       6.33011       4.23344 
   5643.50000       2.77703       2.51401       2.56712      49.66745       8.33508       8.35070       8.31947      78.57516      10.03211       0.52812       0.12660       0.43350    2446.45728       0.17263       0.17263       2.43335       1.00000    3084.70581       0.53617       0.55765    3025.86157    3147.09595       1.05000    5925.67480       0.01039       5.22968       3.57031       6.51285       4.44633 
   5644.00000       2.79500       2.54279       2.61049      49.16488       8.31287       8.29338       8.33235      66.95657      11.51520       0.63688       0.12296       0.43350    2446.67407       0.19506       0.19506       2.44784       1.00000    3040.76465       0.55336       0.57713    3123.15283    3257.34521       1.05000    5926.19971       0.00987       5.40019       3.73016       6.68038       4.61444 
   5644.50000       2.82579       2.55306       2.66636      43.32808       8.30708       8.28180       8.33235      58.38884      13.07060       0.70439       0.12506       0.43350    2446.89062       0.20284       0.20284       2.45557       1.00000    3086.17651       0.55722       0.58365    3145.20630    3294.39893       1.05000    5926.72461       0.01361       5.40815       3.71056       6.79796       4.66411 
   5645.00000       2.82027       2.55807       2.67824      32.20575       8.32502       8.30469       8.34534      62.44672      14.57676       0.73374       0.12767       0.43350    2447.10742       0.20960       0.20960       2.45269       1.00000    3141.94116       0.56332       0.58993    3179.94092    3330.16577       1.05000    5927.24951       0.01083       5.46718       3.71952       6.82281       4.64181 
   5645.50000       2.82946       2.55027       2.66217      24.29121       8.31866       8.30496       8.33235      49.80463      15.98603       0.76220       0.12728       0.43350    2447.32422       0.20878       0.20878       2.44484       1.00000    3136.17651       0.56092       0.58882    3166.67163    3324.17139       1.05000    5927.77490       0.01876       5.40889       3.68453       6.84040       4.65967 
   5646.00000       2.82683       2.54651       2.66798      23.67125       8.32662       8.31653       8.33672      54.63574      17.16922       0.79565       0.12886       0.43350    2447.54102       0.20830       0.20830       2.43781       1.00000    3176.17651       0.56041       0.58836    3164.10034    3321.85400       1.05000    5928.29980       0.01648       5.39593       3.65686       6.83132       4.62963 
   5646.50000       2.84990       2.54186       2.64003      26.06432       8.32502       8.30469       8.34534      42.99343      17.92424       0.80168       0.12925       0.43350    2447.75781       0.20014       0.20014       2.43659       1.00000    3175.38892       0.55189       0.58058    3116.22681    3278.24634       1.05000    5928.82471       0.02586       5.29913       3.58669       6.84055       4.62999 
   5647.00000       2.86324       2.53645       2.59779      26.88238       8.33960       8.31653       8.36267      44.13204      18.20269       0.77094       0.13086       0.43350    2447.97437       0.19045       0.19045       2.43015       1.00000    3134.94116       0.54352       0.57186    3069.23755    3229.31836       1.05000    5929.34961       0.02764       5.21684       3.51243       6.81707       4.58984 
   5647.50000       2.86247       2.53010       2.56244      27.50497       8.31936       8.29338       8.34534      41.78224      18.22501       0.76394       0.13216       0.43350    2448.19116       0.18218       0.18218       2.41803       1.00000    3050.64697       0.53744       0.56475    3035.20752    3189.43823       1.05000    5929.87451       0.03487       5.16399       3.46200       6.76793       4.53731 
   5648.00000       2.86267       2.54326       2.58904      26.14079       8.31866       8.30496       8.33235      46.00157      18.10628       0.81429       0.13492       0.43350    2448.40796       0.17811       0.17811       2.41268       1.00000    2994.29419       0.53583       0.56153    3026.35669    3171.52954       1.05000    5930.39990       0.03730       5.20485       3.45765       6.74510       4.48086 
   5648.50000       2.88165       2.55959       2.67769      26.11270       8.32747       8.30524       8.34970      45.93973      17.82030       0.87596       0.13699       0.43350    2448.62476       0.17067       0.17067       2.40849       1.00000    2994.06250       0.53083       0.55533    2998.41064    3136.76660       1.05000    5930.92480       0.04074       5.21156       3.43827       6.74690       4.45119 
   5649.00000       2.91919       2.58642       2.73014      30.00798       8.32084       8.30496       8.33672      43.64423      17.20677       0.90824       0.13745       0.43350    2448.84155       0.16439       0.16439       2.41945       1.00000    3013.35278       0.52623       0.55009    2972.65918    3107.45166       1.05000    5931.44971       0.03674       5.23084       3.44567       6.79815       4.47809 
   5649.50000       2.93028       2.60714       2.78368      28.95603       8.33311       8.31653       8.34970      72.08078      16.23026       0.91480       0.13785       0.43350    2449.05811       0.17872       0.17301       2.42314       1.00000    3029.17651       0.56027       0.57834    3165.22705    3267.34375       1.05000    5931.97461       0.01708       6.56234       4.31695       6.72293       4.42260 
