# LAS format log file from PETREL
# Project units are specified as depth units
#==================================================================
~Version information
VERS.   2.0:
WRAP.   NO:
#==================================================================
~Well
STRT .ft      5008.0000000          :
STOP .ft      7272.0000000          :
STEP .ft      0.50000000            :
NULL .        -999.250000           :
COMP.                               : COMPANY
WELL.         VW1                   : WELL
FLD.                                : FIELD
LOC.                                : LOCATION
SRVC.                               : SERVICE COMPANY
DATE.         2020-07-27 11:17:52   : Log Export Date {yyyy-MM-dd HH:mm:ss}
PROV.                               : PROVINCE
UWI.          121152346000          : UNIQUE WELL ID
API.          121152346000          : API NUMBER
#==================================================================
~Curve
DEPT .ft                   : DEPTH
RLA2 .ohm.m               : RLA2
RLA3 .ohm.m               : RLA3
RLA4 .ohm.m               : RLA4
RLA5 .ohm.m               : RLA5
HCAL .in                  : HCAL
HTNP .ft3/ft3             : HTNP
PEFZ .b/e                 : PEFZ
RHOZ .g/cm3               : RHOZ
RXOZ .ohm.m               : RXOZ
REFL ._                   : REFL
REFL1 ._                  : REFL 1
DTCO .us/ft               : DTCO
DTSM .us/ft               : DTSM
~Parameter
#==================================================================
~Ascii
# ...
 6504.0000000 4.8092699051 5.0417299271 4.5936198235 4.6095399857 8.3686504364 0.0675899982 2.0860700607 2.4765000343 27.552640915  -999.250000  -999.250000 68.270866394 110.88719940
 6504.5000000 5.4134998322 5.4481902122 5.0226101875 5.2418799400 8.3760204315 0.0667100027 2.0744199753 2.4962699413 30.836580276  -999.250000  -999.250000 66.083312988 108.17340088
 6505.0000000 6.1265101433 6.3948111534 5.6920800209 6.2814102173 8.3391599655 0.0693800002 2.0354199409 2.5126700401 29.160049438  -999.250000  -999.250000 65.162681580 106.58000183
 6505.5000000 6.8621897697 6.8036098480 6.2082300186 7.5273499489 8.3612804413 0.0769900009 2.0243399143 2.5140500069 24.217290878  -999.250000  -999.250000 64.974273682 106.67230225
 6506.0000000 6.0423288345 5.9803600311 5.5317201614 7.0763001442 8.3833999634 0.0882299989 2.0677099228 2.5025899410 18.803510666  -999.250000  -999.250000 64.934333801 107.14610291
 6506.5000000 5.5238399506 5.3376998901 5.0149202347 6.3800902367 8.4055099487 0.0952899978 2.1364800930 2.4921700954 19.052200317  -999.250000  -999.250000 64.858840942 107.63839722
 6507.0000000 5.8014488220 5.5130100250 5.0672497749 6.5235300064 8.4128904343 0.0922100022 2.1484100819 2.5020198822 17.933509827  -999.250000  -999.250000 64.520408630 108.03420258
 6507.5000000 6.2885599136 5.6949200630 5.3432698250 6.6818399429 8.4018297195 0.0934299976 2.1388499737 2.5127699375 17.117080688  -999.250000  -999.250000 65.211593628 108.35019684
 6508.0000000 7.3945498466 6.5291600227 5.6245198250 6.9564189911 8.4202604294 0.1025300026 2.1332499981 2.5009899139 16.176229477  -999.250000  -999.250000 65.665512085 108.99179840
 6508.5000000 6.7262101173 5.7928199768 5.0943698883 5.8094501495 8.4350099564 0.1194199994 2.1081900597 2.4758799076 19.081029892  -999.250000  -999.250000 65.648918152 110.20790100
 6509.0000000 6.1413798332 5.2404999733 4.5213799477 4.8915200233 8.4239501953 0.1195299998 2.0650300980 2.4515700340 19.394609451  -999.250000  -999.250000 67.722053528 111.91670227
 6509.5000000 5.1737599373 4.4831800461 3.8779499531 4.0319299698 8.4128904343 0.1142399982 2.0227398872 2.4351699352 21.102350235  -999.250000  -999.250000 68.853027344 113.86990356
 6510.0000000 4.4227900505 3.8455500603 3.3883099556 3.4326999187 8.4497499466 0.1076299995 1.9995700121 2.4226999283 22.592670441  -999.250000  -999.250000 69.159851074 115.47589874
 6510.5000000 4.3498301506 3.7100999355 3.2101399899 3.1967899799 8.4423799515 0.1095900014 2.0002899170 2.4071199894 20.234659195  -999.250000  -999.250000 69.723869324 116.50000000
 6511.0000000 4.1666498184 3.5632500648 3.1004900932 3.0858600140 8.4460697174 0.1166699976 2.0102300644 2.3967199326 17.399520874  -999.250000  -999.250000 69.869789124 117.32430267
 6511.5000000 3.8784000874 3.3332300186 2.9465100765 2.8890399933 8.4792499542 0.1235399991 2.0336000919 2.3927400112 15.944299698  -999.250000  -999.250000 70.342292786 118.11139679
 6512.0000000 3.6023199558 3.1510300636 2.7955300808 2.7421500683 8.4718704224 0.1243200004 2.0634698868 2.3956599236 17.094310760  -999.250000  -999.250000 70.832603455 118.75599670
 6512.5000000 3.5535299778 3.1793200970 2.8509099483 2.7902100086 8.4571304321 0.1178399995 2.0644700527 2.4068899155 19.636999130  -999.250000  -999.250000 71.180946350 119.34300232
 6513.0000000 3.5408499241 3.2203700542 2.8717300892 2.8316099644 8.4718704224 0.1260699928 2.0577399731 2.4166400433 18.737300873  -999.250000  -999.250000 71.327796936 119.99690247
 6513.5000000 3.4837000370 3.1892900467 2.8435599804 2.8699700832 8.4939899445 0.1366200000 2.0353899002 2.4265499115 17.875879288  -999.250000  -999.250000 71.503700256 120.57029724
 6514.0000000 3.4805200100 3.1034801006 2.7506198883 2.8409199715 8.5234804153 0.1447599977 2.0773200989 2.4168601036 17.009519577  -999.250000  -999.250000 71.717468262 120.88610077
 6514.5000000 3.4568700790 3.1178500652 2.7764298916 2.8737399578 8.5013599396 0.1445199996 2.1040599346 2.4045500755 17.662599564  -999.250000  -999.250000 71.768867493 121.14510345
 6515.0000000 3.5352098942 3.1464400291 2.7776899338 2.8804800510 8.5308599472 0.1502999961 2.1359601021 2.3840301037 16.273389816  -999.250000  -999.250000 72.321823120 122.12830353
 6515.5000000 3.4559700489 3.0576300621 2.7034800053 2.8195099831 8.5161104202 0.1551699936 2.1145899296 2.3727900982 14.825010300  -999.250000  -999.250000 72.638496399 123.04689789
 6516.0000000 3.4183299541 2.9715099335 2.6231999397 2.7007899284 8.5234804153 0.1547199935 2.0999000072 2.3636701107 14.077309608  -999.250000  -999.250000 72.999366760 122.84100342
 6516.5000000 3.4101500511 2.9260499477 2.5871601105 2.6454999447 8.5124197006 0.1537300050 2.0616500378 2.3663899899 14.355330467  -999.250000  -999.250000 73.159530640 122.03959656
 6517.0000000 3.5064001083 2.9385600090 2.6069700718 2.6457800865 8.5234804153 0.1460199952 1.9931800365 2.3839399815 14.010589600  -999.250000  -999.250000 73.328910828 121.09210205
 6517.5000000 3.5447700024 2.9820299149 2.6471300125 2.6764400005 8.5124197006 0.1387999952 1.9668200016 2.3937399387 14.259670258  -999.250000  -999.250000 73.413848877 120.03959656
 6518.0000000 3.5680999756 3.0271699429 2.6934800148 2.7205300331 8.5013599396 0.1279900074 1.9577300549 2.4069299698 15.041910172  -999.250000  -999.250000 72.351097107 119.10720062
 6518.5000000 3.5274500847 3.0888199806 2.7557299137 2.7872200012 8.5161104202 0.1296100020 2.0290501118 2.4069299698 16.271060944  -999.250000  -999.250000 71.301376343 118.35839844
 6519.0000000 3.4574398994 3.1832799911 2.8411600590 2.8877899647 8.5161104202 0.1275400072 2.0609200001 2.4312601089 17.641590118  -999.250000  -999.250000 71.108581543 117.75080109
 6519.5000000 3.7411599159 3.4492199421 3.0311300755 3.0948600769 8.5013599396 0.1216899976 2.1049799919 2.4539000988 17.756439209  -999.250000  -999.250000 71.104476929 117.48179626
 6520.0000000 4.0540199280 3.6947100163 3.1668100357 3.2424600124 8.5013599396 0.1158500016 2.1080100536 2.4720799923 16.090719223  -999.250000  -999.250000 71.109619141 117.94609833
 6520.5000000 4.0739102364 3.6273798943 3.0761499405 3.0791699886 8.4792499542 0.1254300028 2.0885300636 2.4606800079 16.472280502  -999.250000  -999.250000 71.383903503 119.44670105
 6521.0000000 3.2895100117 2.9257099628 2.5350201130 2.5001900196 8.4866199493 0.1368000060 2.0444600582 2.4301800728 16.996829987  -999.250000  -999.250000 72.509948730 121.33239746
 6521.5000000 2.6153399944 2.4602301121 2.1195099354 2.0710299015 8.4792499542 0.1487500072 1.9975800514 2.3972799778 15.212229729  -999.250000  -999.250000 73.454147339 123.38629913
 6522.0000000 2.3816499710 2.0288500786 1.8071999550 1.7114200592 8.5234804153 0.1615699977 2.0122199059 2.3610599041 10.660220146  -999.250000  -999.250000 73.569511414 125.60970306
 6522.5000000 2.1098399162 1.8078900576 1.6148099899 1.5281599760 8.5124197006 0.1758300066 2.0547900200 2.3361499310 8.2103204727  -999.250000  -999.250000 74.139556885 127.61699677
 6523.0000000 1.8228700161 1.6416499615 1.5028699636 1.4155399799 8.5013599396 0.1795299947 2.1090400219 2.3222599030 7.4591698647  -999.250000  -999.250000 74.947616577 128.92399597
 6523.5000000 1.8409899473 1.6435300112 1.5071799755 1.4147100449 8.5161104202 0.1712100059 2.1362500191 2.3288900852 8.3527297974  -999.250000  -999.250000 75.562629700 129.29479980
 6524.0000000 1.8706200123 1.7182699442 1.6135200262 1.4928699732 8.5013599396 0.1617099941 2.1689100266 2.3438599110 8.9099397659  -999.250000  -999.250000 75.642326355 128.79539490
 6524.5000000 1.7537699938 1.6402599812 1.5736600161 1.4716900587 8.5124197006 0.1426199973 2.1788198948 2.3742899895 8.8237400055  -999.250000  -999.250000 74.162132263 127.50360107
 6525.0000000 1.7277699709 1.6604399681 1.5908299685 1.5016000271 8.4681901932 0.1182200015 2.1691799164 2.4165499210 9.0122299194  -999.250000  -999.250000 73.087463379 125.49729919
 6525.5000000 2.1837599277 2.0378999710 1.9488799572 1.9546200037 8.4497499466 0.1040399969 2.1210401058 2.4597699642 10.225560188  -999.250000  -999.250000 71.886840820 120.82700348
