~Version Information
VERS  .          2.0                              :CWLS Log Ascii Standard - Version 2.0
WRAP  .          NO                               :One line per depth step
~Well Information Block
#MNEM.UNIT       Data Type                        Information
#---------       ---------                        -------------------------------
STRT  .F         5250.00000                       :START DEPTH
STOP  .F         7202.00000                       :STOP DEPTH
STEP  .F          0.50000                         :INCREMENT
NULL  .          -999.25                          :NULL DATA VALUE
COMP  .          ADM COMPANY                      :COMPANY
WELL  .          VERIFICATION WELL 1 Run 2        :WELL
FLD   .          WILDCAT                          :FIELD
LOC   .                                           :LOCATION
PROV  .                                           :PROVINCE
STAT  .                                           :STATE
CNTY  .                                           :COUNTY
CTRY  .                                           :COUNTRY
DATE  .                                           :DATE
UWI   .          VERIFICATION WELL 1 Run 2        :UNIQUE WELL UWI
LIC   .                                           :LICENSE NUMBER
API   .          121152346000                     :API NUMBER
SRVC  .                                           :SERVICE COMPANY
~Parameter Information Block
#MNEM.UNIT       Value                            Description
#---------       ---------                        -------------
LONG  .DEG       -88.893356                       :Well Surface Location
LATI  .DEG       39.879810                        :Well Surface Location
XWELL .DEG       -88.893356                       :X-coordinate of Well Head
YWELL .DEG       39.879810                        :Y-coordinate of Well Head
PDAT  .          GROUND LEVEL                     :Permanent Datum               
EPD   .ft        669.00                           :Elevation of Permanent Datum (PDAT) above Mean Sea Level
LMF   .          KELLY BUSHING                    :Logging Measured From (Name of Working Datum)
APD   .ft        15.00                            :Elevation of Working Datum (LMF) Above Permanent Datum
EDF   .ft        683.00                           :Elevation of Derrick Floor Above Mean Sea Level
EGL   .ft        669.00                           :Elevation of Ground Level Above Mean Sea Level
EKB   .ft        684.00                           :Elevation of Kelly Bushing Above Mean Sea Level
~Curve Information Block
#MNEM.UNIT       API Code            Curve    Description
#--------        --------------      -----    -------------------
DEPT  .F                             :0       Index
C44_BH.6PSI                          :1       C44 Referred to the Borehole Axis in a Deviated Well
C55_BH.6PSI                          :2       C55 Referred to the Borehole Axis in a Deviated Well
C66_BH.6PSI                          :3       C66 Referred to the Borehole Axis in a Deviated Well
GR_EDTC.GAPI                          :4       Gamma Ray                     
HD1_PPC1.IN                            :5       PPC1 Hole Diameter 1          
HD1_PPC1.IN                            :6       PPC1 Hole Diameter 1          
HD2_PPC1.IN                            :7       PPC1 Hole Diameter 2          
KINT  .MD                            :8       Intrinsic Permeability        
MAXXENE_OVERALL.                              :9       Overall estimate of maximum cross energy
MINXENE_OVERALL.                              :10      Overall estimate of minimum cross energy
PHIT  .V/V                           :11      Total Porosity_ includes all forms of porosity, including that occupied by bound fluids, and is independent of rock and fluid materials and of environmental effects
PPGI  .PS/F                          :12      Pore Pressure Gradient        
PPRS  .PSI                           :13      Pore Pressure                 
PR_HORIZ_FSA_SSA_DYN.                              :14      Dynamic Horizontal Poissons Ratio - Loading Fast Shear Azimuth - Displacement Slow Shear Aximuth
PR_VERT_FSA_DYN.                              :15      Dynamic Vertical Poissons Ratio - Loading Vertical - Displacement Fast Shear Aximuth
RHOZ  .G/C3                          :16      HRDD Standard Resolution Formation Density
SUWI  .V/V                           :17      Non-Clay Water Intergranular Water Saturation for Undisturbed Zone
TENS  .LBF                           :18      Cable Tension                 
TXSG  .PS/F                          :19      Total Minimum Horizontal Stress Gradient
TXSG  .PS/F                          :20      Total Minimum Horizontal Stress Gradient
TXSP  .PSI                           :21      Total Minimum Horizontal Stress - Sigma X
TXSP  .PSI                           :22      Total Minimum Horizontal Stress - Sigma X
TZSG  .PS/F                          :23      Total Vertical Stress Gradient
TZSP  .PSI                           :24      Total Vertical Stress - Sigma Z
VCL   .V/V                           :25      Volume of Clay Type Material Relative to Total Volume
YME_HORIZ_SSA_DYN.6PSI                          :26      Dynamic Horizontal Youngs Modulus in the Slow Shear Azimuth Direction
YME_HORIZ_SSA_STA.6PSI                          :27      Static Horizontal Youngs Modulus in the Slow Shear Azimuth Direction
YME_VERT_DYN.6PSI                          :28      Dynamic Vertical Youngs Modulus
YME_VERT_STA.6PSI                          :29      Static Vertical Youngs Modulus
~Ascii Data Section
# ...
   6930.00000       1.21491       1.20910       1.21647      82.00980       8.30585       8.30523       8.30647     358.96994       1.32410       0.72534       0.23668       0.43350    3004.15503       0.30201       0.30201       2.26627       1.00000    3497.87500       0.70025       0.70025    4852.71436    4852.71436       1.05000    7276.49951       0.07279       3.15995       1.38853       3.15995       1.38853 
   6930.50000       1.24524       1.23516       1.20898      73.57945       8.28862       8.27076       8.30647     260.51706       1.33189       0.74311       0.21506       0.43350    3004.37158       0.31542       0.31542       2.29746       1.00000    3450.52954       0.71756       0.71756    4973.03418    4973.03418       1.05000    7277.02490       0.07612       3.23540       1.57627       3.23540       1.57627 
   6931.00000       1.28521       1.27397       1.19741      75.34368       8.28862       8.27076       8.30647     180.36279       1.42941       0.76006       0.19585       0.43350    3004.58838       0.31694       0.31694       2.32228       1.00000    3466.75024       0.71235       0.71727    4937.28125    4971.39502       1.05000    7277.54980       0.08534       3.30818       1.75218       3.38508       1.79291 
   6931.50000       1.31629       1.30389       1.22139      81.01521       8.28211       8.27076       8.29346     153.68237       1.71031       0.78743       0.18915       0.43350    3004.80518       0.31462       0.31462       2.32872       1.00000    3587.00024       0.70886       0.71410    4913.47217    4949.77344       1.05000    7278.07471       0.08312       3.37642       1.83832       3.46084       1.88429 
   6932.00000       1.35311       1.33817       1.28685      81.86103       8.29506       8.27076       8.31936     165.46890       1.86124       0.81073       0.19319       0.43350    3005.02197       0.30955       0.30955       2.32884       1.00000    3624.25024       0.70124       0.70722    4861.00684    4902.42871       1.05000    7278.59961       0.07839       3.44329       1.84399       3.54392       1.89788 
   6932.50000       1.39740       1.38911       1.33358      86.75993       8.28296       8.25945       8.30647     162.78540       1.73021       0.83054       0.18714       0.43350    3005.23877       0.30995       0.30995       2.33277       1.00000    3567.47046       0.71042       0.71042    4924.95947    4924.95947       1.05000    7279.12451       0.07607       3.59807       1.97499       3.59807       1.97499 
   6933.00000       1.45750       1.45743       1.42006      93.54171       8.28296       8.25945       8.30647     112.59454       1.48965       0.84160       0.16553       0.43350    3005.45532       0.30874       0.30874       2.35537       1.00000    3487.18750       0.70885       0.70885    4914.45459    4914.45459       1.05000    7279.64990       0.08556       3.78224       2.25672       3.78224       2.25672 
   6933.50000       1.53274       1.53556       1.60545     106.35157       8.28660       8.27050       8.30270      75.46336       1.38161       0.85646       0.15030       0.43350    3005.67212       0.30367       0.30367       2.39053       1.00000    3474.49414       0.70236       0.70236    4869.82715    4869.82715       1.05000    7280.17480       0.08972       4.06203       2.56039       4.06203       2.56039 
   6934.00000       1.58880       1.59308       1.75817     113.70634       8.29189       8.27730       8.30647      44.98319       1.48817       0.88274       0.13789       0.43350    3005.88892       0.27971       0.30794       2.41306       1.00000    3489.00903       0.72715       0.70680    5042.06445    4900.92041       1.05000    7280.69971       0.09892       4.49987       2.95979       4.03889       2.65658 
   6934.50000       1.61755       1.62153       1.80144     114.32330       8.29516       8.28384       8.30647      34.80729       1.61909       0.90526       0.13374       0.43350    3006.10571       0.27471       0.30455       2.42019       1.00000    3442.91064       0.72416       0.70198    5021.71533    4867.89355       1.05000    7281.22461       0.09907       4.59261       3.06291       4.09015       2.72781 
   6935.00000       1.61734       1.62229       1.76757     112.22470       8.29891       8.28399       8.31383      36.90845       1.72643       0.91000       0.13659       0.43350    3006.32251       0.27570       0.29892       2.41286       1.00000    3395.83936       0.71316       0.69524    4945.73975    4821.51123       1.05000    7281.74951       0.09513       4.50979       2.97927       4.10306       2.71057 
   6935.50000       1.60065       1.60777       1.69868     111.30855       8.30203       8.29392       8.31015      53.94812       1.84723       0.90860       0.14521       0.43350    3006.53931       0.27911       0.29323       2.40371       1.00000    3507.12500       0.70006       0.68885    4855.27344    4777.53760       1.05000    7282.27490       0.08971       4.34558       2.78800       4.08814       2.62283 
   6936.00000       1.56271       1.57623       1.61637     112.20038       8.28542       8.26437       8.30647      74.68517       1.92326       0.86707       0.15685       0.43350    3006.75586       0.28825       0.28825       2.38903       1.00000    3650.57251       0.68318       0.68318    4738.51172    4738.51172       1.05000    7282.79980       0.08507       4.08403       2.51513       4.08403       2.51513 
   6936.50000       1.51965       1.53116       1.58342     106.97757       8.27975       8.27046       8.28905     120.93089       1.98360       0.68585       0.16740       0.43350    3006.97266       0.28641       0.28641       2.37032       1.00000    3668.35303       0.68094       0.68094    4723.36963    4723.36963       1.05000    7283.32471       0.07609       3.97435       2.35492       3.97435       2.35492 
   6937.00000       1.49606       1.49334       1.53096     102.14454       8.27109       8.26067       8.28151     173.60213       2.11420       0.53775       0.17589       0.43350    3007.18945       0.28451       0.28451       2.35425       1.00000    3626.31372       0.67864       0.67864    4707.75781    4707.75781       1.05000    7283.84961       0.06467       3.87095       2.22102       3.87095       2.22102 
   6937.50000       1.47306       1.46438       1.53540      93.22520       8.26561       8.25064       8.28057     243.99495       2.28500       0.51084       0.18460       0.43350    3007.40625       0.28005       0.28005       2.34170       1.00000    3612.31177       0.67331       0.67331    4671.07617    4671.07617       1.05000    7284.37451       0.05843       3.81696       2.11657       3.81696       2.11657 
   6938.00000       1.44243       1.44304       1.51377      87.40996       8.28061       8.26339       8.29784     280.39343       2.42611       0.49129       0.19544       0.43350    3007.62305       0.28140       0.28140       2.32840       1.00000    3622.80005       0.67492       0.67492    4682.56152    4682.56152       1.05000    7284.89990       0.05752       3.75811       1.99389       3.75811       1.99389 
   6938.50000       1.41127       1.42509       1.46089      83.94930       8.28553       8.26459       8.30647     314.93008       2.58453       0.48235       0.20287       0.43350    3007.83960       0.28738       0.28738       2.31138       1.00000    3630.06836       0.68211       0.68211    4732.83105    4732.83105       1.05000    7285.42480       0.05883       3.68811       1.89619       3.68811       1.89619 
   6939.00000       1.39680       1.41700       1.36740      85.29879       8.27469       8.25442       8.29496     325.31619       2.78881       0.45160       0.20309       0.43350    3008.05640       0.29759       0.29759       2.30584       1.00000    3626.25122       0.69469       0.69469    4820.47363    4820.47363       1.05000    7285.94971       0.06024       3.61700       1.85787       3.61700       1.85787 
   6939.50000       1.39935       1.41885       1.33813      91.08405       8.26867       8.24813       8.28920     318.07281       2.90414       0.38526       0.19610       0.43350    3008.27319       0.29941       0.29941       2.31357       1.00000    3641.38721       0.68690       0.69396    4766.74365    4815.74219       1.05000    7286.47461       0.05643       3.55850       1.88280       3.68735       1.95097 
