~Version Information
VERS  .          2.0                              :CWLS Log Ascii Standard - Version 2.0
WRAP  .          NO                               :One line per depth step
~Well Information Block
#MNEM.UNIT       Data Type                        Information
#---------       ---------                        -------------------------------
STRT  .F         1820.00000                       :START DEPTH
STOP  .F         5250.00000                       :STOP DEPTH
STEP  .F          0.50000                         :INCREMENT
NULL  .          -999.25                          :NULL DATA VALUE
COMP  .          ADM COMPANY                      :COMPANY
WELL  .          VERIFICATION WELL 1              :WELL
FLD   .          WILDCAT                          :FIELD
LOC   .                                           :LOCATION
PROV  .                                           :PROVINCE
STAT  .                                           :STATE
CNTY  .                                           :COUNTY
CTRY  .                                           :COUNTRY
DATE  .                                           :DATE
UWI   .          VERIFICATION WELL 1              :UNIQUE WELL UWI
LIC   .                                           :LICENSE NUMBER
API   .                                           :API NUMBER
SRVC  .                                           :SERVICE COMPANY
~Parameter Information Block
#MNEM.UNIT       Value                            Description
#---------       ---------                        -------------
LONG  .DEG       -88.893356                       :Well Surface Location
LATI  .DEG       39.879810                        :Well Surface Location
XWELL .DEG       -88.893356                       :X-coordinate of Well Head
YWELL .DEG       39.879810                        :Y-coordinate of Well Head
PDAT  .          GROUND LEVEL                     :Permanent Datum               
EPD   .ft        669.00                           :Elevation of Permanent Datum (PDAT) above Mean Sea Level
LMF   .          KELLY BUSHING                    :Logging Measured From (Name of Working Datum)
APD   .ft        15.00                            :Elevation of Working Datum (LMF) Above Permanent Datum
EDF   .ft        683.00                           :Elevation of Derrick Floor Above Mean Sea Level
EGL   .ft        669.00                           :Elevation of Ground Level Above Mean Sea Level
EKB   .ft        684.00                           :Elevation of Kelly Bushing Above Mean Sea Level
~Curve Information Block
#MNEM.UNIT       API Code            Curve    Description
#--------        --------------      -----    -------------------
DEPT  .F                             :0       Index
C44_BH.6PSI                          :1       C44 Referred to the Borehole Axis in a Deviated Well
C55_BH.6PSI                          :2       C55 Referred to the Borehole Axis in a Deviated Well
C66_BH.6PSI                          :3       C66 Referred to the Borehole Axis in a Deviated Well
GR_EDTC.GAPI                          :4       Gamma Ray                     
HD1_PPC1.IN                            :5       PPC1 Hole Diameter 1          
HD1_PPC1.IN                            :6       PPC1 Hole Diameter 1          
HD2_PPC1.IN                            :7       PPC1 Hole Diameter 2          
KINT  .MD                            :8       Intrinsic Permeability        
MAXXENE_OVERALL.                              :9       Overall estimate of maximum cross energy
MINXENE_OVERALL.                              :10      Overall estimate of minimum cross energy
PHIT  .V/V                           :11      Total Porosity_ includes all forms of porosity, including that occupied by bound fluids, and is independent of rock and fluid materials and of environmental effects
PPGI  .PS/F                          :12      Pore Pressure Gradient        
PPRS  .PSI                           :13      Pore Pressure                 
PR_HORIZ_SSA_FSA_DYN.                              :14      Dynamic Horizontal Poissons Ratio - Loading Slow Shear Azimuth - Displacement Fast Shear Azimuth
PR_VERT_FSA_DYN.                              :15      Dynamic Vertical Poissons Ratio - Loading Vertical - Displacement Fast Shear Aximuth
RHOZ  .G/C3                          :16      HRDD Standard Resolution Formation Density
RHOZ  .G/C3                          :17      HRDD Standard Resolution Formation Density
SUWI  .V/V                           :18      Non-Clay Water Intergranular Water Saturation for Undisturbed Zone
TENS  .LBF                           :19      Cable Tension                 
TXSG  .PS/F                          :20      Total Minimum Horizontal Stress Gradient
TXSG  .PS/F                          :21      Total Minimum Horizontal Stress Gradient
TXSP  .PSI                           :22      Total Minimum Horizontal Stress - Sigma X
TXSP  .PSI                           :23      Total Minimum Horizontal Stress - Sigma X
TZSG  .PS/F                          :24      Total Vertical Stress Gradient
TZSP  .PSI                           :25      Total Vertical Stress - Sigma Z
VCL   .V/V                           :26      Volume of Clay Type Material Relative to Total Volume
YME_HORIZ_SSA_DYN.6PSI                          :27      Dynamic Horizontal Youngs Modulus in the Slow Shear Azimuth Direction
YME_HORIZ_SSA_STA.6PSI                          :28      Static Horizontal Youngs Modulus in the Slow Shear Azimuth Direction
YME_VERT_DYN.6PSI                          :29      Dynamic Vertical Youngs Modulus
YME_VERT_STA.6PSI                          :30      Static Vertical Youngs Modulus
~Ascii Data Section
# ...
   3416.00000       1.52258       1.53870       1.96855      51.12775      12.35800      12.40590      12.31011       2.95090       1.06045       0.70662       0.13371       0.43350    1480.83594       0.21228       0.26861       2.42213       2.42213       1.00000    2305.28564       0.70910       0.65610    2422.29419    2241.24609       1.05000    3586.79980       0.14996       4.77287       3.18344       3.64062       2.42825 
   3416.50000       1.83184       1.84498       2.18403      49.33989      12.38495      12.41514      12.35476       1.75235       1.14225       0.71605       0.10983       0.43350    1481.05273       0.26925       0.33709       2.52697       2.52696       1.00000    2320.42847       0.78179       0.73998    2670.98096    2528.15381       1.05000    3587.32495       0.13255       5.54415       3.99048       4.52690       3.25831 
   3417.00000       2.27651       2.27750       2.29244      52.29146      12.41912      12.45495      12.38328       0.35495       1.23366       0.70232       0.08591       0.43350    1481.26953       0.36412       0.36412       2.65239       2.65238       1.00000    2299.00000       0.78651       0.78651    2687.52173    2687.52173       1.05000    3587.84985       0.14814       6.22623       4.81057       6.22623       4.81057 
   3417.50000       2.65215       2.65236       2.35039      48.91553      12.44747      12.45774      12.43719       0.08777       1.44063       0.69026       0.07152       0.43350    1481.48621       0.35295       0.35303       2.71945       2.71944       1.00000    2286.55566       0.76982       0.76987    2630.85596    2631.04346       1.05000    3588.37476       0.16099       7.17587       5.77251       7.17746       5.77379 
   3418.00000       2.86442       2.91074       2.36525      47.21879      12.45980      12.46633      12.45326       0.07136       1.64368       0.69018       0.06483       0.43350    1481.70300       0.32497       0.33904       2.73663       2.73663       1.00000    2261.66675       0.73499       0.74474    2512.18481    2545.51440       1.05000    3588.89990       0.14839       7.47163       6.12090       7.79522       6.38600 
   3418.50000       2.98371       3.09497       2.55514      43.79785      12.49536      12.51881      12.47191       0.10187       1.72103       0.68470       0.05737       0.43350    1481.91968       0.29693       0.32630       2.73567       2.73567       1.00000    2268.33325       0.70233       0.72238    2400.92529    2469.46216       1.05000    3589.42480       0.12120       7.47076       6.24336       8.20970       6.86090 
   3419.00000       3.07779       3.22949       2.89542      41.23603      12.48241      12.47825      12.48656       0.08247       1.82120       0.69576       0.05159       0.43350    1482.13647       0.27903       0.31521       2.73569       2.73569       1.00000    2264.44434       0.68156       0.70602    2330.26831    2413.87817       1.05000    3589.94995       0.09787       7.51992       6.38051       8.49492       7.20778 
   3419.50000       3.15681       3.31398       3.12619      40.00280      12.39255      12.37325      12.41186       0.03018       1.96284       0.72403       0.04655       0.43350    1482.35327       0.27138       0.30670       2.72639       2.72639       1.00000    2260.44434       0.67197       0.69572    2297.79858    2379.00024       1.05000    3590.47485       0.11309       7.66356       6.58775       8.66074       7.44495 
   3420.00000       3.23628       3.37620       3.07822      39.14578      12.30413      12.30044      12.30782       0.01090       2.11452       0.75272       0.04426       0.43350    1482.56995       0.27210       0.30275       2.71782       2.71782       1.00000    2281.33325       0.67166       0.69225    2297.06787    2367.49341       1.05000    3590.99976       0.14402       7.90613       6.83628       8.79669       7.60633 
   3420.50000       3.33774       3.45970       3.15620      37.22850      12.29294      12.28608      12.29980       0.01000       2.32958       0.77751       0.04055       0.43350    1482.78674       0.27845       0.30500       2.73607       2.73606       1.00000    2304.88892       0.67831       0.69620    2320.16235    2381.35938       1.05000    3591.52490       0.16539       8.24363       7.19571       9.02985       7.88198 
   3421.00000       3.40726       3.52623       3.27021      32.64548      12.29154      12.28729      12.29579       0.01000       2.54791       0.79426       0.03893       0.43350    1483.00342       0.28290       0.30876       2.75040       2.75040       1.00000    2279.66675       0.68360       0.70107    2338.60083    2398.35327       1.05000    3592.04980       0.15480       8.45699       7.41222       9.22995       8.08969 
   3421.50000       3.43085       3.56063       3.38249      30.12334      12.28034      12.29698      12.26371       0.01512       2.73115       0.79021       0.04194       0.43350    1483.22021       0.28066       0.30845       2.75816       2.75816       1.00000    2277.00000       0.68136       0.70011    2331.26367    2395.42139       1.05000    3592.57495       0.12796       8.47852       7.37469       9.31780       8.10470 
   3422.00000       3.36002       3.49555       3.34473      29.53657      12.28621      12.32153      12.25088       0.07384       2.79372       0.74172       0.05043       0.43350    1483.43701       0.30475       0.30475       2.71977       2.71977       1.00000    2299.00000       0.70374       0.70374    2408.18237    2408.18237       1.05000    3593.09985       0.11122       8.87258       7.55097       8.87258       7.55097 
   3422.50000       3.24853       3.39206       3.26578      35.16305      12.29181      12.30788      12.27574       0.13219       2.76847       0.68288       0.05806       0.43350    1483.65369       0.29917       0.29917       2.68231       2.68231       1.00000    2259.00000       0.69668       0.69668    2384.37256    2384.37256       1.05000    3593.62476       0.11812       8.58006       7.15733       8.58006       7.15733 
   3423.00000       3.13295       3.31341       3.33887      35.25690      12.28048      12.27246      12.28850       0.08549       2.74320       0.64271       0.06214       0.43350    1483.87048       0.29231       0.29812       2.67516       2.67515       1.00000    2250.00000       0.70127       0.69813    2400.45532    2389.71045       1.05000    3594.14990       0.13252       8.62970       7.12092       8.36962       6.90631 
   3423.50000       3.05885       3.26448       3.34613      33.59851      12.29839      12.29698      12.29980       0.10550       2.52795       0.58570       0.06797       0.43350    1484.08728       0.29132       0.30566       2.69353       2.69353       1.00000    2248.00000       0.71546       0.70540    2449.38818    2414.92310       1.05000    3594.67480       0.12491       8.64181       7.01957       8.14956       6.61972 
   3424.00000       3.00445       3.16638       3.26402      31.44720      12.31642      12.29698      12.33587       0.37239       2.27840       0.52105       0.07501       0.43350    1484.30396       0.29161       0.30792       2.70606       2.70606       1.00000    2254.00000       0.71867       0.70663    2460.73633    2419.51294       1.05000    3595.19995       0.10199       8.43168       6.71769       7.92327       6.31263 
   3424.50000       2.88266       3.00949       3.00807      29.80107      12.33389      12.30788      12.35990       1.26261       2.13694       0.46350       0.08004       0.43350    1484.52075       0.29616       0.29616       2.69729       2.69729       1.00000    2255.00000       0.69291       0.69291    2372.87720    2372.87720       1.05000    3595.72485       0.07962       7.69075       6.04188       7.69075       6.04188 
   3425.00000       2.73200       2.88368       2.93898      33.83124      12.36266      12.32940      12.39592       1.64147       1.95800       0.41606       0.08080       0.43350    1484.73743       0.26858       0.27708       2.68421       2.68421       1.00000    2277.00000       0.67780       0.67098    2321.46533    2298.10913       1.05000    3596.24976       0.06892       7.45670       5.84548       7.12843       5.58815 
